     2.10           OBSERVATION DATA    M (MIXED)           RINEX VERSION / TYPE
LoggerServer.exe    NIST                31-Aug-20 23:59     PGM / RUN BY / DATE
The reference is antenna ARP only, mounted on a forced      COMMENT
centering threaded rod that is bolted to a metal tower.     COMMENT
The tower sits on the roof of NIST Building 1.              COMMENT
Signal Strengh values S1,S2 are in dBHz                     COMMENT
NIST                                                        MARKER NAME
49507M002                                                   MARKER NUMBER
NIST                NIST                                    OBSERVER / AGENCY
SWU04029169         NOV OEM4-G2         2.200-L1L2W         REC # / TYPE / VERS
04230007            NOV702          NONE                    ANT # / TYPE
 -1288349.1490 -4721661.0480  4078676.0170                  APPROX POSITION XYZ
        0.0000        0.0000        0.0000                  ANTENNA: DELTA H/E/N
     1     1                                                WAVELENGTH FACT L1/2
     8    C1    L1    D1    S1    P2    L2    D2    S2      # / TYPES OF OBSERV
  2020     9     1     0     0    0.0000000     GPS         TIME OF FIRST OBS
                                                            END OF HEADER
 20  9  1  0  0  0.0000000  0 10G 1G10G11G12G20G21G22G25G31G32
  22694610.30746 119260989.85946      2407.71546        42.620    22694613.29345
  92930656.64545      1876.13745        39.102
  21476075.07549 112857559.05749     -1715.05949        48.843    21476077.44547
  87940986.36547     -1336.41447        43.568
  22247627.99948 116912078.03148      -405.83648        45.649    22247627.36943
  91100324.25443      -316.23843        36.327
  24727353.87944 129943121.64744      1211.28544        38.685    24727354.30848
 101254379.76248       943.85548        46.569
  23683433.98246 124457308.29046     -3137.37146        41.742    23683433.93943
  96979715.98343     -2444.70743        35.239
  21599152.55249 113504322.96549     -1685.66049        48.067    21599151.23446
  88444944.82646     -1313.50446        41.404
  24191854.04746 127129064.43146      2951.37946        41.634    24191851.76343
  99061609.25543      2299.77343        35.302
  24367817.63845 128053750.19545      2299.10945        38.981    24367821.68941
  99782156.14441      1791.51241        25.676
  21645066.58449 113745656.64649      3039.22349        48.102    21645065.69646
  88633002.00446      2368.22346        41.389
  20387842.53349 107138916.25349      -631.91049        50.764    20387844.79448
  83484886.79048      -492.40248        45.953
 20  9  1  0  0 30.0000000  0 10G 1G10G11G12G20G21G22G25G31G32
  22680909.27046 119188992.06246      2392.71146        43.137    22680912.34944
  92874554.48444      1864.44544        36.808
  21485896.29349 112909169.28849     -1725.70749        48.996    21485898.46647
  87981202.13147     -1344.71147        43.554
  22250001.94547 116924553.65147      -426.00447        44.822    22250001.57344
  91110045.51044      -331.95344        37.109
  24720482.35745 129907011.36745      1195.55545        39.676    24720482.68148
 101226241.91748       931.59848        45.924
  23701361.41045 124551516.24345     -3143.09445        39.105    23701361.32042
  97053124.73342     -2449.17242        33.644
  21608816.81449 113555109.33749     -1700.04349        48.106    21608815.63746
  88484518.60046     -1324.71146        41.143
  24175008.04346 127040537.35346      2950.52746        42.195    24175006.05743
  98992627.14943      2299.10943        35.640
  24354723.06044 127984926.62544      2288.63744        38.486    24354724.49344
  99728531.72644      1783.35244        38.875
  21627753.32448 113654673.34948      3026.30148        47.630    21627752.50446
  88562105.96846      2358.15246        41.758
  20391478.34049 107158022.87249      -641.88749        50.734    20391480.63348
  83499775.06948      -500.17648        45.885
 20  9  1  0  1  0.0000000  0 10G 1G10G11G12G20G21G22G25G31G32
  22667295.19846 119117450.40646      2377.19546        43.155    22667298.30946
  92818807.74946      1852.35546        41.335
  21495779.01149 112961102.78749     -1736.55949        48.869    21495780.92446
  88021669.79446     -1353.16446        43.164
  22252491.35147 116937637.61247      -446.26647        44.683    22252491.30044
  91120240.80644      -347.74244        36.762
  24713700.27245 129871369.17345      1180.13345        41.094    24713700.34848
 101198468.84048       919.62948        45.626
  23719322.34045 124645902.68545     -3149.20345        40.309    23719322.69141
  97126672.54641     -2453.92641        31.320
  21618562.58049 113606323.37749     -1714.31249        48.040    21618561.47745
  88524425.62945     -1335.83245        40.989
  24158168.79046 126952047.17746      2949.04346        42.372    24158167.34444
  98923673.81544      2297.95344        36.775
  24341682.78544 127916395.45844      2279.53544        38.829    24341684.80245
  99675130.77045      1776.25845        39.661
  21610514.69348 113564083.84848      3013.06248        47.668    21610514.13046
  88491516.79946      2347.83646        42.099
  20395171.12749 107177429.31749      -651.87549        50.721    20395173.43948
  83514896.97348      -507.95748        45.888
 20  9  1  0  1 30.0000000  0 10G 1G10G11G12G20G21G22G25G31G32
  22653768.95247 119046367.33447      2362.07447        44.403    22653771.85944
  92763418.35244      1840.57444        37.636
  21505723.05049 113013359.56449     -1747.21949        48.559    21505725.10447
  88062389.34847     -1361.47347        43.533
  22255096.55447 116951329.17147      -466.41047        44.428    22255096.52644
  91130909.55744      -363.44144        37.267
  24707007.42445 129836196.83245      1164.45345        41.078    24707007.43947
 101171061.82247       907.36347        44.594
  23737317.34145 124740466.57245     -3154.95745        41.082    23737317.44842
  97200358.65142     -2458.41042        32.291
  21628389.49249 113657963.96649     -1728.44549        48.159    21628388.12946
  88564665.03846     -1346.84446        41.343
  24141337.07146 126863595.21746      2947.80146        41.928    24141335.35343
  98854750.24643      2296.98443        35.978
  24328695.08445 127848147.71245      2270.22745        39.306    24328698.75048
  99621950.78748      1769.00448        47.723
  21593351.42749 113473890.83249      2999.73849        47.851    21593350.68346
  88421236.56646      2337.45746        41.246
  20398920.86749 107197134.55949      -661.79749        50.637    20398923.16548
  83530251.70848      -515.68848        45.861
 20  9  1  0  2  0.0000000  0 10G 1G10G11G12G20G21G22G25G31G32
  22640330.47247 118975745.35547      2346.38747        44.623    22640333.15045
  92708388.24045      1828.35245        39.525
  21515728.81649 113065939.54449     -1757.99649        48.826    21515730.92747
  88103360.75647     -1369.87147        43.902
  22257817.36347 116965627.15847      -486.73447        44.899    22257817.45443
  91142050.84143      -379.27743        36.012
  24700404.05145 129801496.75145      1148.77745        39.905    24700403.71847
 101144022.79947       895.14847        44.351
  23755346.14146 124835206.94846     -3160.96546        41.829    23755345.76742
  97274182.31642     -2463.09442        33.807
  21638297.36849 113710029.37849     -1742.60549        48.230    21638295.81245
  88605235.48945     -1357.87945        40.933
  24124512.86946 126775182.75046      2946.47346        41.823    24124510.69643
  98785857.41543      2295.94943        34.936
  24315761.96943 127780186.57543      2260.94143        36.600    24315765.73848
  99568994.10848      1761.77348        46.837
  21576264.36249 113384097.14049      2986.37949        48.251    21576263.29046
  88351267.47646      2327.04746        41.831
  20402727.26649 107217137.53749      -671.70349        50.619    20402729.63148
  83545838.44848      -523.41048        46.006
 20  9  1  0  2 30.0000000  0 10G 1G10G11G12G20G21G22G25G31G32
  22626979.91647 118905586.85047      2331.12147        43.789    22626982.40245
  92653719.27345      1816.45345        39.794
  21525795.92849 113118842.74049     -1768.73449        48.708    21525798.30846
  88144584.02446     -1378.23846        43.235
  22260653.48847 116980530.10547      -506.87147        44.837    22260653.66644
  91153663.53544      -394.96944        37.737
  24693890.43845 129767271.10245      1132.81245        38.915    24693890.52146
 101117353.50446       882.70746        43.142
  23773407.70845 124930122.81645     -3166.67245        39.683    23773407.87643
  97348142.70043     -2467.53943        35.318
  21648285.54449 113762517.82049     -1756.66449        48.107    21648283.98545
  88646135.56345     -1368.83245        39.765
  24107696.09346 126686810.84846      2945.12946        43.098    24107693.93143
  98716996.24443      2294.90243        36.405
  24302884.51445 127712515.44245      2250.68845        39.219    24302887.29847
  99516263.36747      1753.77747        44.544
  21559253.55548 113294705.25848      2972.91448        47.719    21559252.76346
  88281611.49146      2316.55546        42.035
  20406590.16849 107237437.24349      -681.66049        50.677    20406592.53848
  83561656.40148      -531.16848        45.891
 20  9  1  0  3  0.0000000  0 10G 1G10G11G12G20G21G22G25G31G32
  22613717.66347 118835894.22347      2315.07847        43.408    22613720.64045
  92599413.36145      1803.95345        39.861
  21535924.61349 113172069.08449     -1779.69949        48.735    21535926.65746
  88186059.10046     -1386.78146        43.082
  22263604.59248 116996037.41248      -527.00848        45.591    22263604.68443
  91165747.13543      -410.66043        35.670
  24687468.42645 129733522.15945      1116.85545        39.237    24687467.96448
 101091055.56048       870.27348        45.869
  23791502.21645 125025213.41445     -3172.36345        39.417    23791503.42843
  97422239.19643     -2471.97343        35.677
  21658353.93849 113815428.43649     -1770.89149        47.891    21658352.75845
  88687364.59845     -1379.91845        40.797
  24090887.72647 126598480.98247      2943.62147        43.546    24090885.00142
  98648167.81542      2293.72742        33.941
  24290063.21444 127645137.29444      2241.26244        38.132    24290065.17448
  99463760.88148      1746.43448        46.196
  21542319.32748 113205717.90148      2959.43448        47.303    21542318.88946
  88212270.73746      2306.05146        41.694
  20410509.37949 107258032.56749      -691.33249        50.807    20410511.70447
  83577704.70447      -538.70347        45.447
 20  9  1  0  3 30.0000000  0 10G 1G10G11G12G20G21G22G25G31G32
  22600544.66547 118766669.91947      2299.54347        43.817    22600547.77144
  92545472.36944      1791.84844        38.596
  21546114.68549 113225618.59249     -1790.50849        48.708    21546116.44047
  88227785.98447     -1395.20347        43.340
  22266670.45047 117012147.71247      -547.12547        45.428    22266670.02643
  91178300.61943      -426.33643        35.675
  24681137.37745 129700251.72645      1101.16445        40.134    24681136.99148
 101065130.56648       858.04748        45.859
  23809630.79546 125120477.26246     -3178.16846        41.525    23809631.85842
  97496470.73342     -2476.49642        34.168
  21668502.37348 113868759.02348     -1784.64848        47.765    21668501.28745
  88728920.89045     -1390.63745        40.592
  24074087.57846 126510194.34646      2942.03946        42.904    24074085.01643
  98579373.05643      2292.49643        34.716
  24277297.84244 127578055.13244      2230.89144        37.988    24277301.18949
  99411489.13649      1738.35549        48.417
  21525463.07148 113117138.01148      2945.85948        47.721    21525462.27546
  88143247.47646      2295.47346        41.741
  20414484.67949 107278922.52349      -701.19149        50.763    20414486.81747
  83593982.59447      -546.38747        45.348
 20  9  1  0  4  0.0000000  0 10G 1G10G11G12G20G21G22G25G31G32
  22587461.01747 118697916.35147      2284.01647        43.350    22587464.52644
  92491898.17744      1779.75044        38.314
  21556366.31949 113279491.14549     -1801.16449        48.722    21556367.97046
  88269764.58846     -1403.50846        43.054
  22269850.92248 117028859.01648      -567.07448        46.013    22269849.74444
  91191322.41044      -441.87944        36.834
  24674897.72545 129667461.72345      1084.86745        38.949    24674897.24848
 101039579.93848       845.23048        45.733
  23827792.15645 125215913.48045     -3184.26245        41.061    23827792.10441
  97570836.66741     -2481.24241        29.747
  21678730.46749 113922508.24349     -1798.66849        47.813    21678729.47245
  88770803.39145     -1401.56245        40.510
  24057295.24346 126421951.82846      2940.61746        42.262    24057293.28043
  98510612.68943      2291.38743        35.544
  24264588.89744 127511272.28944      2221.02744        38.118    24264593.68349
  99359450.63549      1730.66849        48.604
  21508685.34749 113028968.08949      2932.05949        47.982    21508683.57846
  88074543.64546      2284.71946        41.307
  20418515.76949 107300106.02049      -711.10249        50.773    20418517.74147
  83610489.21747      -554.10947        45.478
 20  9  1  0  4 30.0000000  0 10G 1G10G11G12G20G21G22G25G31G32
  22574467.52147 118629635.89547      2267.78547        43.833    22574471.29244
  92438692.64644      1767.10244        37.744
  21566679.59949 113333686.70549     -1811.85249        48.771    21566681.15346
  88311994.89446     -1411.83646        43.110
  22273145.48948 117046170.67648      -586.95348        45.864    22273143.57643
  91204812.02643      -457.37143        35.515
  24668749.36745 129635154.53645      1068.80945        39.104    24668749.15347
 101014405.54447       832.83647        44.833
  23845985.48544 125311521.71744     -3190.12944        37.977    23845985.06642
  97645336.55442     -2485.81642        32.979
  21689037.93049 113976674.76249     -1812.36749        47.839    21689036.96445
  88813011.05145     -1412.23845        40.795
  24040511.69246 126333754.61646      2938.87146        42.674    24040509.63543
  98441887.62143      2290.02743        35.813
  24251938.34044 127444791.96644      2210.28144        38.371    24251942.98149
  99307647.82249      1722.29349        48.711
  21491985.48448 112941210.57048      2918.41448        47.384    21491984.01346
  88006161.20246      2274.08646        41.527
  20422602.53749 107321581.99149      -720.66449        50.782    20422604.40647
  83627223.74747      -561.55947        45.406
 20  9  1  0  5  0.0000000  0 10G 1G10G11G12G20G21G22G25G31G32
  22561564.57147 118561830.94847      2252.12947        44.136    22561568.25245
  92385857.64545      1754.90245        39.058
  21577054.14649 113388205.23549     -1822.77349        48.722    21577055.70846
  88354476.84446     -1420.34846        43.034
  22276553.76747 117064081.37247      -606.97347        45.229    22276552.20543
  91218768.40043      -472.96943        36.193
  24662693.75045 129603332.13245      1052.74645        40.934    24662693.53347
 100989608.87447       820.18047        43.581
  23864211.50346 125407300.16846     -3195.41046        41.169    23864210.95843
  97719969.04043     -2489.93443        34.782
  21699424.66349 114031256.74449     -1826.41849        48.272    21699423.74245
  88855542.45645     -1423.18845        40.518
  24023737.08146 126245604.08046      2937.53946        41.397    24023734.95243
  98373198.90243      2288.98843        34.743
  24239345.86044 127378617.03544      2200.66844        37.928    24239349.49948
  99256082.92748      1714.80548        46.384
  21475364.57649 112853868.36049      2904.49649        48.010    21475363.34146
  87938102.38246      2263.24246        41.768
  20426744.75849 107343349.43249      -730.39849        50.810    20426746.50147
  83644185.39447      -569.14547        45.458
 20  9  1  0  5 30.0000000  0 10G 1G10G11G12G20G21G22G25G31G32
  22548752.84647 118494503.85947      2236.14547        44.135    22548756.08544
  92333394.99544      1742.44544        38.175
  21587489.98649 113443046.60749     -1833.32849        48.613    21587491.52046
  88397210.37246     -1428.57046        43.213
  22280075.65347 117082590.00747      -626.91047        45.072    22280074.74343
  91233190.68843      -488.50443        36.045
  24656730.61445 129571996.16345      1036.25445        39.793    24656730.25147
 100965191.27047       807.46947        44.010
  23882470.32946 125503247.98046     -3201.10246        42.351    23882469.23642
  97794733.52742     -2494.36742        33.822
  21709890.19249 114086252.52449     -1839.97349        48.244    21709889.27345
  88898396.30445     -1433.75045        40.855
  24006971.41845 126157501.37645      2935.78145        40.724    24006969.62443
  98304547.47843      2287.61743        34.716
  24226811.90145 127312750.80945      2190.64545        39.046    24226815.53948
  99204758.63948      1706.99248        46.880
  21458823.73649 112766944.06149      2890.55149        48.557    21458822.20646
  87870369.17646      2252.37546        42.089
  20430942.18649 107365407.29749      -740.09849        50.734    20430943.93247
  83661373.33747      -576.70347        45.237
 20  9  1  0  6  0.0000000  0 10G 1G10G11G12G20G21G22G25G31G32
  22536032.24647 118427657.04747      2220.37147        43.655    22536035.49544
  92281306.58644      1730.15644        38.566
  21597987.49149 113498210.76849     -1844.14849        48.461    21597988.95946
  88440195.42946     -1437.00446        43.178
  22283711.13047 117101695.13047      -646.79347        44.786    22283710.16744
  91248077.79144      -503.99644        37.489
  24650860.47045 129541148.15145      1019.97745        39.240    24650860.02547
 100941153.85447       794.96947        44.973
  23900760.87345 125599364.22845     -3206.85245        40.761    23900759.84941
  97869629.28941     -2498.84841        32.079
  21720434.23149 114141660.89249     -1853.77049        48.149    21720433.09345
  88941571.65245     -1444.50045        40.631
  23990215.03046 126069448.00246      2934.32846        41.572    23990213.84043
  98235934.52543      2286.48843        36.085
  24214337.43245 127247196.38245      2179.98445        40.313    24214341.41048
  99153677.36548      1698.68848        47.110
  21442362.74549 112680440.24949      2876.39549        48.038    21442361.18446
  87802963.63646      2241.34446        41.970
  20435194.67949 107387754.51749      -749.67249        50.759    20435196.28247
  83678786.75947      -584.16447        44.980
 20  9  1  0  6 30.0000000  0 10G 1G10G11G12G20G21G22G25G31G32
  22523403.21147 118361292.82047      2203.80947        43.617    22523406.57144
  92229594.21044      1717.25044        38.730
  21608546.17749 113553697.62549     -1854.89849        48.586    21608548.00346
  88483431.94346     -1445.37946        42.954
  22287459.77347 117121395.40947      -666.47747        45.293    22287458.81344
  91263428.62844      -519.33644        36.720
  24645083.75945 129510791.05345      1003.66445        39.849    24645083.26747
 100917498.99647       782.07447        44.302
  23919082.55844 125695648.36444     -3212.44944        37.055    23919082.28741
  97944655.87241     -2503.21541        31.224
  21731056.14249 114197479.59449     -1867.43449        48.235    21731055.15345
  88985066.73145     -1455.14545        40.277
  23973468.92246 125981445.14946      2932.70746        42.985    23973467.41544
  98167360.91244      2285.22344        37.101
  24201923.01145 127181956.84645      2169.82445        39.613    24201926.36747
  99102841.38247      1690.77047        44.739
  21425981.81848 112594359.48348      2862.28948        47.661    21425980.92146
  87735887.77246      2230.35246        42.295
  20439502.02449 107410390.05549      -759.35249        50.682    20439503.46547
  83696424.83947      -591.70747        45.011
 20  9  1  0  7  0.0000000  0 10G 1G10G11G12G20G21G22G25G31G32
  22510866.73447 118295413.46347      2188.11347        43.337    22510870.08044
  92178259.67144      1705.02044        38.484
  21619166.21549 113609507.09249     -1865.68049        48.399    21619168.44346
  88526919.81846     -1453.78146        42.955
  22291321.47147 117141689.18847      -686.24647        45.020    22291320.54543
  91279241.96443      -534.74243        35.779
  24639400.98445 129480926.70245       987.25845        39.235    24639400.22247
 100894228.10547       769.28947        44.966
  23937436.35845 125792098.82745     -3217.82445        40.329    23937436.36343
  98019812.03543     -2507.39843        35.509
  21741755.98849 114253707.48049     -1881.10249        48.050    21741755.07745
  89028880.64945     -1465.79745        40.629
  23956732.68847 125893493.79647      2930.88347        43.767    23956730.29543
  98098827.39043      2283.80143        34.510
  24189568.33644 127117035.28644      2158.69144        38.868    24189571.44547
  99052253.18047      1682.09447        44.645
  21409681.98949 112508704.45549      2847.98849        47.935    21409681.44446
  87669143.64346      2219.20746        42.626
  20443864.06649 107433312.84049      -768.89549        50.749    20443865.44847
  83714286.74647      -599.14147        44.917
 20  9  1  0  7 30.0000000  0 10G 1G10G11G12G20G21G22G25G31G32
  22498423.14047 118230021.35747      2171.50447        44.710    22498426.37744
  92127304.80644      1692.07844        38.061
  21629847.84949 113665639.04249     -1876.48049        48.279    21629849.89147
  88570658.99747     -1462.19547        43.339
  22295296.13547 117162575.35847      -705.82847        45.340    22295295.24043
  91295516.86343      -550.00043        34.812
  24633811.95845 129451556.79345       970.59045        39.603    24633811.80947
 100871342.46347       756.32447        45.115
  23955822.26546 125888714.46746     -3223.20346        42.654    23955821.61141
  98095096.95341     -2511.59041        32.220
  21752533.31249 114310342.51649     -1894.60949        47.915    21752532.45745
  89073011.84445     -1476.32045        40.905
  23940006.32447 125805595.30547      2929.17247        43.908    23940003.44043
  98030335.06743      2282.46943        34.617
  24177275.10844 127052434.77644      2147.72344        38.806    24177278.26848
  99001915.15548      1673.54748        46.162
  21393463.98049 112423477.72649      2833.66849        48.364    21393463.08746
  87602733.24146      2208.05146        42.387
  20448280.57849 107456521.87149      -778.40649        50.683    20448281.90947
  83732371.70547      -606.55547        45.081
 20  9  1  0  8  0.0000000  0 10G 1G10G11G12G20G21G22G25G31G32
  22486072.74247 118165118.76947      2155.38347        44.789    22486075.68945
  92076731.38245      1679.51645        38.936
  21640590.70649 113722093.35649     -1887.20349        48.305    21640592.84246
  88614649.36746     -1470.55146        43.021
  22299383.14247 117184052.33647      -725.87547        45.125    22299382.39543
  91312252.17343      -565.62143        35.737
  24628317.53545 129422682.92645       954.14845        40.806    24628317.97347
 100848841.36247       743.39847        45.280
  23974239.24045 125985494.37245     -3228.46145        40.195    23974238.37742
  98170509.83242     -2515.68842        34.222
  21763387.63048 114367383.25348     -1908.15648        47.652    21763386.94445
  89117459.15745     -1486.87945        40.848
  23923290.32046 125717751.17046      2927.34446        43.102    23923287.67544
  97961885.10344      2281.04344        36.934
  24165043.99245 126988158.44045      2136.89845        39.815    24165047.23948
  98951829.77848      1665.11748        47.340
  21377327.86949 112338681.94349      2819.25849        48.572    21377327.09446
  87536658.65046      2196.82046        42.370
  20452751.30549 107480016.09749      -787.90249        50.622    20452752.85347
  83750678.89447      -613.95347        45.367
 20  9  1  0  8 30.0000000  0 10G 1G10G11G12G20G21G22G25G31G32
  22473816.12347 118100708.03247      2138.68847        45.057    22473818.93345
  92026541.21445      1666.50845        39.038
  21651394.87849 113778869.91849     -1897.96949        48.359    21651397.14546
  88658890.82746     -1478.94146        42.925
  22303581.86047 117206118.98547      -745.25847        44.544    22303581.23943
  91329446.95343      -580.72343        34.945
  24622918.63945 129394307.07145       937.49645        40.977    24622918.33148
 100826730.27948       730.51248        45.658
  23992685.96144 126082437.55044     -3234.37544        36.883    23992685.82442
  98246049.88742     -2520.30142        33.946
  21774318.92749 114424828.12549     -1921.46949        47.840    21774318.41245
  89162221.38345     -1497.25045        40.773
  23906584.69846 125629962.39546      2925.38346        42.873    23906582.35043
  97893478.32143      2279.51643        35.298
  24152874.73944 126924209.33544      2125.81244        37.603    24152878.32348
  98901999.33148      1656.47748        46.539
  21361274.24349 112254319.57349      2804.82049        48.422    21361273.50046
  87470921.78646      2185.57046        42.281
  20457276.21849 107503794.43549      -797.40249        50.877    20457277.89547
  83769207.47347      -621.35547        45.365
 20  9  1  0  9  0.0000000  0 10G 1G10G11G12G20G21G22G25G31G32
  22461653.48547 118036791.42947      2122.18047        45.337    22461656.12145
  91976736.08445      1653.64545        40.030
  21662260.56949 113835968.59349     -1908.64849        48.662    21662262.47946
  88703383.30446     -1487.26246        43.299
  22307892.94647 117228773.53947      -764.90647        44.865    22307892.00743
  91347099.86143      -596.03543        35.958
  24617614.38145 129366431.75545       920.64145        40.173    24617613.36848
 100805009.22648       717.37948        45.698
  24011164.16745 126179543.22745     -3239.59445        39.855    24011164.41342
  98321716.62542     -2524.35942        33.890
  21785326.76748 114482675.18648     -1934.94548        47.762    21785326.16845
  89207296.99045     -1507.75445        40.869
  23889889.23746 125542230.42246      2923.27346        41.707    23889886.72542
  97825115.78742      2277.87142        34.341
  24140768.73245 126860590.63045      2114.97345        40.949    24140771.73247
  98852426.30647      1648.02347        45.236
  21345303.58049 112170393.11249      2790.29749        48.303    21345302.36546
  87405524.57846      2174.25446        41.902
  20461855.09949 107527855.87749      -806.70349        50.735    20461856.76147
  83787956.64747      -628.60247        45.335
 20  9  1  0  9 30.0000000  0 10G 1G10G11G12G20G21G22G25G31G32
  22449585.06947 117973371.15447      2105.90247        45.003    22449588.05645
  91927317.71645      1640.96145        39.966
  21673187.37349 113893389.26149     -1919.45749        48.292    21673189.12646
  88748126.67646     -1495.68446        42.966
  22312315.67747 117252014.69747      -784.42247        44.880    22312314.97043
  91365209.83443      -611.24243        34.810
  24612404.31944 129339058.33444       903.93844        38.551    24612404.01747
 100783679.36947       704.36347        43.791
  24029674.18946 126276810.03946     -3244.88746        42.445    24029673.95142
  98397508.96942     -2528.48842        33.643
  21796410.99549 114540922.89849     -1948.22349        47.819    21796410.41345
  89252684.79945     -1518.09845        40.561
  23873205.42347 125454556.55347      2921.51247        44.409    23873202.78942
  97756798.50042      2276.50042        34.065
  24128726.38745 126797305.28945      2103.63745        40.222    24128728.69048
  98803113.05048      1639.19548        46.688
  21329416.36549 112086905.24449      2775.62149        48.330    21329414.95946
  87340469.12246      2162.82046        41.795
  20466487.64349 107552199.36949      -816.21549        50.691    20466489.44248
  83806925.60548      -636.01648        45.711
 20  9  1  0 10  0.0000000  0 10G 1G10G11G12G20G21G22G25G31G32
  22437611.38947 117910449.57947      2089.07047        44.537    22437614.29845
  91878287.91045      1627.84445        40.048
  21684175.41849 113951131.76849     -1930.23849        48.368    21684177.15546
  88793120.82646     -1504.08646        43.333
  22316849.72347 117275840.83447      -803.90647        45.021    22316848.95343
  91383775.64943      -626.42243        35.950
  24607290.57544 129312188.65044       887.16444        38.776    24607290.55247
 100762741.91747       691.29347        44.697
  24048214.07344 126374237.11544     -3250.13344        38.176    24048214.25142
  98473426.11942     -2532.57842        33.313
  21807571.10348 114599569.27048     -1961.49648        47.757    21807570.44745
  89298383.25845     -1528.44145        40.561
  23856533.22847 125366941.96547      2919.52347        44.431    23856530.04142
  97688527.41242      2274.94942        32.873
  24116747.25044 126734356.38844      2092.98444        38.683    24116750.37849
  98754062.01649      1630.89549        48.366
  21313612.94349 112003858.42749      2760.87149        48.340    21313611.53046
  87275757.35046      2151.32446        41.797
  20471173.56949 107576823.86949      -825.52749        50.717    20471175.51948
  83826113.53348      -643.27048        45.651
 20  9  1  0 10 30.0000000  0 10G 1G10G11G12G20G21G22G25G31G32
  22425732.86947 117848028.80847      2072.44147        44.560    22425735.74745
  91829648.36145      1614.88745        39.289
  21695224.83149 114009195.91849     -1940.91049        48.671    21695226.57946
  88838365.61346     -1512.40246        42.655
  22321494.54747 117300250.19847      -823.42247        43.870    22321493.85944
  91402795.91044      -641.62944        37.611
  24602273.57545 129285824.22545       870.34045        40.672    24602273.55146
 100742198.26446       678.18446        42.452
  24066783.79044 126471823.29344     -3255.37544        37.761    24066784.01843
  98549467.24543     -2536.66443        34.926
  21818806.77848 114658612.54948     -1974.61348        47.756    21818805.93545
  89344390.99845     -1538.66445        39.979
  23839872.68647 125279388.06747      2917.37547        44.956    23839869.26643
  97620303.59343      2273.27743        35.183
  24104832.47645 126671746.96645      2080.93845        39.737    24104836.18248
  98705275.53948      1621.50848        46.222
  21297893.82549 111921255.13649      2746.07049        48.235    21297892.58446
  87211391.19246      2139.79346        42.083
  20475912.62849 107601728.33749      -834.79349        50.526    20475914.77748
  83845519.61548      -650.49248        45.764
 20  9  1  0 11  0.0000000  0 10G 1G10G11G12G20G21G22G25G31G32
  22413950.10947 117786111.10347      2055.77047        44.687    22413953.23045
  91781400.82045      1601.89545        38.902
  21706335.26249 114067581.58549     -1951.60949        48.486    21706336.89646
  88883860.93246     -1520.73846        43.032
  22326250.11147 117325241.37047      -842.81247        45.102    22326249.26843
  91422269.52243      -656.73843        35.347
  24597353.23145 129259967.16245       853.57445        40.362    24597352.91346
 100722049.91746       665.12146        42.623
  24085384.11645 126569567.19945     -3260.92245        40.607    24085384.23842
  98625631.28042     -2540.98042        32.358
  21830117.57248 114718051.27248     -1987.93448        47.664    21830116.54645
  89390706.87045     -1549.04345        39.831
  23823224.03247 125191896.22047      2915.11347        44.416    23823220.45843
  97552128.11443      2271.51243        34.788
  24092984.08545 126609480.18745      2069.64545        39.853    24092986.53548
  98656755.94648      1612.70748        45.941
  21282259.87049 111839098.04949      2731.07849        48.430    21282258.57446
  87147372.70446      2128.10946        42.790
  20480704.73749 107626911.73349      -844.15249        50.600    20480707.09448
  83865143.04848      -657.78548        45.843
 20  9  1  0 11 30.0000000  0 10G 1G10G11G12G20G21G22G25G31G32
  22402263.52847 117724698.71547      2038.80547        44.224    22402266.98345
  91733547.03145      1588.67645        38.994
  21717506.86849 114126288.55949     -1962.21549        48.612    21717508.62146
  88929606.62646     -1529.00046        43.059
  22331116.48047 117350812.74847      -862.07847        44.833    22331115.53743
  91442195.26943      -671.75443        34.915
  24592529.86145 129234619.24045       836.28945        40.626    24592529.13647
 100702298.26147       651.65247        44.536
  24104014.08445 126667468.28045     -3265.51645        39.974    24104014.23941
  98701917.81241     -2544.56241        30.394
  21841503.33448 114777883.43248     -2001.00048        47.665    21841501.98745
  89437329.32245     -1559.22345        40.052
  23806586.93347 125104467.75447      2913.07447        44.393    23806583.58042
  97484002.04942      2269.92642        34.321
  24081200.71145 126547558.94145      2058.59045        39.711    24081202.88647
  98608505.62247      1604.09447        44.642
  21266711.26549 111757389.53249      2716.01249        48.384    21266710.14846
  87083703.76146      2116.37146        42.364
  20485549.87349 107652373.01749      -853.41049        50.672    20485552.19547
  83884983.01447      -665.00047        45.368
 20  9  1  0 12  0.0000000  0 10G 1G10G11G12G20G21G22G25G31G32
  22390673.57747 117663793.82147      2021.47347        44.030    22390677.18645
  91686088.68845      1575.17245        40.054
  21728739.51949 114185316.68449     -1972.99649        48.301    21728741.33646
  88975602.55946     -1537.40246        42.822
  22336092.67647 117376962.85247      -881.12947        44.313    22336091.81743
  91462571.94543      -686.59843        35.532
  24587803.38745 129209782.08845       819.55945        39.801    24587802.83547
 100682944.64147       638.61347        44.504
  24122673.47144 126765525.14744     -3271.14144        37.358    24122674.11542
  98778325.73942     -2548.94542        33.757
  21852963.58048 114838107.34448     -2014.00848        47.702    21852962.46445
  89484257.02545     -1569.35945        39.976
  23789962.15846 125017103.87246      2911.05546        42.199    23789959.16044
  97415926.30844      2268.35244        37.047
  24069483.41144 126485986.33144      2046.69944        38.087    24069486.65149
  98560527.02949      1594.82849        48.112
  21251248.36649 111676131.80749      2701.00849        48.088    21251247.39246
  87020386.09346      2104.68046        42.539
  20490447.72049 107678111.12949      -862.50849        50.758    20490449.86847
  83905038.68347      -672.08647        45.483
 20  9  1  0 12 30.0000000  0 10G 1G10G11G12G20G21G22G25G31G32
  22379180.77747 117603398.56447      2004.74247        44.550    22379184.41845
  91639027.46345      1562.13345        39.027
  21740033.05749 114244665.79649     -1983.73049        47.958    21740035.18846
  89021848.60646     -1545.76646        43.263
  22341178.56447 117403689.75347      -900.47347        44.695    22341177.81643
  91483398.07743      -701.67243        35.520
  24583173.98045 129185457.38545       802.12945        39.721    24583174.39048
 100663990.36448       625.03148        45.568
  24141361.87444 126863736.72244     -3275.70744        37.247    24141363.28941
  98854854.12041     -2552.50841        31.893
  21864498.15749 114898721.27649     -2026.98449        47.859    21864497.07345
  89531488.64945     -1579.47345        40.063
  23773349.59846 124929806.18246      2908.94546        41.980    23773347.22344
  97347902.18444      2266.70744        37.155
  24057833.34045 126424765.32645      2035.07845        39.980    24057837.01948
  98512822.41748      1585.77348        47.236
  21235871.80749 111595327.76249      2685.85249        48.301    21235870.95446
  86957421.93946      2092.86746        42.415
  20495398.10449 107704125.07949      -871.78549        50.740    20495400.08848
  83925309.30048      -679.31648        45.692
 20  9  1  0 13  0.0000000  0 10G 1G10G11G12G20G21G22G25G31G32
  22367785.33147 117543515.14047      1987.25847        44.865    22367788.94345
  91592365.07545      1548.50845        40.069
  21751387.72049 114304335.67149     -1994.45749        48.148    21751390.12846
  89068344.60146     -1554.12546        42.757
  22346374.02647 117430992.00547      -919.80947        44.430    22346372.98043
  91504672.55543      -716.73843        35.958
  24578643.02745 129161646.89645       784.87945        39.662    24578644.02948
 100645436.77448       611.59048        46.813
  24160080.98946 126962102.00546     -3281.51246        41.717    24160081.61542
  98931502.37342     -2557.02342        33.618
  21876106.44749 114959723.23549     -2039.80549        47.787    21876105.33145
  89579022.63045     -1589.46145        39.941
  23756749.62046 124842575.85546      2906.52746        41.944    23756747.59544
  97279930.55344      2264.82444        37.319
  24046251.32045 126363898.99145      2022.76645        39.710    24046253.95148
  98465394.12148      1576.18048        45.786
  21220581.95349 111514979.45249      2670.64849        48.404    21220581.01946
  86894812.88546      2081.02346        42.113
  20500400.77149 107730413.79649      -880.96149        50.707    20500402.65848
  83945794.01748      -686.46548        45.687
 20  9  1  0 13 30.0000000  0 10G 1G10G11G12G20G21G22G25G31G32
  22356487.89247 117484145.69947      1970.52347        44.716    22356490.89245
  91546103.17545      1535.46945        39.736
  21762803.48949 114364326.09149     -2005.12549        47.869    21762805.88346
  89115090.39346     -1562.43846        42.433
  22351678.64747 117458867.57547      -938.65647        44.602    22351677.82442
  91526393.74642      -731.42242        34.200
  24574210.43845 129138351.86745       767.43445        39.750    24574211.08447
 100627284.80347       597.99647        45.429
  24178828.97345 127060619.78145     -3286.14845        39.903    24178828.87341
  99008269.45841     -2560.63741        28.033
  21887788.23049 115021111.36149     -2052.77349        47.874    21887786.90945
  89626857.51445     -1599.56645        39.796
  23740162.90646 124755413.96446      2904.26246        43.105    23740160.93743
  97212012.21543      2263.05943        36.281
  24034737.04345 126303390.24345      2011.63345        39.208    24034738.76548
  98418244.47048      1567.50448        45.699
  21205379.42249 111435089.45849      2655.32449        48.277    21205378.51246
  86832560.97146      2069.08246        42.664
  20505455.48349 107756976.26449      -890.01649        50.700    20505457.48148
  83966492.05248      -693.52348        45.696
 20  9  1  0 14  0.0000000  0 10G 1G10G11G12G20G21G22G25G31G32
  22345288.49847 117425292.37247      1953.21547        44.932    22345291.16545
  91500243.44245      1521.98045        39.862
  21774280.23049 114424636.86249     -2015.63749        48.031    21774282.32846
  89162085.78446     -1570.62946        42.598
  22357092.13247 117487314.94047      -957.73047        45.116    22357091.50243
  91548560.51643      -746.28543        35.788
  24569876.64146 129115574.73146       750.68446        41.693    24569876.32347
 100609536.41347       584.94547        43.835
  24197604.91344 127159289.21044     -3291.26644        37.130    24197604.69741
  99085154.71541     -2564.62541        31.779
  21899543.11448 115082883.99548     -2065.52048        47.517    21899541.85845
  89674992.01545     -1609.50045        40.099
  23723589.99047 124668322.11747      2901.88747        44.578    23723587.85943
  97144148.44643      2261.20743        35.413
  24023290.71845 126243242.11245      1998.64145        39.940    24023293.52448
  98371375.87348      1557.38348        46.841
  21190264.60749 111355660.22249      2639.95749        48.470    21190263.70746
  86770668.08346      2057.10546        42.228
  20510562.09849 107783811.42849      -899.05949        50.754    20510564.07147
  83987402.57447      -700.56647        45.547
 20  9  1  0 14 30.0000000  0 10G 1G10G11G12G20G21G22G25G31G32
  22334187.73147 117366957.24947      1935.88747        45.073    22334190.68045
  91454787.52145      1508.48045        40.299
  21785817.93749 114485267.77849     -2026.44549        48.392    21785819.93446
  89209330.63046     -1579.05146        42.065
  22362614.16647 117516332.38747      -977.02047        44.855    22362613.49144
  91571171.51444      -761.31644        36.957
  24565641.62446 129093316.58346       733.27746        41.813    24565640.46247
 100592192.39947       571.38347        43.692
  24216409.28144 127258109.04444     -3296.46144        38.632    24216409.71141
  99162157.09541     -2568.67641        27.942
  21911370.69648 115145039.05848     -2078.10948        47.218    21911369.61845
  89723424.51245     -1619.30945        39.573
  23707030.94947 124581301.83647      2899.34047        44.169    23707028.70644
  97076340.45144      2259.22344        38.330
  24011914.50546 126183457.62546      1986.79746        41.615    24011917.89949
  98324790.58349      1548.14849        47.884
  21175237.93049 111276694.24049      2624.38349        48.479    21175236.93746
  86709136.18246      2044.96946        42.685
  20515720.30049 107810918.28949      -908.06249        50.691    20515722.17647
  84008524.80047      -707.58647        45.075
 20  9  1  0 15  0.0000000  0 10G 1G10G11G12G20G21G22G25G31G32
  22323186.20647 117309142.49047      1918.39547        45.546    22323189.20345
  91409737.05645      1494.85245        39.624
  21797416.69049 114546218.52649     -2037.02349        48.241    21797418.44446
  89256824.71246     -1587.29346        42.200
  22368244.32747 117545918.26547      -995.60947        44.715    22368243.41844
  91594225.43044      -775.80144        37.068
  24561505.25145 129071579.00245       715.65645        40.818    24561503.69147
 100575254.00847       557.65247        45.381
  24235242.84445 127357078.05745     -3301.62545        41.044    24235243.59643
  99239275.74243     -2572.70343        34.934
  21923270.81648 115207574.76148     -2090.89148        47.272    21923269.66045
  89772153.60845     -1629.27045        40.291
  23690485.45747 124494354.47347      2897.16447        43.607    23690482.96143
  97008589.27643      2257.52743        35.145
  24000608.11145 126124039.65545      1974.73045        39.997    24000610.96348
  98278490.88948      1538.74648        46.856
  21160299.93249 111198193.86449      2608.88349        48.679    21160298.62346
  86647967.06846      2032.89146        42.761
  20520929.92249 107838295.76749      -916.96949        50.565    20520931.91147
  84029857.90647      -714.52347        45.148
 20  9  1  0 15 30.0000000  0 10G 1G10G11G12G20G21G22G25G31G32
  22312283.95948 117251850.12548      1900.94548        45.827    22312286.96144
  91365093.67544      1481.25444        38.725
  21809076.13949 114607488.93449     -2047.74249        48.029    21809077.78946
  89304567.86946     -1595.64546        42.962
  22373982.10347 117576070.68347     -1014.26247        44.909    22373981.01243
  91617720.82243      -790.33643        36.571
  24557467.46744 129050363.38044       698.69944        38.714    24557466.81346
 100558722.40546       544.43846        42.837
  24254104.60545 127456195.25545     -3306.71945        40.032    24254105.04341
  99316509.92741     -2576.66841        31.367
  21935243.17548 115270489.43948     -2103.41048        47.563    21935241.90045
  89821178.02445     -1639.02345        39.717
  23673953.63746 124407481.33046      2894.51646        42.222    23673951.14743
  96940895.96143      2255.46543        35.753
  23989371.32645 126064991.15245      1962.51245        39.833    23989373.63448
  98232479.14148      1529.22748        46.744
  21145451.00949 111120161.43749      2593.22749        48.582    21145449.65146
  86587162.60146      2020.69146        43.077
  20526190.84749 107865942.89649      -926.11749        50.526    20526192.91147
  84051401.12047      -721.65247        45.070
 20  9  1  0 16  0.0000000  0 10G 1G10G11G12G20G21G22G25G31G32
  22301481.45748 117195082.23748      1883.65648        45.774    22301484.20245
  91320858.96445      1467.78145        39.843
  21820796.45649 114669078.75149     -2058.38349        48.344    21820797.91146
  89352559.92146     -1603.93846        41.562
  22379827.21147 117606787.70247     -1033.29747        44.629    22379826.34943
  91641656.15143      -805.16843        36.110
  24553529.53644 129029672.11544       680.85544        38.486    24553529.42348
 100542599.31548       530.53548        46.268
  24272993.05144 127555459.47444     -3311.01644        37.766    24272994.04843
  99393858.60943     -2580.01643        35.228
  21947287.23049 115333781.08249     -2115.91049        47.969    21947286.06145
  89870496.17745     -1648.76645        39.863
  23657436.47347 124320683.56147      2892.07847        43.349    23657433.89043
  96873261.37243      2253.56243        35.915
  23978205.89346 126006315.15146      1949.85246        41.266    23978207.36248
  98186757.57248      1519.36348        45.562
  21130691.29949 111042599.21149      2577.64549        48.470    21130690.26446
  86526724.53146      2008.55146        42.545
  20531502.93349 107893858.62849      -935.03549        50.425    20531505.11247
  84073153.64347      -728.60247        45.145
 20  9  1  0 16 30.0000000  0 10G 1G10G11G12G20G21G22G25G31G32
  22290778.94947 117138840.86047      1865.91447        45.475    22290781.35844
  91277034.53644      1453.95744        38.535
  21832577.39449 114730987.71149     -2068.98849        48.096    21832578.91446
  89400800.66446     -1612.20346        42.214
  22385779.30947 117638067.53047     -1052.04347        44.595    22385778.79143
  91666030.02243      -819.77743        35.102
  24549691.95245 129009506.27945       663.36345        39.929    24549692.21247
 100526885.69947       516.90247        44.625
  24291910.05045 127654869.71945     -3315.89545        39.378    24291911.45541
  99471321.06641     -2583.81641        28.604
  21959402.72248 115397447.80348     -2128.33648        47.560    21959401.48545
  89920106.58145     -1658.44545        39.865
  23640934.36047 124233962.82447      2889.21947        44.080    23640931.47743
  96805686.79043      2251.33643        35.568
  23967111.88745 125948014.61345      1937.14545        40.577    23967113.77448
  98141328.59748      1509.46148        46.286
  21116021.59049 110965509.88549      2561.68449        48.752    21116020.54046
  86466654.94746      1996.11346        42.582
  20536865.88949 107922041.92149      -943.94949        50.559    20536868.15947
  84095114.64647      -735.54747        45.099
 20  9  1  0 17  0.0000000  0 10G 1G10G11G12G20G21G22G25G31G32
  22280177.21747 117083128.06847      1848.12147        45.465    22280179.36545
  91233621.97645      1440.01245        40.175
  21844418.83348 114793215.55448     -2079.78148        47.574    21844420.59446
  89449289.87646     -1620.61346        42.560
  22391838.36347 117669908.22847     -1070.77047        44.816    22391837.57843
  91690840.95343      -834.36743        35.808
  24545954.61245 128989866.94845       645.73845        39.631    24545955.32248
 100511582.38448       503.16848        46.159
  24310855.52345 127754424.63845     -3320.95345        40.720    24310856.21642
  99548896.34542     -2587.75842        34.141
  21971589.12848 115461487.59748     -2140.78148        47.332    21971587.72745
  89970007.70345     -1668.14545        38.979
  23624447.33247 124147320.55547      2886.80547        45.077    23624443.74643
  96738173.34143      2249.45343        34.632
  23956088.86545 125890092.31845      1924.12945        38.905    23956092.35749
  98096194.41149      1499.31649        47.943
  21101442.29749 110888895.02149      2545.81249        48.618    21101441.13646
  86406955.07046      1983.74646        42.866
  20542279.67849 107950491.78249      -952.78949        50.337    20542281.84547
  84117283.37047      -742.43847        44.876
 20  9  1  0 17 30.0000000  0 10G 1G10G11G12G20G21G22G25G31G32
  22269676.37647 117027945.85347      1830.65647        45.391    22269678.56945
  91190622.86645      1426.48045        39.618
  21856321.02849 114855762.00749     -2090.14849        48.089    21856322.57746
  89498027.35546     -1628.69146        41.643
  22398004.05147 117702308.16647     -1089.28547        45.289    22398002.93843
  91716087.65443      -848.79743        36.549
  24542318.03545 128970756.36245       628.05545        40.208    24542318.63548
 100496690.99348       489.39148        46.253
  24329827.82745 127854123.14945     -3325.64545        39.324    24329827.78242
  99626583.45842     -2591.41442        33.096
  21983846.00048 115525898.57448     -2153.11748        46.633    21983844.99545
  90020198.05345     -1677.75845        39.885
  23607975.43147 124060758.17247      2884.14147        45.442    23607971.99044
  96670722.13144      2247.37944        36.724
  23945138.40545 125832551.27045      1911.67245        40.706    23945142.52148
  98051357.28548      1489.60948        47.193
  21086953.53749 110812757.37349      2529.86749        48.092    21086952.45646
  86347627.06046      1971.32046        42.852
  20547744.04949 107979207.17549      -961.64549        50.459    20547746.03547
  84139658.99947      -749.33647        44.927
 20  9  1  0 18  0.0000000  0 10G 1G10G11G12G20G21G22G25G31G32
  22259276.78447 116973296.23347      1812.59047        45.005    22259279.25945
  91148038.75045      1412.40645        39.393
  21868283.69348 114918626.73248     -2100.82848        47.402    21868285.26246
  89547012.85546     -1637.01246        42.246
  22404275.50547 117735265.15847     -1107.79347        44.208    22404274.83643
  91741768.41543      -863.21943        36.038
  24538782.34445 128952175.63345       610.57045        40.244    24538782.92247
 100482212.53347       475.76647        45.547
  24348826.92244 127953964.35144     -3330.40644        37.192    24348827.06741
  99704381.73841     -2595.12541        31.931
  21996173.10448 115590678.55048     -2165.40648        47.336    21996172.18045
  90070675.94345     -1687.33245        39.667
  23591518.60947 123974276.97247      2881.29347        44.631    23591515.54744
  96603334.21044      2245.16044        36.843
  23934262.15346 125775394.47946      1898.94146        41.371    23934265.09048
  98006819.52848      1479.69148        46.160
  21072556.11149 110737099.53749      2513.96549        48.339    21072555.13046
  86288672.93046      1958.93046        42.263
  20553258.72449 108008187.08349      -970.32849        50.443    20553260.70647
  84162240.74247      -756.10247        44.676
 20  9  1  0 18 30.0000000  0 10G 1G10G11G12G20G21G22G25G31G32
  22248978.82847 116919181.17947      1794.87547        45.386    22248981.57345
  91105871.19845      1398.60245        40.666
  21880306.75649 114981809.49649     -2111.44149        47.779    21880308.52446
  89596246.15446     -1645.28146        41.631
  22410652.45847 117768777.38747     -1126.35947        44.359    22410651.95743
  91767881.82043      -877.68843        35.252
  24535347.28244 128934125.79944       592.78944        38.779    24535347.99148
 100468147.73648       461.79348        45.736
  24367852.61245 128053947.24645     -3335.14145        39.371    24367853.60141
  99782290.39241     -2598.81241        30.648
  22008570.37048 115655825.94948     -2177.66448        47.579    22008569.27145
  90121440.12745     -1696.88345        38.980
  23575077.34247 123887878.41747      2878.52047        43.778    23575074.26742
  96536010.67342      2243.00042        34.053
  23923459.85345 125718624.68445      1885.75045        40.066    23923462.03248
  97962583.31248      1469.41448        46.743
  21058250.55149 110661923.39849      2497.84849        48.466    21058249.33846
  86230094.13746      1946.37146        42.784
  20558823.53749 108037430.46849      -979.18049        50.354    20558825.59747
  84185027.79347      -763.00047        44.864
 20  9  1  0 19  0.0000000  0 10G 1G10G11G12G20G21G22G25G31G32
  22238783.02847 116865602.63047      1777.09847        45.264    22238785.74245
  91064121.68345      1384.75045        39.918
  21892390.36649 115045309.99449     -2121.93849        47.878    21892392.28546
  89645727.06446     -1653.46146        41.804
  22417134.90347 117802842.92047     -1144.83647        44.741    22417134.39143
  91794426.37343      -892.08243        36.443
  24532013.70245 128916608.38145       574.97345        40.176    24532014.37247
 100454497.81347       448.02747        45.013
  24386905.64245 128154070.00345     -3339.97745        40.425    24386906.20941
  99860308.10541     -2602.58241        28.949
  22021037.13548 115721338.66748     -2189.83248        47.335    22021035.86545
  90172488.98645     -1706.36745        39.784
  23558651.33546 123801563.94146      2875.73446        43.049    23558649.13944
  96468752.71844      2240.82844        36.838
  23912730.21644 125662244.81144      1873.09444        38.621    23912733.25048
  97918650.98548      1459.55148        47.067
  21044037.02049 110587231.41149      2481.57449        48.270    21044035.98646
  86171892.62546      1933.69146        43.293
  20564438.39749 108066936.36049      -987.87149        50.520    20564440.45447
  84208019.38847      -769.77347        44.657
 20  9  1  0 19 30.0000000  0 10G 1G10G11G12G20G21G22G25G31G32
  22228689.83147 116812562.59647      1758.89547        45.314    22228692.36245
  91022791.78845      1370.56245        38.974
  21904534.50448 115109127.91948     -2132.55948        47.453    21904536.43746
  89695455.29646     -1661.73846        41.683
  22423722.30047 117837459.80847     -1163.05947        44.023    22423721.91643
  91821400.56743      -906.28143        36.088
  24528782.21845 128899625.61145       557.07445        40.714    24528782.84747
 100441264.53647       434.08247        44.381
  24405984.82344 128254331.77544     -3344.14544        37.973    24405984.92842
  99938434.20442     -2605.83242        34.119
  22033572.90648 115787214.63348     -2201.89848        47.234    22033571.63145
  90223820.89845     -1715.77045        39.635
  23542242.24946 123715335.10446      2873.02346        43.050    23542240.79344
  96401561.45144      2238.71544        38.167
  23902076.03345 125606257.72445      1859.59445        39.901    23902079.72849
  97875024.77249      1449.03549        47.927
  21029916.15349 110513025.68849      2465.28949        48.605    21029915.09846
  86114070.00446      1921.00046        42.723
  20570103.09049 108096703.69949      -996.53149        50.678    20570104.95747
  84231214.72847      -776.52047        44.895
 20  9  1  0 20  0.0000000  0 10G 1G10G11G12G20G21G22G25G31G32
  22218699.30047 116760062.94647      1740.98447        45.091    22218701.88745
  90981883.00045      1356.60945        39.109
  21916739.15949 115173262.94449     -2143.16449        47.899    21916740.84346
  89745430.64746     -1670.00046        41.340
  22430414.11447 117872625.86247     -1181.25447        44.907    22430413.83642
  91848802.65542      -920.46142        34.149
  24525652.61545 128883178.30545       539.45345        39.742    24525653.04448
 100428448.43948       420.30948        46.537
  24425089.97544 128354731.41144     -3349.04344        37.971    24425090.38842
 100016667.55342     -2609.65242        34.190
  22046177.47948 115853451.66848     -2213.91048        46.788    22046176.29545
  90275434.16645     -1725.12945        39.725
  23525849.86947 123629193.33047      2870.12147        44.295    23525848.64244
  96334438.04444      2236.45344        37.133
  23891497.79945 125550666.41945      1846.35945        40.505    23891500.34347
  97831706.84047      1438.71947        45.028
  21015888.40449 110439308.54149      2449.00849        48.797    21015887.20446
  86056628.08246      1908.31646        42.652
  20575817.35049 108126731.50049     -1005.19149        50.528    20575819.01347
  84254613.01347      -783.27047        44.891
 20  9  1  0 20 30.0000000  0 10G 1G10G11G12G20G21G22G25G31G32
  22208811.93647 116708105.63847      1722.89547        44.680    22208815.07545
  90941396.78945      1342.51245        40.088
  21929003.85148 115237714.74448     -2153.62548        47.507    21929005.73746
  89795652.81246     -1678.15246        41.546
  22437210.47247 117908339.46347     -1199.70747        45.079    22437210.01343
  91876631.43643      -934.84043        35.672
  24522624.95945 128867267.60545       521.22345        40.501    24522625.55548
 100416050.50748       406.14548        46.251
  24444221.72545 128455267.81245     -3353.42645        39.541    24444221.46843
 100095007.57443     -2613.06643        35.681
  22058850.22348 115920048.03948     -2225.83248        47.162    22058849.27745
  90327327.43245     -1734.41845        39.446
  23509474.75547 123543140.01547      2866.93447        44.904    23509472.97443
  96267383.51843      2233.97343        36.347
  23880995.33246 125495473.53446      1833.27746        41.261    23880996.50148
  97788699.41948      1428.52348        45.892
  21001953.86349 110366082.02649      2432.66849        48.626    21001952.75946
  85999568.48246      1895.58246        43.022
  20581580.94849 108157018.79249     -1013.99649        50.625    20581582.50747
  84278213.49247      -790.12947        44.651
 20  9  1  0 21  0.0000000  0 10G 1G10G11G12G20G21G22G25G31G32
  22199028.49647 116656692.59047      1704.77347        45.093    22199031.75045
  90901334.67945      1328.39145        40.570
  21941328.93248 115302482.95748     -2164.03948        47.524    21941330.82046
  89846121.53446     -1686.26646        41.684
  22444110.37347 117944598.04147     -1217.75847        45.046    22444109.71843
  91904884.84743      -948.90643        36.219
  24519699.87045 128851894.85745       503.49245        40.549    24519700.11947
 100404071.77147       392.32847        44.699
  24463379.22745 128555939.93345     -3358.07845        39.460    24463378.64741
 100173453.34841     -2616.69141        31.743
  22071590.80248 115987001.61248     -2237.73848        46.655    22071590.10144
  90379499.02644     -1743.69544        38.654
  23493116.78147 123457176.63947      2863.88347        44.175    23493114.42044
  96200399.07144      2231.59444        38.568
  23870568.70345 125440682.05845      1819.77345        39.967    23870570.12848
  97746004.76448      1418.00448        46.386
  20988113.05949 110293348.54549      2416.24649        48.482    20988112.20846
  85942893.07546      1882.78546        43.175
  20587393.66549 108187564.50649     -1022.43049        50.675    20587395.19347
  84302015.35047      -796.70347        44.716
 20  9  1  0 21 30.0000000  0 10G 1G10G11G12G20G21G22G25G31G32
  22189348.90547 116605825.58947      1686.41847        45.130    22189352.41645
  90861698.07345      1314.09045        40.639
  21953714.07248 115367567.28248     -2174.62548        47.355    21953716.02646
  89896836.59046     -1694.51646        41.862
  22451113.26047 117981399.54747     -1235.68047        44.417    22451112.54543
  91933561.35143      -962.87143        35.925
  24516877.34445 128837061.65845       485.23045        40.415    24516876.92847
 100392513.44247       378.13347        44.420
  24482562.18344 128656746.55844     -3362.19944        38.141    24482561.09941
 100252003.97941     -2619.90241        27.745
  22084399.14848 116054310.28248     -2249.68448        46.861    22084398.47344
  90431947.32744     -1753.00444        38.834
  23476775.45847 123371304.58147      2860.81247        43.425    23476773.19043
  96133485.83343      2229.20343        36.399
  23860219.08345 125386294.74145      1806.31645        39.998    23860221.25849
  97703625.09149      1407.51649        48.418
  20974366.47949 110221110.03249      2399.64149        48.561    20974365.75547
  85886603.34747      1869.84847        43.349
  20593255.34049 108218367.65249     -1031.11349        50.672    20593256.90347
  84326017.79247      -803.46947        44.996
 20  9  1  0 22  0.0000000  0 11G 1G 3G10G11G12G20G21G22G25G31G32
  22179773.50447 116555506.57747      1668.02747        44.910    22179777.17245
  90822488.46945      1299.75845        40.737
  25158508.71145 132208872.26645      3268.73845        40.095    25158511.14446
 103019899.18846      2547.06646        42.585
  21966159.20948 115432967.35248     -2185.33248        47.352    21966161.27946
  89947797.68046     -1702.85946        41.724
  22458219.41747 118018742.20947     -1253.91447        44.749    22458219.10244
  91962659.50244      -977.07844        38.045
  24514157.72645 128822769.30945       467.35545        40.360    24514156.75247
 100381376.54847       364.16847        44.294
  24501770.46245 128757686.23745     -3367.07845        38.920    24501769.50943
 100330658.22743     -2623.69943        34.725
  22097274.84348 116121972.04448     -2261.40248        46.870    22097274.06944
  90484670.75644     -1762.13744        38.406
  23460452.04747 123285525.23247      2857.67647        43.335    23460449.59843
  96066644.80543      2226.75843        35.314
  23849947.11245 125332314.47245      1792.27045        40.749    23849949.95848
  97661562.57748      1396.57048        46.665
  20960714.70049 110149368.90549      2383.04349        48.892    20960713.88646
  85830701.19546      1856.91446        43.130
  20599165.80749 108249427.26249     -1039.61349        50.601    20599167.40847
  84350220.07847      -810.09047        45.078
 20  9  1  0 22 30.0000000  0 11G 1G 3G10G11G12G20G21G22G25G31G32
  22170302.89048 116505737.33648      1649.86348        45.878    22170306.25845
  90783707.25245      1285.60545        40.002
  25139847.79846 132110805.28646      3269.33646        41.166    25139849.15646
 102943483.29646      2547.53146        42.711
  21978664.45448 115498682.77548     -2195.73048        47.682    21978666.73646
  89999004.48546     -1710.96146        41.274
  22465428.08347 118056623.71447     -1271.74647        44.168    22465428.12644
  91992177.55544      -990.97344        37.296
  24511541.12645 128809018.68045       449.47345        41.049    24511540.27646
 100370661.78846       350.23446        43.172
  24521003.69145 128858757.90145     -3371.42645        39.385    24521003.63942
 100409415.31142     -2627.09442        33.810
  22110217.39448 116189985.17348     -2272.78148        46.659    22110216.51444
  90537667.97244     -1771.00044        38.582
  23444146.95047 123199840.48347      2854.55947        44.019    23444144.11043
  95999877.48143      2224.32843        35.231
  23839753.09245 125278743.97345      1779.12945        40.179    23839755.29248
  97619819.32648      1386.33248        46.614
  20947158.06449 110078127.30149      2366.40249        49.034    20947156.93346
  85775188.27546      1843.94546        42.820
  20605124.78849 108280742.29549     -1048.03949        50.344    20605126.57447
  84374621.39847      -816.65647        44.960
 20  9  1  0 23  0.0000000  0 11G 1G 3G10G11G12G20G21G22G25G31G32
  22160937.16748 116456519.73248      1631.41448        45.908    22160940.20345
  90745355.89645      1271.23045        39.236
  25121180.11044 132012706.97044      3270.44944        37.736    25121182.39548
 102867043.02348      2548.39848        45.777
  21991229.65548 115564713.18748     -2206.32848        47.055    21991232.04146
  90050456.74446     -1719.21946        41.983
  22472738.82447 118095042.00447     -1289.59847        44.305    22472738.97444
  92022113.87644     -1004.88344        38.348
  24509027.91245 128795811.58145       431.16845        40.413    24509026.72846
 100360370.53546       335.97346        43.251
  24540262.05545 128959960.29545     -3375.16045        39.753    24540261.50141
 100488274.31641     -2630.00041        28.902
  22123226.42048 116258347.46648     -2284.55948        46.845    22123225.57044
  90590937.27644     -1780.18044        38.756
  23427860.28147 123114251.58847      2851.29347        45.094    23427857.23043
  95933184.87243      2221.78543        35.827
  23829637.32545 125225586.00845      1764.72345        40.406    23829639.33947
  97578397.58647      1375.10547        44.987
  20933696.74749 110007387.15949      2349.56249        48.925    20933695.60546
  85720066.10746      1830.82446        42.927
  20611132.15949 108312311.78249     -1056.52049        50.415    20611134.22147
  84399220.99347      -823.26647        44.998
 20  9  1  0 23 30.0000000  0 10G 1G10G11G12G20G21G22G25G31G32
  22151676.72847 116407855.53647      1612.95747        45.289    22151679.37445
  90707435.73345      1256.81645        39.966
  22003854.68348 115631058.26348     -2216.71548        47.422    22003856.95245
  90102154.19145     -1727.31245        40.807
  22480151.39147 118133995.00247     -1307.42647        44.235    22480151.61844
  92052466.84544     -1018.77744        37.137
  24506618.24546 128783148.80146       412.87146        41.254    24506616.49246
 100350503.44946       321.71546        42.620
  24559544.82644 129061292.51144     -3379.82844        37.317    24559544.13743
 100567234.43543     -2633.63343        35.534
  22136301.46748 116327056.61848     -2296.02348        47.079    22136300.57745
  90644476.85745     -1789.11345        39.012
  23411592.25548 123028760.12848      2848.08648        45.845    23411588.27844
  95866568.12744      2219.28544        37.004
  23819599.81244 125172843.35144      1751.01644        37.974    23819602.61249
  97537299.40949      1364.42649        49.214
  20920331.14949 109937150.66349      2332.87549        48.930    20920329.90546
  85665336.38646      1817.82046        42.328
  20617187.86449 108344134.75049     -1065.01249        50.687    20617190.00447
  84424018.09747      -829.88347        45.215
 20  9  1  0 24  0.0000000  0 11G 1G 3G10G11G12G20G21G22G25G31G32
  22142521.79247 116359746.50747      1594.43047        45.141    22142524.41545
  90669948.20045      1242.41045        40.128
  25083826.42243 131816379.50643      3272.80143        35.690    25083831.94549
 102714092.77749      2550.23049        48.640
  22016539.68948 115697717.54548     -2227.26248        47.730    22016541.71646
  90154096.47646     -1735.53146        41.379
  22487665.33347 118173480.51547     -1325.26647        44.829    22487665.34943
  92083234.77443     -1032.67643        36.615
  24504312.35345 128771031.53545       395.00845        40.296    24504310.80947
 100341061.43547       307.79747        43.754
  24578852.02944 129162753.19544     -3384.15244        37.532    24578851.64141
 100646294.65741     -2637.00441        31.918
  22149442.18348 116396110.56048     -2307.55148        46.928    22149441.09044
  90698285.11844     -1798.09444        38.421
  23395342.83147 122943367.48447      2844.71147        44.919    23395338.72243
  95800028.41143      2216.65643        36.608
  23809642.91946 125120518.89346      1737.05146        41.528    23809646.20048
  97496527.14448      1353.54348        47.646
  20907061.91149 109867420.25549      2315.89549        48.785    20907060.31546
  85611001.01546      1804.59046        42.914
  20623291.70849 108376210.15649     -1073.32849        50.648    20623293.78947
  84449011.91147      -836.36347        45.382
 20  9  1  0 24 30.0000000  0 11G 1G 3G10G11G12G20G21G22G25G31G32
  22133472.77347 116312194.46847      1575.74647        45.401    22133475.78745
  90632894.68945      1227.85245        39.615
  25065142.40745 131718193.85445      3273.08645        40.285    25065147.02848
 102637584.54748      2550.45348        47.380
  22029284.34148 115764690.70548     -2237.78548        46.949    22029286.25145
  90206283.33845     -1743.73045        40.653
  22495280.17547 118213496.17647     -1342.66847        44.980    22495279.97344
  92114415.79644     -1046.23844        37.349
  24502110.28845 128759460.95645       376.71945        40.601    24502108.76646
 100332045.40946       293.54346        42.539
  24598183.48444 129264341.29344     -3387.99644        38.875    24598183.25842
 100725454.25342     -2639.99642        32.940
  22162647.91248 116465507.30548     -2318.85248        46.874    22162646.64345
  90752360.48945     -1806.90245        39.112
  23379112.05247 122858075.32447      2841.34847        43.583    23379108.41044
  95733567.01644      2214.03544        37.610
  23799766.56446 125068615.31246      1722.75046        41.409    23799770.22849
  97456082.79349      1342.39849        48.573
  20893889.07249 109798197.51549      2298.87549        48.765    20893887.74046
  85557061.24146      1791.32846        42.837
  20629443.35049 108408537.04849     -1081.58249        50.344    20629445.44947
  84474201.68747      -842.79347        45.364
 20  9  1  0 25  0.0000000  0 11G 1G 3G10G11G12G20G21G22G25G31G32
  22124530.35948 116265201.10748      1557.33248        45.597    22124533.36845
  90596276.49345      1213.50445        39.414
  25046453.93045 131619981.25445      3274.21945        39.886    25046458.02548
 102561055.27248      2551.33648        46.013
  22042088.53048 115831977.27448     -2248.04748        47.081    22042090.40645
  90258714.41945     -1751.72745        40.767
  22502995.40047 118254039.73647     -1360.12547        44.954    22502994.99843
  92146008.17043     -1059.84043        36.243
  24500012.34944 128748438.20744       358.54344        38.552    24500011.34946
 100323456.28846       279.38346        42.318
  24617539.16444 129366055.55544     -3392.96944        38.120    24617539.72943
 100804712.01943     -2643.87543        34.747
  22175918.36448 116535244.87348     -2330.30548        46.157    22175917.36745
  90806701.43045     -1815.82445        39.572
  23362900.32746 122772885.15946      2837.89846        43.105    23362897.47544
  95667185.10544      2211.34844        36.873
  23789970.65645 125017135.31145      1708.69545        40.746    23789974.12748
  97415968.56648      1331.44948        47.277
  20880813.26849 109729484.62649      2281.84849        48.726    20880812.06346
  85503518.75746      1778.05946        42.810
  20635642.62749 108441114.43849     -1090.08249        50.555    20635644.83747
  84499586.66247      -849.41847        45.315
 20  9  1  0 25 30.0000000  0 11G 1G 3G10G11G12G20G21G22G25G31G32
  22115694.60348 116218768.16148      1538.31248        45.603    22115697.46645
  90560094.98345      1198.68445        39.418
  25027759.60344 131521742.78344      3275.17244        38.216    25027762.76045
 102484505.75245      2552.07445        40.068
  22054952.20448 115899576.85448     -2258.47748        47.168    22054954.20446
  90311389.40346     -1759.85546        41.760
  22510810.57047 118295109.13547     -1377.94547        44.033    22510810.06643
  92178010.30543     -1073.72743        36.047
  24498018.95745 128737964.38045       340.13745        39.812    24498018.62847
 100315294.87247       265.03947        44.553
  24636918.09043 129467894.59543     -3396.92243        34.520    24636919.32142
 100884067.01042     -2646.96142        32.936
  22189253.34448 116605321.14948     -2341.58248        46.345    22189252.78644
  90861306.27844     -1824.61344        38.561
  23346708.34247 122687798.38247      2834.30947        43.961    23346705.99944
  95600883.75244      2208.55144        37.565
  23780255.18845 124966081.65745      1694.41045        40.969    23780257.98647
  97376186.47247      1320.31247        44.720
  20867835.02549 109661283.73249      2264.76249        48.837    20867833.71046
  85450375.20946      1764.74646        42.982
  20641889.24149 108473941.32049     -1098.31649        50.272    20641891.67547
  84525166.04047      -855.83647        45.275
 20  9  1  0 26  0.0000000  0 11G 1G 3G10G11G12G20G21G22G25G31G32
  22106965.73348 116172897.36448      1519.60548        46.046    22106968.80645
  90524351.50545      1184.10545        39.863
  25009060.92843 131423479.60443      3275.75043        36.216    25009063.70945
 102407937.04945      2552.52745        40.625
  22067875.33348 115967489.04248     -2268.81648        46.930    22067877.27845
  90364307.97845     -1767.91045        41.080
  22518725.58147 118336702.00947     -1395.20747        44.917    22518724.80642
  92210420.32942     -1087.17642        34.213
  24496130.69845 128728040.78445       321.60945        40.092    24496130.25047
 100307562.21647       250.60247        44.841
  24656321.33345 129569857.19445     -3400.96945        40.706    24656322.29541
 100963518.38241     -2650.10941        32.137
  22202652.57948 116675733.76848     -2352.71948        46.833    22202651.82844
  90916173.24244     -1833.28944        38.538
  23330537.02147 122602816.61147      2830.80947        45.111    23330534.93644
  95534664.22544      2205.82044        37.247
  23770621.21445 124915456.90845      1680.41845        40.139    23770623.71048
  97336738.66148      1309.41848        47.070
  20854954.47349 109593596.56549      2247.65649        48.798    20854953.30446
  85397631.99046      1751.41846        42.677
  20648183.12649 108507016.72149     -1106.66449        50.203    20648185.66647
  84550939.07947      -862.34047        45.224
 20  9  1  0 26 30.0000000  0 11G 1G 3G10G11G12G20G21G22G25G31G32
  22098344.20048 116127590.34748      1500.69948        46.188    22098347.17645
  90489047.34845      1169.37145        40.323
  24990358.11743 131325217.81043      3276.49643        35.414    24990360.88447
 102331348.04847      2553.11347        44.997
  22080857.83548 116035713.42948     -2279.34048        47.040    22080860.01946
  90417469.81546     -1776.11346        41.359
  22526739.77447 118378816.25047     -1412.55147        45.367    22526738.74643
  92243236.59043     -1100.69143        35.616
  24494346.86745 128718668.25345       303.43045        38.952    24494347.06148
 100300258.96848       236.43448        46.149
  24675747.80845 129671942.34945     -3404.36345        39.802    24675748.03541
 101043065.15841     -2652.76241        31.230
  22216115.39548 116746480.84248     -2363.75048        46.850    22216114.51944
  90971300.81144     -1841.88744        37.793
  23314386.28148 122517941.32448      2827.26648        45.997    23314383.52044
  95468527.63844      2203.06244        37.704
  23761070.00546 124865263.97946      1665.85546        41.911    23761072.91048
  97297627.29548      1298.06648        47.383
  20842172.23749 109526425.45849      2230.37949        48.806    20842171.13947
  85345290.89047      1737.95347        43.564
  20654524.15349 108540339.70749     -1115.00849        50.229    20654526.67847
  84576905.04247      -868.84047        44.819
 20  9  1  0 27  0.0000000  0 11G 1G 3G10G11G12G20G21G22G25G31G32
  22089830.24748 116082848.79648      1481.92248        46.122    22089833.35845
  90454183.81145      1154.74245        40.030
  24971650.41844 131226908.71944      3277.37944        38.503    24971653.04748
 102254743.62648      2553.79748        46.592
  22093899.88648 116104249.50748     -2289.74248        47.022    22093902.09846
  90470874.55746     -1784.21946        41.293
  22534852.64047 118421449.56547     -1429.77747        44.918    22534851.62943
  92276457.35843     -1114.11743        35.655
  24492668.58345 128709847.81845       284.83245        39.463    24492668.87448
 100293385.90148       221.94548        45.916
  24695197.31544 129774148.82144     -3409.18044        37.981    24695196.88541
 101122706.62641     -2656.50441        28.657
  22229641.04248 116817559.75348     -2374.78948        46.224    22229640.30645
  91026686.95845     -1850.48845        39.191
  23298256.03848 122433174.17348      2823.78148        45.892    23298253.03344
  95402475.32744      2200.34844        37.925
  23751601.29845 124815505.41345      1651.24245        39.414    23751605.13049
  97258854.44149      1286.68049        50.626
  20829488.78749 109459772.44349      2213.19149        49.042    20829487.54746
  85293353.50046      1724.56246        43.165
  20660912.21249 108573909.26049     -1123.18049        50.257    20660914.54547
  84603063.13447      -875.20747        44.615
 20  9  1  0 27 30.0000000  0 11G 1G 3G10G11G12G20G21G22G25G31G32
  22081424.03748 116038674.35048      1463.03148        46.020    22081427.31646
  90419762.17446      1140.02046        41.259
  24952938.88845 131128578.39445      3278.02045        40.583    24952941.07148
 102178122.60448      2554.29748        46.624
  22107001.27448 116173096.85648     -2300.14548        47.282    22107003.49546
  90524521.82146     -1792.32446        41.141
  22543063.85947 118464599.39647     -1446.74247        44.720    22543062.71743
  92310080.57243     -1127.33643        36.183
  24491095.28745 128701580.82745       266.23045        39.920    24491095.84248
 100286944.10948       207.44948        46.198
  24714668.46544 129876450.28544     -3412.70344        36.862    24714672.53241
 101202426.36541     -2659.26241        30.713
  22243229.80148 116888968.74648     -2385.66848        46.121    22243228.89444
  91082330.30344     -1858.96544        38.714
  23282146.34647 122348516.95047      2820.21147        45.448    23282143.54144
  95336508.67344      2197.56244        38.208
  23742215.64545 124766183.83045      1636.61345        40.771    23742219.92648
  97220422.15448      1275.28148        46.737
  20816904.06549 109393639.09249      2195.72349        48.944    20816902.66946
  85241821.02846      1710.94946        43.041
  20667347.02649 108607724.42649     -1131.21949        50.248    20667349.18547
  84629412.61547      -881.47347        44.554
 20  9  1  0 28  0.0000000  0 11G 1G 3G10G11G12G20G21G22G25G31G32
  22073125.97848 115995068.63148      1444.05948        45.713    22073129.15545
  90385783.70045      1125.23845        39.595
  24934223.17245 131030227.91245      3278.94945        40.815    24934225.99348
 102101485.91048      2555.02348        47.704
  22120161.71848 116242255.02348     -2310.47748        47.084    22120163.91346
  90578411.27146     -1800.37546        41.502
  22551373.11147 118508263.52247     -1464.08247        44.995    22551371.68043
  92344104.54743     -1140.84843        36.312
  24489627.90845 128693867.87345       247.78945        39.097    24489628.10248
 100280934.01248       193.07848        45.874
  24734164.20045 129978895.12345     -3416.94945        39.743    24734163.35041
 101282253.42641     -2662.56241        30.560
  22256880.92748 116960705.60848     -2396.88348        46.458    22256880.13445
  91138229.13945     -1867.70345        39.655
  23266057.65647 122263970.87047      2816.11347        43.918    23266055.06544
  95270628.63544      2194.37144        37.211
  23732913.50945 124717301.96545      1622.05545        39.463    23732916.44648
  97182332.33548      1263.93448        46.161
  20804418.44049 109328027.39349      2178.32049        48.819    20804416.97846
  85190695.05046      1697.39146        43.145
  20673828.40449 108641784.23849     -1139.37549        50.339    20673830.48347
  84655952.72947      -887.82847        44.526
 20  9  1  0 28 30.0000000  0 11G 1G 3G10G11G12G20G21G22G25G31G32
  22064936.46948 115952033.21248      1425.00448        46.015    22064939.60445
  90352249.62045      1110.39145        40.555
  24915503.76144 130931858.46444      3279.32844        38.745    24915507.01248
 102024834.45148      2555.31648        46.647
  22133381.51948 116311723.52248     -2320.84048        47.614    22133383.46846
  90632542.56446     -1808.44946        41.400
  22559779.59747 118552439.71247     -1481.10247        44.347    22559777.96343
  92378527.50643     -1154.10943        36.358
  24488265.82145 128686709.73645       229.41045        39.792    24488265.94747
 100275356.24247       178.75847        44.988
  24753680.69844 130081457.74944     -3420.92244        38.181    24753680.02042
 101362172.36942     -2665.66042        33.783
  22270593.92548 117032768.07248     -2407.47748        46.390    22270593.09444
  91194381.68644     -1875.95744        37.521
  23249989.95347 122179537.87547      2812.33647        44.230    23249987.53844
  95204836.72444      2191.42644        36.910
  23723695.92545 124668862.38645      1607.02345        41.099    23723697.86648
  97144587.24848      1252.22348        46.335
  20792032.53749 109262939.71449      2160.80149        48.661    20792031.32747
  85139977.40147      1683.73847        43.869
  20680356.24449 108676087.72949     -1147.54349        50.253    20680358.10747
  84682682.72647      -894.19147        44.569
 20  9  1  0 29  0.0000000  0 11G 1G 3G10G11G12G20G21G22G25G31G32
  22056856.02448 115909569.75748      1405.75848        46.314    22056858.93545
  90319161.19645      1095.39145        40.209
  24896780.62042 130833471.30342      3280.05942        33.552    24896784.49247
 101948169.14447      2555.88747        43.749
  22146660.11348 116381501.88048     -2331.08648        47.381    22146662.06145
  90686915.29345     -1816.43445        41.090
  22568282.85647 118597125.53347     -1498.11747        44.645    22568281.40442
  92413347.58742     -1167.36742        33.863
  24487009.56945 128680107.84645       210.74245        39.277    24487009.86548
 100270211.92348       164.21148        45.914
  24773219.47443 130184136.73743     -3424.41843        36.091    24773219.87241
 101442181.94241     -2668.37941        22.061
  22284368.45148 117105153.84448     -2418.05948        46.303    22284367.57444
  91250786.16844     -1884.20344        38.351
  23233944.50747 122095219.14747      2808.51647        44.352    23233941.83043
  95139133.84443      2188.44943        35.247
  23714563.04045 124620867.79545      1592.46145        40.742    23714564.58749
  97107188.83849      1240.87549        48.068
  20779746.79449 109198377.68649      2143.21949        48.797    20779745.76647
  85089669.34247      1670.03947        43.642
  20686930.26249 108710633.91649     -1155.52749        50.196    20686931.99747
  84709601.84247      -900.41447        44.645
 20  9  1  0 29 30.0000000  0 11G 1G 3G10G11G12G20G21G22G25G31G32
  22048884.81848 115867679.73948      1386.73448        46.590    22048887.60045
  90286519.62045      1080.57045        39.711
  24878054.50742 130735050.32342      3280.64542        34.031    24878057.88745
 101871483.76945      2556.34845        38.960
  22159997.36848 116451589.59648     -2341.39848        46.991    22159999.18246
  90741529.08646     -1824.46946        41.692
  22576882.77547 118642318.69847     -1514.77747        44.133    22576881.25043
  92448563.01043     -1180.34843        35.093
  24485859.09944 128674062.98044       191.95744        38.514    24485859.57148
 100265501.66148       149.57448        45.965
  24792780.24743 130286929.80043     -3427.57043        35.373    24792779.69641
 101522293.07841     -2670.84041        26.230
  22298204.31848 117177860.62048     -2428.96948        46.743    22298203.33244
  91307440.78144     -1892.70744        38.879
  23217920.96247 122011016.42947      2804.85547        44.522    23217918.59444
  95073521.37144      2185.59844        37.637
  23705515.04645 124573320.65945      1577.42645        39.756    23705517.05049
  97070139.19349      1229.16049        49.408
  20767561.41549 109134343.21349      2125.58249        48.923    20767560.19646
  85039772.37246      1656.29346        42.885
  20693550.23049 108745421.84549     -1163.73049        50.411    20693551.95347
  84736709.32247      -906.80547        44.221
 20  9  1  0 30  0.0000000  0 11G 1G 3G10G11G12G20G21G22G25G31G32
  22041022.86348 115826364.71448      1367.48048        46.067    22041025.64145
  90254326.10045      1065.56645        40.278
  24859327.01145 130636631.12145      3280.85545        39.371    24859329.49348
 101794793.46148      2556.50848        45.634
  22173393.47848 116521986.21548     -2351.69548        47.371    22173395.33145
  90796383.58745     -1832.49245        40.976
  22585578.73747 118688016.64247     -1531.66447        44.651    22585577.08942
  92484171.77342     -1193.50842        33.306
  24484814.84944 128668576.11344       173.60944        38.620    24484815.09847
 100261226.21647       135.27747        44.177
  24812364.45644 130389837.59144     -3432.06244        38.684    24812364.12543
 101602480.94743     -2674.33643        34.549
  22312100.73848 117250886.44448     -2439.46948        46.164    22312099.75645
  91364344.00645     -1900.88745        39.127
  23201920.05347 121926931.30947      2800.97747        44.913    23201917.83444
  95008000.52244      2182.57444        37.662
  23696552.68946 124526223.66846      1562.28946        41.675    23696555.38648
  97033440.26148      1217.36348        47.212
  20755476.85649 109070838.19549      2107.96149        49.048    20755475.56447
  84990287.95047      1642.56247        43.540
  20700216.03149 108780450.57049     -1171.54749        50.418    20700217.83547
  84764004.42847      -912.89847        44.583
 20  9  1  0 30 30.0000000  0 11G 1G 3G10G11G12G20G21G22G25G31G32
  22033270.53248 115785626.21048      1348.31248        45.878    22033273.16445
  90222581.80345      1050.62945        39.846
  24840596.41846 130538197.79546      3281.35546        41.273    24840598.99749
 101718092.16449      2556.89849        48.066
  22186848.16348 116592691.20648     -2361.91048        46.313    22186850.21046
  90851478.36146     -1840.45346        41.760
  22594370.27547 118734216.68947     -1548.32847        44.743    22594368.63842
  92520171.82642     -1206.49242        34.056
  24483877.03345 128663647.46545       154.85945        39.022    24483876.39046
 100257385.68846       120.66846        42.018
  24831968.06044 130492858.18244     -3435.93044        38.618    24831967.51141
 101682756.68641     -2677.34841        30.783
  22326057.43048 117324229.26848     -2450.12148        46.593    22326056.63444
  91421494.24044     -1909.18844        37.652
  23185941.93247 121842965.46747      2796.55147        44.337    23185939.56644
  94942572.60844      2179.12944        38.599
  23687676.34845 124479579.37245      1546.93845        40.069    23687679.27048
  96997094.06248      1205.40248        46.747
  20743493.41949 109007864.52249      2090.15649        49.118    20743492.26047
  84941217.58247      1628.69147        43.701
  20706927.38649 108815719.13149     -1179.55549        50.115    20706929.27447
  84791486.42347      -919.13747        44.790
 20  9  1  0 31  0.0000000  0 11G 1G 3G10G11G12G20G21G22G25G31G32
  22025627.98347 115745465.70147      1329.11747        45.484    22025630.70445
  90191287.91045      1035.62545        39.634
  24821862.44745 130439751.49345      3281.87145        40.077    24821865.44649
 101641380.77549      2557.30149        49.466
  22200361.18048 116663704.09548     -2372.23448        46.851    22200363.51646
  90906813.03946     -1848.49646        41.309
  22603256.78847 118780916.63647     -1564.77747        44.606    22603255.22442
  92556561.37442     -1219.30942        33.041
  24483045.42944 128659278.75544       136.12144        37.336    24483044.98447
 100253981.52547       106.06647        45.428
  24851593.42243 130595990.19343     -3439.33643        36.606    24851593.15141
 101763119.17041     -2680.01241        24.644
  22340073.76548 117397886.66648     -2460.40648        45.574    22340073.25144
  91478889.59344     -1917.20344        38.190
  23169986.74147 121759120.48947      2792.68847        45.438    23169984.18144
  94877238.88544      2176.11744        36.753
  23678886.64646 124433390.32046      1532.07046        41.139    23678889.39949
  96961102.61249      1193.81649        47.897
  20731611.53449 108945423.75049      2072.37949        49.018    20731610.31747
  84892562.44947      1614.83647        44.183
  20713684.17449 108851226.60449     -1187.46149        50.197    20713686.25547
  84819154.57347      -925.29747        44.833
 20  9  1  0 31 30.0000000  0 11G 1G 3G10G11G12G20G21G22G25G31G32
  22018095.62047 115705884.66847      1309.85947        45.447    22018098.59345
  90160445.58145      1020.66845        39.890
  24803126.14144 130341293.40544      3282.41444        37.268    24803129.28749
 101564660.24849      2557.72349        49.201
  22213932.99348 116735024.28848     -2382.51648        46.691    22213935.11446
  90962387.22146     -1856.50846        41.851
  22612238.32647 118828114.12747     -1581.59847        44.361    22612236.49842
  92593338.66142     -1232.41442        34.093
  24482320.09744 128655470.60944       117.72344        38.071    24482320.56047
 100251014.15947        91.73047        43.380
  24871239.46443 130699232.13643     -3442.95743        35.505    24871240.02641
 101843567.44741     -2682.83641        30.204
  22354149.58548 117471856.58048     -2471.02348        46.110    22354149.24844
  91536528.44844     -1925.47744        38.040
  23154055.10647 121675397.98047      2788.55947        45.255    23154052.02244
  94812000.56844      2172.89844        38.382
  23670184.79546 124387659.05246      1516.85246        41.545    23670187.45049
  96925467.85649      1181.96149        48.142
  20719831.28749 108883517.80049      2054.51249        48.698    20719830.03047
  84844324.05547      1600.91447        43.609
  20720486.34849 108886972.02049     -1195.54349        50.380    20720488.50447
  84847008.14647      -931.59447        44.906
 20  9  1  0 32  0.0000000  0 10G 1G10G11G12G20G21G22G25G31G32
  22010673.96047 115666884.57547      1290.41447        45.363    22010677.31345
  90130055.89945      1005.44145        40.867
  22227563.12548 116806651.30148     -2392.65248        46.362    22227565.26846
  91018200.46046     -1864.40646        41.309
  22621313.85347 118875806.94647     -1598.12547        44.103    22621312.49743
  92630501.84443     -1245.29743        36.059
  24481702.08044 128652223.66844        98.45744        38.864    24481702.62247
 100248484.09047        76.71547        44.399
  24890906.51544 130802582.73544     -3447.32444        37.245    24890907.09441
 101924100.34941     -2686.23041        28.138
  22368284.46148 117546136.39548     -2481.06648        45.962    22368284.47444
  91594408.77744     -1933.30144        36.875
  23138146.91947 121591799.32447      2784.58647        44.879    23138144.14744
  94746858.79344      2169.80544        38.724
  23661570.51446 124342388.16446      1500.95346        41.668    23661573.01149
  96890191.84849      1169.57049        48.416
  20708152.95049 108822148.51949      2036.62549        48.975    20708151.74447
  84796503.85747      1586.97747        43.889
  20727333.65049 108922954.45549     -1203.42649        50.370    20727335.65347
  84875046.40447      -937.73847        44.741
 20  9  1  0 32 30.0000000  0 11G 1G 3G10G11G12G20G21G22G25G31G32
  22003363.44548 115628466.88648      1270.66048        45.749    22003366.79545
  90100120.05145       990.12145        39.820
  24765648.51545 130144349.73045      3282.94145        38.941    24765650.40247
 101411196.49747      2558.13347        44.993
  22241251.36248 116878584.59748     -2402.93848        46.462    22241253.80945
  91074252.36345     -1872.42245        40.873
  22630483.27047 118923991.92047     -1614.44147        44.278    22630482.13243
  92668048.56643     -1258.00843        36.390
  24481191.49545 128649538.45045        79.74645        39.571    24481191.90547
 100246391.69747        62.13747        43.783
  24910594.14144 130906040.94644     -3450.56244        38.496    24910594.96542
 102004717.05842     -2688.75442        34.273
  22382478.00048 117620723.88048     -2491.25448        46.072    22382477.63244
  91652528.88844     -1941.23844        37.185
  23122262.56347 121508326.34147      2780.43447        45.074    23122259.92145
  94681814.93845      2166.57045        39.243
  23653043.84145 124297579.94845      1485.87545        40.365    23653046.57149
  96855276.40049      1157.82449        49.848
  20696577.19049 108761317.56949      2018.82049        48.918    20696575.98247
  84749103.12647      1573.10547        43.380
  20734225.84549 108959172.93949     -1211.21149        50.354    20734227.71847
  84903268.59747      -943.80547        44.781
 20  9  1  0 33  0.0000000  0 11G 1G 3G10G11G12G20G21G22G25G31G32
  21996164.14248 115590632.90848      1251.41048        45.917    21996167.18245
  90070639.02745       975.12145        40.045
  24746907.77845 130045863.82745      3282.78945        41.030    24746909.05647
 101334454.19047      2558.01647        43.760
  22254998.10348 116950823.60848     -2413.05148        47.208    22255000.18345
  91130542.50645     -1880.30145        40.550
  22639745.76647 118972666.66247     -1630.56247        44.017    22639744.42641
  92705976.92741     -1270.57041        32.123
  24480787.78445 128647415.64545        61.12145        40.107    24480788.09047
 100244737.56347        47.62547        45.073
  24930301.81043 131009605.71143     -3454.01643        35.557    24930302.51142
 102085416.82842     -2691.44942        33.672
  22396729.78048 117695617.00748     -2501.37948        46.006    22396729.40144
  91710887.13644     -1949.12944        38.159
  23106402.39847 121424980.69547      2776.12147        45.337    23106400.09245
  94616870.30945      2163.20745        39.471
  23644605.23645 124253237.10445      1470.53545        40.776    23644608.23548
  96820723.55048      1145.86748        47.377
  20685104.15049 108701026.88049      2000.66849        48.817    20685102.96447
  84702123.38947      1558.95747        43.394
  20741162.76849 108995626.55749     -1219.00449        50.190    20741164.58147
  84931674.01047      -949.87547        44.705
 20  9  1  0 33 30.0000000  0 10G 1G 3G10G11G12G21G22G25G31G32
  21989076.12448 115553384.11148      1231.89848        46.092    21989078.89045
  90041613.99445       959.91845        39.320
  24728164.84945 129947371.08345      3283.14845        40.098    24728166.86748
 101257706.54048      2558.29348        46.062
  22268802.87448 117023367.78448     -2423.20348        46.880    22268805.08346
  91187070.40946     -1888.21546        41.311
  22649100.98147 119021828.93647     -1646.79347        44.386    22649099.97944
  92744285.18944     -1283.21944        36.770
  24480491.47545 128645856.38145        42.64545        39.658    24480491.40448
 100243522.55648        33.22748        46.227
  22411039.19847 117770813.42947     -2511.69947        45.385    22411038.49944
  91769481.73744     -1957.17244        38.009
  23090566.60548 121341764.05048      2771.51248        45.737    23090564.40844
  94552026.20844      2159.61744        37.608
  23636255.56545 124209361.97245      1454.73045        39.896    23636258.58249
  96786535.18149      1133.55949        48.094
  20673734.23649 108641278.17149      1982.52749        48.823    20673732.97647
  84655565.96447      1544.82447        43.684
  20748144.12649 109032314.37749     -1226.80549        50.028    20748146.22547
  84960261.91747      -955.95347        44.929
 20  9  1  0 34  0.0000000  0 10G 1G 3G10G11G12G21G22G25G31G32
  21982099.60648 115516721.78648      1212.32048        46.366    21982102.00145
  90013045.96645       944.66045        39.211
  24709420.52144 129848872.83844      3283.23444        38.005    24709423.84648
 101180954.67648      2558.35948        46.708
  22282665.35748 117096216.56248     -2433.40248        45.975    22282667.70945
  91243835.67645     -1896.14845        41.020
  22658548.63147 119071476.09347     -1662.95347        44.396    22658547.53943
  92782971.25543     -1295.81243        35.679
  24480302.14345 128644860.96545        23.48045        40.397    24480301.69347
 100242746.94147        18.29347        44.435
  22425405.94448 117846310.83748     -2521.55948        45.987    22425405.54645
  91828310.85345     -1964.85545        39.584
  23074755.91047 121258678.25147      2767.48447        44.937    23074753.01643
  94487284.02243      2156.47743        36.010
  23627995.97746 124165957.19046      1438.65246        41.827    23627998.33748
  96752713.25248      1121.02348        46.804
  20662467.88049 108582073.07349      1964.39549        48.865    20662466.38747
  84609432.12947      1530.69547        43.968
  20755169.87349 109069235.46249     -1234.53149        50.226    20755172.16747
  84989031.58847      -961.97747        44.531
 20  9  1  0 34 30.0000000  0 10G 1G 3G10G11G12G21G22G25G31G32
  21975234.90748 115480647.32448      1192.65648        46.081    21975237.03645
  89984936.00345       929.34045        39.821
  24690675.36344 129750370.28044      3283.35944        36.955    24690679.52349
 101104199.53749      2558.46149        48.044
  22296585.73348 117169369.34048     -2443.51248        46.656    22296588.19245
  91300837.81145     -1904.03945        40.392
  22668087.64347 119121605.20547     -1678.92247        43.769    22668086.71543
  92822032.87143     -1308.25443        35.324
  24480220.37445 128644430.06245         4.92245        40.910    24480219.54547
 100242411.16547         3.83247        45.137
  22439829.26348 117922106.89648     -2531.50048        45.707    22439828.80744
  91887372.68344     -1972.60244        38.178
  23058970.39047 121175724.38647      2762.88347        45.152    23058967.34544
  94422644.66344      2152.89144        36.992
  23619826.69545 124123025.02645      1422.84445        40.515    23619828.28149
  96719259.59849      1108.70749        48.305
  20651305.23049 108523413.19349      1946.12549        48.908    20651303.82047
  84563723.14447      1516.45747        43.754
  20762239.96049 109106388.88949     -1242.28549        50.258    20762242.21047
  85017982.31147      -968.02047        44.511
 20  9  1  0 35  0.0000000  0 10G 1G 3G10G11G12G21G22G25G31G32
  21968482.24648 115445162.00548      1173.03948        46.149    21968484.50445
  89957285.11245       914.05545        39.998
  24671930.61444 129651864.72044      3283.51644        38.596    24671934.52848
 101027442.06148      2558.58248        47.296
  22310564.21848 117242825.55548     -2453.64148        46.440    22310566.57245
  91358076.41345     -1911.93045        40.613
  22677718.06847 119172214.10747     -1694.97747        44.133    22677717.45244
  92861468.36444     -1320.76644        37.007
  24480246.17246 128644564.79546       -14.10546        41.315    24480245.68548
 100242516.14848       -10.99648        45.886
  22454309.64748 117998199.37548     -2541.34048        46.047    22454308.83344
  91946665.51144     -1980.27044        38.214
  23043210.31847 121092904.59347      2758.23447        44.172    23043207.15044
  94358109.74844      2149.27044        37.700
  23611747.34745 124080567.86045      1407.12545        40.995    23611749.25449
  96686176.15549      1096.46149        48.839
  20640246.61949 108465300.14549      1928.00849        48.867    20640245.26547
  84518440.26947      1502.34047        43.943
  20769354.12849 109143773.74649     -1250.14849        50.305    20769356.24847
  85047113.36747      -974.14547        44.225
 20  9  1  0 35 30.0000000  0 10G 1G 3G10G11G12G21G22G25G31G32
  21961841.86948 115410267.12348      1153.21548        46.546    21961844.36245
  89930094.30445       898.66845        39.738
  24653185.84645 129553357.59945      3283.73445        40.013    24653189.19948
 100950683.28548      2558.75048        46.118
  22324600.03248 117316584.59148     -2463.65648        46.294    22324602.56645
  91415550.96545     -1919.73445        41.097
  22687439.39247 119223300.08147     -1710.87147        43.675    22687439.25143
  92901275.60043     -1333.14843        35.691
  24480379.64945 128645265.60545       -32.94145        39.788    24480379.02548
 100243062.23048       -25.67248        46.548
  22468845.71848 118074585.87348     -2551.10948        46.661    22468844.68344
  92006187.41344     -1987.87944        37.363
  23027475.70547 121010220.43747      2754.02047        45.363    23027472.57344
  94293680.55944      2145.98444        37.272
  23603758.81146 124038588.21046      1391.30946        41.917    23603761.43149
  96653464.75449      1084.13349        48.486
  20629292.61149 108407735.87049      1909.77349        49.206    20629291.18747
  84473585.00447      1488.13347        43.608
  20776512.14049 109181389.10149     -1257.85249        50.270    20776514.15147
  85076424.03647      -980.14847        44.640
 20  9  1  0 36  0.0000000  0 10G 1G 3G10G11G12G21G22G25G31G32
  21955314.20748 115375963.94248      1133.38348        46.422    21955316.80545
  89903364.56845       883.15245        40.569
  24634440.95245 129454850.14045      3283.29745        41.023    24634443.74947
 100873924.21347      2558.41047        45.102
  22338693.34348 117390645.83348     -2473.62948        46.321    22338696.25246
  91473261.00746     -1927.50846        41.263
  22697251.17647 119274860.78147     -1726.77347        44.688    22697251.10242
  92941452.75542     -1345.53942        33.330
  24480620.74445 128646533.00145       -51.64145        39.805    24480620.51348
 100244049.85448       -40.24248        46.145
  22483437.45448 118151264.10748     -2560.89148        45.924    22483435.96044
  92065936.69544     -1995.50444        37.637
  23011767.90148 120927673.64148      2749.30148        46.198    23011764.66944
  94229358.38544      2142.30944        37.294
  23595861.16045 123997088.45145      1375.33645        39.676    23595864.74949
  96621127.29549      1071.68849        50.527
  20618443.34149 108350722.19249      1891.17649        48.981    20618442.03447
  84429158.77347      1473.64147        44.124
  20783713.85549 109219234.02849     -1265.29349        50.341    20783715.77547
  85105913.59347      -985.94547        44.739
 20  9  1  0 36 30.0000000  0 10G 1G 3G10G11G12G21G22G25G31G32
  21948899.42348 115342253.74348      1113.68848        46.118    21948902.18546
  89877096.89146       867.80546        41.179
  24615695.94344 129356343.61044      3283.10244        38.556    24615697.96748
 100797165.84348      2558.25848        46.861
  22352844.16048 117465008.79748     -2483.82448        47.078    22352847.25045
  91531206.13345     -1935.44945        40.625
  22707152.57946 119326893.30346     -1742.41846        43.141    22707152.58843
  92981997.54643     -1357.73043        35.901
  24480969.58845 128648367.38645       -70.63345        39.811    24480969.65748
 100245479.23648       -55.04348        46.032
  22498084.02848 118228232.09948     -2570.57048        46.571    22498082.61744
  92125911.72944     -2003.04744        37.856
  22996086.29447 120845265.84847      2744.42647        45.363    22996083.31045
  94165144.53545      2138.51245        39.418
  23588056.02746 123956070.93146      1359.09046        42.344    23588059.03748
  96589165.66148      1059.02748        47.106
  20607699.01349 108294260.30849      1872.84049        48.965    20607697.93647
  84385162.51447      1459.35247        44.080
  20790959.11449 109257307.62749     -1272.90649        50.277    20790960.98747
  85135581.33147      -991.87947        44.209
 20  9  1  0 37  0.0000000  0 10G 1G 3G10G11G12G21G22G25G31G32
  21942597.71848 115309137.70548      1093.87548        46.589    21942600.56245
  89851292.20245       852.36745        40.635
  24596951.06344 129257839.27544      3283.68044        38.499    24596953.05448
 100720409.28648      2558.70748        46.248
  22367052.39448 117539672.67248     -2493.78948        46.527    22367055.40145
  91589385.76645     -1943.21545        40.770
  22717143.21347 119379395.22047     -1757.95747        43.370    22717143.33543
  93022908.11743     -1369.84443        36.107
  24481426.67146 128650769.40946       -89.57846        41.147    24481426.85848
 100247350.96348       -69.80548        45.878
  22512785.28448 118305487.24848     -2579.82448        45.999    22512783.59844
  92186110.53244     -2010.25444        38.219
  22980431.60348 120762999.14148      2739.85948        46.072    22980428.61844
  94101040.62444      2134.95344        38.489
  23580343.36346 123915538.00446      1343.00846        42.689    23580344.58247
  96557581.51747      1046.49647        45.549
  20597059.89349 108238351.34349      1854.35249        48.989    20597058.86447
  84341597.10547      1444.94547        44.288
  20798247.72849 109295609.02249     -1280.50849        50.337    20798249.29547
  85165426.57947      -997.80147        44.044
 20  9  1  0 37 30.0000000  0 10G 1G 3G10G11G12G21G22G25G31G32
  21936409.01648 115276617.01348      1074.14548        46.242    21936412.10845
  89825951.42445       836.99245        40.520
  24578206.89545 129159338.60145      3283.02045        39.523    24578209.10548
 100643655.56148      2558.19548        46.984
  22381317.39348 117614636.89848     -2503.77048        45.947    22381320.39545
  91647799.40945     -1950.99245        40.875
  22727222.71747 119432363.44047     -1773.28147        44.037    22727222.51243
  93064182.04843     -1381.78143        35.598
  24481991.90245 128653739.74845      -108.67245        40.153    24481991.98248
 100249665.49748       -84.68448        46.129
  22527540.47648 118383026.98548     -2589.48448        46.025    22527538.98944
  92246531.08444     -2017.78544        37.364
  22964803.86848 120680874.59348      2734.87148        46.045    22964800.90944
  94037047.48244      2131.06644        38.735
  23572722.95345 123875491.98045      1326.94145        40.368    23572723.49949
  96526376.79649      1033.97749        48.374
  20586526.33649 108182997.37249      1835.88349        48.896    20586525.22747
  84298464.15847      1430.55547        44.105
  20805579.44649 109334137.27149     -1288.10949        50.325    20805580.84647
  85195448.58547     -1003.72747        44.355
 20  9  1  0 38  0.0000000  0 10G 1G 3G10G11G12G21G22G25G31G32
  21930333.70748 115244692.88748      1054.13348        45.755    21930336.98545
  89801075.50745       821.39845        40.253
  24559463.75744 129060842.88944      3282.96944        38.548    24559465.87848
 100566905.66548      2558.15248        46.928
  22395639.63148 117689900.87548     -2513.86748        46.718    22395642.40845
  91706446.63545     -1958.85945        40.744
  22737390.58447 119485795.66247     -1788.93447        43.594    22737390.46542
  93105817.53142     -1393.97742        34.291
  24482664.97545 128657277.92345      -127.19945        40.633    24482665.34847
 100252422.53447       -99.12147        44.173
  22542349.28547 118460849.11647     -2598.73447        45.219    22542348.36944
  92307171.67544     -2024.99244        37.275
  22949203.48847 120598894.33847      2730.16047        45.411    22949200.51945
  93973166.77345      2127.39545        38.919
  23565195.28545 123835935.14745      1310.21545        40.808    23565196.78449
  96495553.34349      1020.94549        48.102
  20576098.85649 108128199.89449      1817.30549        49.268    20576097.55347
  84255764.83747      1416.07847        44.074
  20812954.12549 109372891.48349     -1295.59849        50.268    20812955.46947
  85225646.66847     -1009.55947        44.250
 20  9  1  0 38 30.0000000  0 10G 1G 3G10G11G12G21G22G25G31G32
  21924372.50348 115213366.44448      1034.16448        46.287    21924375.53445
  89776665.31545       805.84045        40.378
  24540721.55545 128962353.42345      3282.85245        39.668    24540724.39249
 100490160.69149      2558.06249        48.127
  22410018.91948 117765463.91848     -2523.68048        45.963    22410021.73446
  91765326.90946     -1966.50846        41.611
  22747646.11447 119539689.01147     -1804.07447        44.151    22747646.09242
  93147812.32042     -1405.77342        33.308
  24483446.23945 128661385.85445      -146.09445        39.593    24483447.09148
 100255623.53148      -113.84448        46.032
  22557211.50348 118538951.27948     -2608.04748        46.424    22557210.88044
  92368030.45644     -2032.24644        37.993
  22933630.65647 120517060.00847      2725.41847        45.401    22933627.90344
  93909399.77844      2123.69944        38.293
  23557761.12646 123796869.84846      1293.86746        41.773    23557764.01149
  96465112.86849      1008.20349        48.906
  20565777.56849 108073960.50449      1798.72749        49.063    20565775.96047
  84213500.38947      1401.60247        44.362
  20820371.53049 109411870.79349     -1303.10949        50.255    20820372.90647
  85256020.15947     -1015.41447        43.949
 20  9  1  0 39  0.0000000  0 10G 1G 3G10G11G12G21G22G25G31G32
  21918525.32848 115182638.84548      1014.07848        46.334    21918527.99945
  89752721.74145       790.18845        40.400
  24521981.18645 128863871.63845      3282.79345        39.871    24521984.32748
 100413421.66948      2558.01648        47.774
  22424454.84848 117841325.38548     -2533.54748        46.307    22424457.63545
  91824439.71145     -1974.19545        40.641
  22757988.74247 119594040.69147     -1819.35547        43.795    22757988.61143
  93190164.28643     -1417.68443        35.319
  24484336.41645 128666063.30945      -165.77745        40.078    24484337.05747
 100259268.33147      -129.18047        44.345
  22572126.59047 118617331.06847     -2617.23047        45.236    22572126.15344
  92429105.57344     -2039.40244        37.346
  22918086.00547 120435372.81647      2720.51247        45.488    22918083.35044
  93845747.43444      2119.87544        37.364
  23550421.37845 123758298.32445      1277.60545        40.996    23550424.71749
  96435057.16849       995.53549        50.548
  20555562.51949 108020280.68349      1779.93849        48.925    20555560.91647
  84171671.96847      1386.96147        44.262
  20827831.51149 109451074.27049     -1310.51249        49.962    20827833.13647
  85286568.31547     -1021.18047        44.292
 20  9  1  0 39 30.0000000  0 10G 1G 3G10G11G12G21G22G25G31G32
  21912792.42648 115152511.11048       994.16448        46.660    21912794.57045
  89729245.58645       774.67245        39.060
  24503242.53545 128765398.84345      3282.30145        39.819    24503245.58848
 100336689.64548      2557.63348        46.991
  22438947.42148 117917484.57548     -2543.77748        45.639    22438950.42445
  91883784.48945     -1982.16845        40.994
  22768417.93147 119648847.74247     -1834.28547        43.704    22768418.09943
  93232871.06143     -1429.31643        34.614
  24485334.86344 128671310.54544      -184.69144        38.838    24485335.23247
 100263357.09047      -143.91847        45.046
  22587094.27148 118695986.13948     -2626.43848        46.205    22587093.49044
  92490395.22544     -2046.57844        37.920
  22902569.82647 120353834.86547      2715.35247        45.420    22902567.48944
  93782211.38544      2115.85544        38.407
  23543175.93946 123720222.79846      1260.93846        42.662    23543179.12849
  96405388.00249       982.55149        48.620
  20545454.20649 107967161.84749      1761.24649        49.134    20545452.79047
  84130280.68247      1372.39547        44.036
  20835334.00549 109490501.04849     -1317.95749        49.913    20835335.97747
  85317290.47747     -1026.98447        44.420
 20  9  1  0 40  0.0000000  0 10G 1G 3G10G11G12G21G22G25G31G32
  21907173.89248 115122984.42948       974.17648        46.465    21907175.90745
  89706237.77645       759.09445        39.789
  24484505.31944 128666936.42444      3281.83644        38.054    24484508.81948
 100259965.72548      2557.27348        45.682
  22453496.92348 117993940.87848     -2553.37548        46.177    22453499.46645
  91943360.80645     -1989.64545        40.425
  22778933.72747 119704107.94047     -1849.51247        44.373    22778933.75043
  93275930.91143     -1441.18043        36.008
  24486441.96945 128677127.57545      -203.32845        38.996    24486441.91647
 100267889.86947      -158.44147        45.384
  22602113.59047 118774914.01547     -2635.33647        45.291    22602113.12044
  92551897.41944     -2053.51244        37.419
  22887082.31648 120272447.90848      2710.29348        46.024    22887080.07744
  93718793.01044      2111.91444        38.298
  23536025.41646 123682645.66646      1244.39146        42.811    23536028.23649
  96376107.07649       969.65249        48.366
  20535452.87149 107914605.19049      1742.43449        49.010    20535451.53547
  84089327.45147      1357.73847        44.117
  20842878.93649 109530150.21849     -1325.41849        50.069    20842881.09347
  85348185.93247     -1032.79747        44.557
 20  9  1  0 40 30.0000000  0 10G 1G 3G10G11G12G21G22G25G31G32
  21901669.86748 115094059.75748       954.32048        47.067    21901671.90145
  89683699.07545       743.62145        39.185
  24465770.46344 128568485.74244      3281.60944        38.535    24465774.09048
 100183250.92148      2557.09448        46.161
  22468102.56748 118070693.56848     -2563.41048        46.386    22468104.94645
  92003168.06245     -1997.46545        39.571
  22789535.42347 119759818.46247     -1864.39547        43.878    22789535.24043
  93319341.71143     -1452.77743        35.909
  24487657.56845 128683515.50145      -222.72345        39.574    24487657.53147
 100272867.46147      -173.55547        44.882
  22617184.61947 118854112.53547     -2644.34847        44.730    22617183.98944
  92613610.54144     -2060.53544        37.249
  22871624.15648 120191213.70948      2705.00448        46.217    22871621.44545
  93655493.63745      2107.79345        38.934
  23528970.24946 123645568.95346      1227.68846        41.383    23528971.90149
  96347216.13049       956.63749        47.951
  20525558.86949 107862612.28549      1723.70349        48.948    20525557.54147
  84048813.51047      1343.14147        43.983
  20850466.10749 109570020.90349     -1332.64149        50.117    20850468.46647
  85379253.98947     -1038.42647        44.670
 20  9  1  0 41  0.0000000  0 10G 1G 3G10G11G12G21G22G25G31G32
  21896280.55648 115065738.16948       934.06248        46.725    21896282.43345
  89661630.28445       727.83645        40.699
  24447038.29145 128470048.26745      3280.82045        40.706    24447042.41948
 100106546.45548      2556.48048        47.116
  22482764.32148 118147742.01448     -2573.33648        46.304    22482766.54045
  92063205.79445     -2005.19945        39.702
  22800222.17647 119815976.31547     -1879.36747        44.770    22800221.70043
  93363101.04443     -1464.44543        34.481
  24488981.58845 128690474.38545      -241.34845        39.940    24488981.60247
 100278289.99847      -188.06647        43.834
  22632306.32547 118933579.26747     -2653.32447        45.014    22632306.12743
  92675532.61243     -2067.52743        36.618
  22856195.23448 120110134.03848      2700.18048        45.852    22856192.55444
  93592314.70744      2104.03144        38.596
  23522009.88845 123608994.94345      1210.75445        39.848    23522011.29249
  96318716.89249       943.44149        48.910
  20515772.44549 107811184.79849      1704.73849        49.118    20515771.26647
  84008740.15947      1328.36347        43.961
  20858095.24149 109610112.25149     -1340.03549        50.002    20858097.73347
  85410493.99547     -1044.18847        44.540
 20  9  1  0 41 30.0000000  0 10G 1G 3G10G11G12G21G22G25G31G32
  21891006.05048 115038020.62948       913.98848        46.396    21891008.26345
  89640032.20945       712.19545        40.395
  24428309.34145 128371625.35145      3280.57445        39.189    24428312.97949
 100029853.27149      2556.28949        48.848
  22497482.29948 118225085.41048     -2582.91048        46.120    22497484.53445
  92123473.34945     -2012.66045        40.576
  22810993.49047 119872578.90447     -1894.07047        44.548    22810992.65542
  93407206.94642     -1475.90242        33.902
  24490414.38744 128698004.54044      -260.71144        38.053    24490414.72246
 100284157.64546      -203.15646        43.195
  22647479.12047 119013311.80947     -2662.12547        45.138    22647478.31344
  92737661.86844     -2074.38744        37.660
  22840796.06648 120029210.53148      2694.84848        45.844    22840793.40444
  93529257.44444      2099.87944        38.534
  23515145.19345 123572925.76445      1193.66845        40.956    23515148.19549
  96290611.08449       930.12949        48.982
  20506093.93349 107760323.86649      1685.86349        49.040    20506092.94147
  83969108.27647      1313.65647        44.382
  20865766.22449 109650423.35049     -1347.40249        50.188    20865768.66347
  85441905.24247     -1049.92647        44.250
 20  9  1  0 42  0.0000000  0 10G 1G 3G10G11G12G21G22G25G31G32
  21885846.32148 115010908.16548       893.75848        46.216    21885849.19745
  89618905.62945       696.43045        40.843
  24409582.82944 128273218.41244      3280.02044        37.935    24409586.51049
  99953172.58949      2555.85549        47.947
  22512256.21948 118302723.08348     -2592.70748        45.848    22512258.27745
  92183970.20245     -2020.29345        40.057
  22821848.64547 119929623.31447     -1908.79747        43.390    22821847.89043
  93451657.13643     -1487.37943        36.228
  24491955.96144 128706106.05244      -279.51644        38.086    24491956.35048
 100290470.51748      -217.80948        45.632
  22662702.15947 119093307.88847     -2670.80147        44.837    22662701.42743
  92799996.45043     -2081.14843        36.172
  22825426.64747 119948444.96647      2689.50047        45.049    22825424.37244
  93466323.25744      2095.71144        38.593
  23508378.00646 123537363.63646      1176.89146        41.290    23508381.66749
  96262900.33449       917.05549        48.974
  20496523.43849 107710030.96249      1666.95349        48.947    20496522.55247
  83929919.01947      1298.92247        44.290
  20873478.79549 109690953.41349     -1354.58249        49.851    20873481.30247
  85473487.09947     -1055.52347        44.537
 20  9  1  0 42 30.0000000  0 10G 1G 3G10G11G12G21G22G25G31G32
  21880801.92148 114984401.72248       873.57048        45.765    21880805.38445
  89598251.26445       680.69945        40.900
  24390859.64744 128174828.87244      3279.08644        38.302    24390863.25848
  99876505.46348      2555.12948        46.798
  22527085.86748 118380654.31548     -2602.80548        45.784    22527088.24145
  92244695.80745     -2028.16445        39.606
  22832787.36646 119987106.71946     -1923.23046        43.044    22832786.71343
  93496449.38243     -1498.62543        35.750
  24493606.37044 128714779.06944      -298.69944        38.184    24493606.76048
 100297228.72648      -232.75448        45.721
  22677974.40047 119173564.70247     -2679.42247        45.404    22677973.34644
  92862534.19844     -2087.86344        37.573
  22810087.68647 119867839.13747      2684.20347        45.416    22810085.43345
  93403513.56045      2091.58245        38.903
  23501707.90845 123502310.61845      1160.21545        39.398    23501711.53449
  96235586.31149       904.05949        50.693
  20487061.38349 107660307.20749      1648.07049        49.123    20487060.22447
  83891173.24047      1284.20747        44.269
  20881232.99249 109731701.49149     -1361.96549        50.163    20881235.42047
  85505238.84247     -1061.27347        44.053
 20  9  1  0 43  0.0000000  0 10G 1G 3G10G11G12G21G22G25G31G32
  21875873.27348 114958502.17348       853.26248        46.278    21875877.07745
  89578069.80545       664.87545        40.298
  24372140.60745 128076458.16345      3278.48045        40.012    24372143.88648
  99799852.96848      2554.65648        46.938
  22541971.45048 118458878.38848     -2612.49248        46.230    22541973.73045
  92305649.58545     -2035.71145        39.725
  22843809.05347 120045026.33447     -1938.10547        43.670    22843808.14542
  93541581.50042     -1510.21542        34.245
  24495366.02245 128724024.39145      -317.49245        39.530    24495366.15947
 100304432.92047      -247.39847        45.453
  22693296.19247 119254079.99747     -2688.21947        44.889    22693295.54944
  92925273.34644     -2094.71944        37.685
  22794779.73048 119787394.79448      2678.78148        46.595    22794777.27944
  93340829.67644      2087.35944        37.966
  23495134.89746 123467768.93946      1142.93846        41.604    23495138.33548
  96208670.74748       890.59848        47.751
  20477707.88049 107611153.90349      1629.00849        49.048    20477706.65047
  83852871.97547      1269.35547        44.066
  20889028.50249 109772666.77049     -1369.19149        49.933    20889030.82147
  85537159.83947     -1066.90647        44.527
 20  9  1  0 43 30.0000000  0 10G 1G 3G10G11G12G21G22G25G31G32
  21871060.53348 114933210.49748       832.97348        46.531    21871064.07946
  89558362.00746       648.99646        41.211
  24353425.41745 127978107.68745      3278.25445        39.672    24353428.01948
  99723216.20948      2554.48048        46.546
  22556912.90648 118537394.53748     -2622.09448        46.157    22556915.08945
  92366830.97345     -2043.19145        40.201
  22854913.22546 120103379.36046     -1952.11346        43.330    22854912.52143
  93587051.37343     -1521.12543        34.652
  24497234.82844 128733842.09044      -336.99644        38.620    24497234.35448
 100312083.08348      -262.59848        47.090
  22708666.52347 119334851.33547     -2696.78547        45.327    22708665.46843
  92988212.02943     -2101.39543        35.847
  22779502.98148 119707113.68348      2673.37148        46.205    22779500.52245
  93278272.99845      2083.14545        38.993
  23488659.39145 123433740.63245      1125.89145        40.963    23488662.54648
  96182155.20048       877.31248        47.415
  20468463.02149 107562572.52449      1609.90249        48.951    20468462.05747
  83815016.37247      1254.46547        44.240
  20896865.16049 109813848.39749     -1376.36349        49.975    20896867.37747
  85569249.42447     -1072.49247        44.134
 20  9  1  0 44  0.0000000  0 10G 1G 3G10G11G12G21G22G25G31G32
  21866363.62348 114908527.57248       812.62548        46.325    21866366.93745
  89539128.56445       633.21145        40.200
  24334714.10244 127879779.02544      3277.04344        37.887    24334716.75748
  99646596.48748      2553.53548        46.265
  22571909.62048 118616201.99848     -2631.88348        45.742    22571911.71945
  92428239.34245     -2050.82045        39.771
  22866099.55247 120162162.89347     -1966.62547        43.893    22866098.95042
  93632856.68642     -1532.43842        32.740
  24499212.05345 128744231.91145      -355.78945        39.450    24499211.19548
 100320179.04548      -277.24248        45.996
  22724085.11647 119415876.34547     -2704.85947        44.363    22724084.28544
  93051348.40644     -2107.68844        37.090
  22764257.47848 119626997.57048      2667.82848        45.998    22764254.83045
  93215844.88345      2078.82445        38.973
  23482282.20746 123400227.77346      1108.39146        41.239    23482284.33448
  96156041.28248       863.68048        47.680
  20459327.46049 107514564.37949      1590.64849        49.160    20459326.37247
  83777607.43647      1239.46547        44.038
  20904742.77949 109855245.48649     -1383.44149        50.099    20904744.75847
  85601506.89147     -1078.00847        44.384
 20  9  1  0 44 30.0000000  0 10G 1G 3G10G11G12G21G22G25G31G32
  21861782.68548 114884454.16148       792.29348        46.346    21861785.95945
  89520370.06345       617.36745        40.701
  24316006.44944 127781473.42544      3276.55144        38.337    24316010.12749
  99569994.79249      2553.15249        48.759
  22586961.45948 118695300.07748     -2641.60248        45.779    22586963.69745
  92489874.18845     -2058.39545        40.409
  22877367.19046 120221374.12746     -1980.64146        43.202    22877366.53143
  93678995.27443     -1543.35943        35.857
  24501298.14045 128755193.78745      -374.82845        40.045    24501297.25748
 100328720.78148      -292.07848        46.198
  22739551.41447 119497152.61647     -2713.23047        45.153    22739551.00043
  93114680.50443     -2114.20743        36.305
  22749043.52948 119547048.13248      2662.17648        45.999    22749040.86945
  93153546.64845      2074.41845        38.959
  23476003.70046 123367232.39546      1091.28546        41.214    23476005.27949
  96130330.59449       850.34849        48.468
  20450301.17249 107467130.52749      1571.50049        49.119    20450299.91447
  83740646.00347      1224.54347        44.273
  20912661.27549 109896857.20149     -1390.59849        50.071    20912663.12847
  85633931.61047     -1083.58647        44.108
 20  9  1  0 45  0.0000000  0 10G 1G 3G10G11G12G21G22G25G31G32
  21857317.75648 114860991.16148       771.92648        46.448    21857321.13445
  89502087.21245       601.49645        40.292
  24297304.41445 127683192.58645      3275.79345        40.646    24297308.43349
  99493412.37749      2552.56249        49.035
  22602068.50648 118774687.95248     -2651.23448        46.024    22602070.65845
  92551734.82645     -2065.89845        39.818
  22888715.37546 120281010.21646     -1994.89846        42.911    22888715.10544
  93725464.91444     -1554.46944        36.944
  24503492.94945 128766728.40945      -394.52045        38.970    24503492.30147
 100337708.82547      -307.42247        44.707
  22755064.80947 119578677.64847     -2721.66047        44.445    22755064.35844
  93178206.49144     -2120.77744        36.862
  22733861.34947 119467267.17847      2656.55547        45.463    22733859.02445
  93091379.70845      2070.03945        39.850
  23469823.70846 123334756.56946      1073.78946        41.223    23469825.48048
  96105024.80648       836.71548        47.292
  20441384.34549 107420272.30049      1552.23449        49.224    20441383.08747
  83704133.11247      1209.53147        44.399
  20920620.34649 109938682.74649     -1397.76249        50.000    20920622.21447
  85666522.93847     -1089.16847        44.086
 20  9  1  0 45 30.0000000  0 10G 1G 3G10G11G12G21G22G25G31G32
  21852969.18948 114838139.39348       751.47748        46.520    21852972.47645
  89484280.63645       585.56245        40.852
  24278607.45945 127584937.88245      3274.66045        40.557    24278611.15649
  99416850.29449      2551.68049        48.579
  22617230.75248 118854364.85948     -2660.76248        45.790    22617232.67045
  92613820.71045     -2073.32445        39.705
  22900143.88146 120341068.25346     -2009.11746        41.678    22900143.48042
  93772263.35242     -1565.55142        33.613
  24505796.87046 128778835.76546      -413.10546        41.644    24505796.31647
 100347143.14147      -321.90247        44.568
  22770625.61147 119660448.88147     -2729.76247        45.484    22770625.52344
  93241924.29544     -2127.09044        36.884
  22718711.66548 119387656.78348      2650.77748        45.983    22718709.23044
  93029345.64544      2065.53944        38.054
  23463742.40146 123302802.29246      1056.53946        41.316    23463744.96448
  96080125.36248       823.27348        47.525
  20432577.35649 107373991.10649      1533.03549        49.247    20432576.20147
  83668069.85347      1194.57047        44.576
  20928619.95649 109980721.22049     -1404.87149        49.864    20928621.91547
  85699280.19247     -1094.70747        44.034
 20  9  1  0 46  0.0000000  0 10G 1G 3G10G11G12G21G22G25G31G32
  21848737.16448 114815899.57848       731.21948        46.439    21848740.28145
  89466950.90545       569.77745        40.765
  24259915.48345 127486710.75845      3273.57045        39.626    24259918.96848
  99340309.72748      2550.83248        47.302
  22632447.21447 118934330.10347     -2670.28547        45.297    22632449.62245
  92676131.24045     -2080.74645        40.095
  22911651.89846 120401545.36646     -2022.75846        42.731    22911651.43841
  93819388.33641     -1576.18041        29.116
  24508210.00446 128791515.75246      -432.36746        41.525    24508209.28748
 100357023.66048      -336.91448        46.071
  22786232.37947 119742463.99747     -2737.76247        44.410    22786231.84144
  93305832.14644     -2133.32444        38.102
  22703595.27048 119308219.11248      2644.99648        45.922    22703592.75645
  92967446.17245      2061.03145        40.072
  23457761.40946 123271371.53046      1039.03146        41.254    23457764.71049
  96055633.88449       809.63349        49.732
  20423880.27049 107328287.65249      1513.80149        49.160    20423879.23647
  83632456.79647      1179.58247        44.316
  20936659.88349 110022971.82049     -1411.99649        49.807    20936662.01247
  85732202.73047     -1100.26247        44.514
 20  9  1  0 46 30.0000000  0 10G 1G 3G10G11G12G21G22G25G31G32
  21844621.62948 114794272.47448       710.66048        46.433    21844624.44745
  89450098.61645       553.75845        40.415
  24241229.11945 127388512.77745      3272.63745        40.757    24241231.85948
  99263791.82848      2550.10248        45.963
  22647718.67348 119014582.82248     -2679.87948        45.643    22647721.14645
  92738665.80545     -2088.21945        40.336
  22923239.72246 120462438.56946     -2036.66446        42.819    22923239.50343
  93866837.55743     -1587.01643        35.786
  24510731.90645 128804768.43345      -451.40245        40.594    24510731.29948
 100367350.43848      -351.74648        46.934
  22801885.33747 119824720.20647     -2745.89847        44.183    22801885.07544
  93369927.86244     -2139.66444        36.866
  22688512.07948 119228954.93048      2639.21548        46.713    22688509.39445
  92905681.90245      2056.52745        39.942
  23451880.37145 123240466.28245      1021.59445        40.819    23451884.08349
  96031551.91149       796.04349        49.815
  20415293.31649 107283163.26649      1494.48449        49.219    20415292.18047
  83597294.94947      1164.53147        44.281
  20944740.13449 110065433.68849     -1418.90649        49.934    20944742.24647
  85765289.89847     -1105.64547        43.676
 20  9  1  0 47  0.0000000  0 10G 1G 3G10G11G12G21G22G25G31G32
  21840622.78248 114773258.86348       690.14548        46.107    21840625.34845
  89433724.36545       537.77345        40.634
  24222548.80746 127290345.41746      3271.66046        41.220    24222551.40749
  99187297.78749      2549.34449        47.972
  22663044.86347 119095122.14347     -2689.26647        45.381    22663047.29845
  92801423.69645     -2095.53545        39.659
  22934906.16447 120523744.83847     -2050.38347        44.000    22934905.83343
  93914608.66743     -1597.70343        35.283
  24513362.82845 128818594.28745      -470.34845        40.593    24513362.21848
 100378123.82248      -366.50848        47.362
  22817583.56447 119907215.57947     -2753.87947        44.627    22817583.34644
  93434209.93444     -2145.88344        36.942
  22673462.40148 119149866.70148      2633.33648        46.994    22673459.19144
  92844054.72144      2051.94544        38.337
  23446099.72246 123210088.51546      1003.77746        41.426    23446103.12049
  96007880.93549       782.16049        48.701
  20406816.92949 107238619.08049      1475.12949        49.229    20406815.49347
  83562585.19647      1149.44947        44.214
  20952860.49149 110108106.02049     -1425.90649        50.116    20952862.50147
  85798541.06047     -1111.09847        43.689
 20  9  1  0 47 30.0000000  0 10G 1G 3G10G11G12G21G22G25G31G32
  21836740.87548 114752859.40748       669.82048        46.740    21836743.49445
  89417828.68945       521.93445        40.372
  24203874.52645 127192210.16245      3270.67245        40.591    24203877.39049
  99110828.79249      2548.57449        48.096
  22678425.48748 119175947.41048     -2698.95348        45.586    22678428.06745
  92864404.37945     -2103.08245        40.129
  22946650.77747 120585461.45147     -2064.07847        44.416    22946650.11343
  93962699.50243     -1608.37543        35.161
  24516102.63146 128832992.47346      -489.38746        41.310    24516102.10748
 100389343.23648      -381.34048        46.852
  22833327.15146 119989947.52546     -2761.69146        43.199    22833326.81944
  93498676.36844     -2151.96944        38.408
  22658446.43948 119070956.39748      2627.27348        47.031    22658442.89044
  92782566.18144      2047.22344        38.823
  23440419.95546 123180240.14046       986.05946        41.565    23440423.08749
  95984622.49349       768.35549        48.388
  20398451.11049 107194656.14949      1455.67649        49.183    20398449.59647
  83528328.37947      1134.28947        44.432
  20961020.72849 110150988.00149     -1432.89549        49.940    20961022.55847
  85831955.58547     -1116.54347        43.965
 20  9  1  0 48  0.0000000  0 10G 1G 3G10G11G12G21G22G25G31G32
  21832976.11848 114733074.78648       649.18448        46.587    21832978.68945
  89402412.08545       505.85545        39.840
  24185206.42945 127094108.55745      3269.57445        39.529    24185209.27449
  99034386.00649      2547.71949        47.959
  22693860.35747 119257057.66547     -2708.40647        45.246    22693862.88345
  92927607.16645     -2110.44945        39.674
  22958472.87047 120647585.38447     -2077.41047        44.522    22958472.11043
  94011107.73643     -1618.76643        35.065
  24518951.62445 128847963.49245      -508.48045        40.921    24518950.67948
 100401008.96748      -396.22348        45.813
  22849114.91548 120072913.28348     -2769.53148        45.559    22849114.92943
  93563324.93743     -2158.07843        36.362
  22643464.57148 118992225.60748      2621.38748        46.616    22643460.94645
  92721217.52345      2042.63745        39.366
  23434840.94045 123150923.01545       968.49645        41.024    23434844.34849
  95961777.98049       754.66849        48.794
  20390196.03649 107151275.71449      1436.29749        49.193    20390194.68547
  83494525.45047      1119.18847        44.615
  20969220.72949 110194078.78249     -1439.74649        49.968    20969222.47847
  85865532.81047     -1121.88347        43.865
 20  9  1  0 48 30.0000000  0 10G 1G 3G10G11G12G21G22G25G31G32
  21829328.58648 114713905.61648       628.78148        46.892    21829331.09945
  89387475.07445       489.95745        40.431
  24166544.47845 126996042.08945      3268.50445        39.767    24166547.82648
  98957970.64948      2546.88348        46.878
  22709349.19648 119338452.14448     -2717.87148        45.585    22709351.62544
  92991031.41144     -2117.82444        38.710
  22970371.61047 120710113.71547     -2090.74647        43.401    22970370.85243
  94059831.08043     -1629.15643        34.730
  24521909.24245 128863506.97345      -527.51645        39.993    24521908.32447
 100413120.79247      -411.05547        45.207
  22864947.25747 120156110.23147     -2777.08247        44.296    22864946.49943
  93628153.74443     -2163.96543        36.636
  22628516.91548 118913675.97748      2615.12548        46.281    22628513.40944
  92660010.02844      2037.75844        38.861
  23429363.76446 123122139.04546       950.41046        41.245    23429366.15049
  95939348.93349       740.57449        48.364
  20382052.03149 107108478.51749      1416.85949        49.307    20382050.55847
  83461176.99547      1104.04347        44.267
  20977460.29249 110237377.57649     -1446.72749        49.954    20977461.92047
  85899272.13247     -1127.32447        43.868
 20  9  1  0 49  0.0000000  0 10G 1G 3G10G11G12G21G22G25G31G32
  21825798.13848 114695352.53948       608.29348        46.631    21825800.81845
  89373018.13245       474.01645        40.732
  24147890.03346 126898012.32546      3267.18846        41.232    24147893.02048
  98881583.84148      2545.85548        47.280
  22724891.80047 119420130.00247     -2727.41447        44.936    22724894.32745
  93054676.46345     -2125.26245        39.562
  22982346.59546 120773043.34446     -2104.35946        42.663    22982345.76243
  94108867.11643     -1639.76643        35.619
  24524975.82745 128879623.12145      -547.08245        40.814    24524975.22747
 100425678.84947      -426.30147        44.076
  22880822.70747 120239536.35847     -2784.60947        44.945    22880822.14443
  93693161.04443     -2169.82843        36.656
  22613603.99748 118835309.66648      2608.96148        45.974    22613600.60745
  92598945.39145      2032.95345        39.295
  23423988.06545 123093890.08745       932.61745        40.675    23423990.52949
  95917336.78049       726.71149        49.011
  20374019.23049 107066265.79849      1397.26649        49.214    20374017.70247
  83428283.98047      1088.77347        44.515
  20985739.17549 110280883.58249     -1453.64149        49.916    20985740.74047
  85933172.91147     -1132.71147        43.767
 20  9  1  0 49 30.0000000  0 10G 1G 3G10G11G12G21G22G25G31G32
  21822384.99648 114677416.15248       587.53948        46.970    21822387.53945
  89359041.73545       457.82045        40.175
  24129242.77545 126800020.91245      3265.68045        39.379    24129245.90049
  98805226.90949      2544.68449        48.856
  22740488.16547 119502090.34747     -2736.47747        44.711    22740490.81145
  93118541.62945     -2132.32445        40.321
  22994397.22546 120836371.11646     -2117.48046        42.949    22994396.54142
  94158213.40142     -1649.99242        34.122
  24528151.59245 128896311.87945      -565.53145        39.891    24528150.81448
 100438683.07948      -440.67648        46.275
  22896741.27547 120323189.12047     -2792.21947        43.580    22896740.20043
  93758344.99643     -2175.75843        36.429
  22598726.20648 118757128.27348      2602.99248        46.038    22598723.07944
  92538024.84244      2028.30144        38.628
  23418714.54046 123066178.06246       914.61746        42.434    23418717.38648
  95895742.99548       712.68448        47.337
  20366097.84749 107024638.66849      1377.76649        49.240    20366096.34647
  83395847.25447      1073.58247        44.821
  20994057.30149 110324595.97549     -1460.50849        49.831    20994058.84647
  85967234.51147     -1138.06247        43.830
 20  9  1  0 50  0.0000000  0 10G 1G 3G10G11G12G21G22G25G31G32
  21819089.30648 114660097.04848       566.91048        46.789    21819091.76145
  89345546.33245       441.74645        40.243
  24110602.88045 126702069.23845      3264.51245        40.069    24110606.53949
  98728900.99249      2543.77349        49.282
  22756138.35447 119584332.40247     -2746.31647        44.438    22756141.06745
  93182626.31345     -2139.98845        40.440
  23006523.31146 120900094.53646     -2130.81646        42.595    23006522.87543
  94207867.97343     -1660.37943        36.046
  24531436.30145 128913572.94845      -584.91845        40.991    24531435.73248
 100452133.30248      -455.78548        46.307
  22912702.47147 120407065.94047     -2799.52747        44.804    22912701.41543
  93823703.52543     -2181.45343        36.615
  22583884.12048 118679133.51948      2596.64548        46.535    22583881.25445
  92477249.71545      2023.35545        39.286
  23413543.89645 123039004.71345       896.80545        40.273    23413546.09349
  95874568.95049       698.80549        48.384
  20358287.99549 106983597.84749      1358.24249        49.306    20358286.54447
  83363867.39947      1058.36747        44.535
  21002414.57249 110368513.99349     -1467.32849        49.898    21002416.02047
  86001456.34247     -1143.37547        43.643
 20  9  1  0 50 30.0000000  0 10G 1G 3G10G11G12G21G22G25G31G32
  21815910.98348 114643395.71248       546.42648        46.438    21815913.78446
  89332532.32046       425.78146        41.129
  24091970.99346 126604158.96846      3262.87546        41.189    24091974.91449
  98652607.34049      2542.49649        48.086
  22771842.00347 119666855.26947     -2755.41847        44.959    22771844.78645
  93246929.82845     -2147.08245        39.832
  23018724.21146 120964210.35146     -2143.66046        43.247    23018723.48043
  94257828.34343     -1670.38743        36.314
  24534829.73945 128931405.96245      -603.85545        39.724    24534829.28548
 100466029.17548      -470.53948        47.338
  22928705.87947 120491164.19247     -2807.00447        43.587    22928704.94943
  93889234.59143     -2187.27743        35.667
  22569078.27048 118601327.48348      2590.36348        46.638    22569075.62145
  92416621.63245      2018.46145        39.775
  23408475.60745 123012371.83545       878.60545        40.764    23408477.81349
  95853816.07649       684.62549        48.758
  20350589.86949 106943144.28749      1338.59049        49.289    20350588.56047
  83332345.15547      1043.05547        44.576
  21010810.89649 110412636.78449     -1474.22349        49.946    21010812.32747
  86035837.73947     -1148.75047        43.767
 20  9  1  0 51  0.0000000  0 10G 1G 3G10G11G12G21G22G25G31G32
  21812850.19648 114627312.66548       525.94548        46.014    21812853.35145
  89320000.09445       409.82445        41.001
  24073347.64645 126506291.75445      3261.29745        40.903    24073351.25149
  98576347.19749      2541.26649        48.132
  22787598.81047 119749658.07647     -2764.70347        44.281    22787601.56545
  93311451.45745     -2154.31645        39.676
  23030999.35046 121028715.57846     -2156.65246        42.815    23030998.68042
  94308092.14942     -1680.51242        33.770
  24538331.33145 128949810.42745      -622.92645        39.443    24538331.65448
 100480370.30648      -485.39848        45.885
  22944750.58247 120575481.33947     -2814.02047        44.060    22944749.50843
  93954936.23043     -2192.74643        35.943
  22554308.64848 118523711.94348      2583.91048        46.724    22554306.10245
  92356142.01045      2013.43445        39.671
  23403510.43645 122986281.20445       860.40245        40.656    23403513.26249
  95833485.75149       670.44149        49.614
  20343003.70149 106903279.20249      1319.06249        49.079    20343002.43147
  83301281.45747      1027.83647        44.600
  21019246.11849 110456963.61749     -1480.92249        50.153    21019247.42747
  86070378.12547     -1153.96947        43.523
 20  9  1  0 51 30.0000000  0 11G 1G 3G10G11G12G21G22G25G26G31G32
  21809907.21748 114611848.48448       505.17248        46.153    21809910.64545
  89307950.07545       393.63745        41.021
  24054732.59845 126408469.02245      3259.84045        39.997    24054736.12849
  98500121.74149      2540.13349        48.627
  22803409.04447 119832739.94747     -2774.15647        45.290    22803411.55745
  93376190.57245     -2161.68445        39.736
  23043347.59946 121093607.19846     -2169.32046        42.915    23043347.18543
  94358656.98343     -1690.38343        35.772
  24541942.11043 128968787.22443      -641.81643        35.984    24541942.91548
 100495157.38148      -500.12148        47.059
  22960837.08447 120660014.85047     -2821.25847        43.746    22960835.85243
  94020806.45643     -2198.38743        35.382
  22539575.76548 118446288.77048      2577.48848        46.951    22539573.25045
  92295812.27545      2008.43045        39.928
  23398648.91846 122960734.54446       842.41446        41.418    23398652.54149
  95813579.29649       656.42249        49.908
  25057261.79944 131676802.18844      3249.59844        37.052    25057266.07143
 102605314.66743      2532.15243        36.580
  20335529.64949 106864003.31749      1299.29749        49.276    20335528.33847
  83270676.88147      1012.43847        44.627
  21027719.94749 110501493.65549     -1487.75449        50.019    21027721.17146
  86105076.84746     -1159.29346        43.066
 20  9  1  0 52  0.0000000  0 11G 1G 3G10G11G12G21G22G25G26G31G32
  21807082.40548 114597003.55748       484.57848        46.564    21807085.90145
  89296382.60845       377.53545        40.891
  24036125.94445 126310692.39345      3258.65645        40.065    24036129.96349
  98423932.21949      2539.21149        49.129
  22819271.94347 119916099.98847     -2783.28947        44.933    22819274.47345
  93441146.42245     -2168.80145        40.039
  23055768.73546 121158882.23446     -2182.21146        41.653    23055768.33343
  94409520.59243     -1700.43043        34.565
  24545661.52344 128988335.30544      -661.21144        36.860    24545663.00847
 100510389.65947      -515.23447        44.392
  22976963.90147 120744762.40847     -2828.48447        44.252    22976962.92343
  94086843.48743     -2204.01643        35.851
  22524879.74748 118369059.76448      2571.01648        47.205    22524877.21745
  92235633.83845      2003.38745        40.207
  23393891.60546 122935733.63546       824.17246        42.034    23393895.13849
  95794098.08149       642.20749        49.225
  25038695.92844 131579237.54144      3254.05544        37.999    25038699.44743
 102529290.39343      2535.62943        35.673
  20328168.04149 106825317.65949      1279.58249        49.192    20328166.68547
  83240532.22047       997.07447        44.759
  21036232.19149 110546226.14349     -1494.46149        49.755    21036233.46847
  86139933.33347     -1164.52047        43.810
 20  9  1  0 52 30.0000000  0 11G 1G 3G10G11G12G21G22G25G26G31G32
  21804375.52148 114582778.31548       463.77048        46.146    21804378.97346
  89285298.01446       361.44146        41.349
  24017529.22246 126212963.61446      3256.83246        41.978    24017532.41049
  98347779.94449      2537.78949        47.877
  22835187.70447 119999737.32547     -2792.71947        44.833    22835190.06045
  93506318.36945     -2176.14845        38.978
  23068262.50845 121224537.50345     -2194.69145        41.009    23068262.40843
  94460680.55343     -1710.15243        34.928
  24549490.03544 129008454.91144      -680.09844        37.536    24549491.52047
 100526067.27047      -529.94947        43.640
  22993131.41147 120829721.53147     -2835.27347        43.902    22993130.30043
  94153045.38043     -2209.30943        35.571
  22510220.94648 118292026.90148      2564.49248        46.953    22510218.37845
  92175608.23845      1998.30145        40.405
  23389238.43545 122911280.11945       806.10545        41.002    23389241.95249
  95775043.42849       628.13349        49.968
  25020105.98244 131481548.73344      3258.98044        37.697    25020109.22141
 102453169.13541      2539.46141        30.626
  20320918.90949 106787222.85049      1259.95749        49.416    20320917.68647
  83210847.96347       981.78147        44.657
  21044782.84249 110591160.28449     -1501.14849        49.891    21044784.20447
  86174946.95047     -1169.73047        43.366
 20  9  1  0 53  0.0000000  0 11G 1G 3G10G11G12G21G22G25G26G31G32
  21801786.49048 114569173.15048       443.16048        46.405    21801790.07745
  89274696.59845       345.31645        40.927
  23998941.94546 126115284.25046      3255.53946        41.629    23998944.41348
  98271666.15448      2536.78148        47.304
  22851155.71947 120083650.98247     -2801.60547        43.824    22851158.44845
  93571705.62845     -2183.07445        40.044
  23080827.76546 121290569.96646     -2207.19146        42.563    23080828.19043
  94512134.35843     -1719.89843        34.648
  24553427.45045 129029145.09945      -698.94545        40.567    24553428.30146
 100542189.50846      -544.63746        42.001
  23009338.11147 120914889.37847     -2842.44147        44.392    23009337.21343
  94219409.86943     -2214.89543        35.227
  22495599.67148 118215192.08648      2557.89848        46.673    22495597.18645
  92115736.96045      1993.16445        39.776
  23384689.80946 122887375.73946       787.68846        41.260    23384692.69649
  95756416.65849       613.77749        49.246
  25001493.96744 131383740.46644      3262.44944        37.545    25001497.33243
 102376955.02443      2542.16443        36.637
  20313782.36749 106749719.75549      1240.19949        49.248    20313781.37047
  83181624.77947       966.38747        45.143
  21053371.73449 110636295.32949     -1507.75849        49.872    21053373.16746
  86210117.10646     -1174.87946        43.215
 20  9  1  0 53 30.0000000  0 11G 1G 3G10G11G12G21G22G25G26G31G32
  21799315.61748 114556188.54348       422.48048        46.185    21799319.16745
  89264578.73545       329.20345        40.953
  23980363.73745 126017655.84345      3253.35245        40.071    23980366.15249
  98195592.09349      2535.07449        47.887
  22867176.45547 120167840.12647     -2811.18447        44.995    22867179.23345
  93637307.54245     -2190.53545        39.601
  23093464.54946 121356976.79246     -2219.36346        42.112    23093465.53042
  94563879.90642     -1729.37942        34.227
  24557473.90745 129050405.67645      -718.26245        40.773    24557473.45946
 100558756.21946      -559.68846        41.569
  23025584.54447 121000263.52447     -2849.28147        43.826    23025583.22343
  94285935.17643     -2220.22343        34.824
  22481016.26448 118138557.02048      2551.19948        46.535    22481013.77145
  92056021.34745      1987.94545        39.254
  23380245.90646 122864022.10246       769.22346        42.083    23380248.70049
  95738219.03149       599.39149        48.578
  24982859.34344 131285814.25144      3266.00444        38.290    24982862.91542
 102300649.02542      2544.93842        33.326
  20306758.51349 106712809.42149      1220.52749        49.320    20306757.59647
  83152863.48547       951.05947        44.938
  21061998.62749 110681630.50849     -1514.43449        49.764    21062000.15546
  86245443.21646     -1180.08246        43.215
 20  9  1  0 54  0.0000000  0 11G 1G 3G10G11G12G21G22G25G26G31G32
  21796962.93148 114543824.72748       401.66448        46.559    21796966.22345
  89254944.58745       312.98045        40.767
  23961795.31645 125920080.06145      3251.49645        41.084    23961798.11049
  98119559.06149      2533.62949        48.968
  22883249.66447 120252303.72947     -2819.92647        43.789    22883252.06944
  93703123.32844     -2197.34844        38.610
  23106172.17646 121423754.99346     -2232.15646        42.749    23106172.82343
  94615914.81643     -1739.34843        34.934
  24561628.68545 129072236.63645      -737.33645        40.765    24561626.91446
 100575767.41646      -574.55146        42.449
  23041869.29247 121085841.57847     -2855.75847        43.689    23041868.48443
  94352619.29643     -2225.27043        35.636
  22466471.28348 118062123.75348      2544.43448        46.531    22466468.72345
  91996462.96545      1982.67245        39.405
  23375906.79046 122841220.82046       750.90246        41.777    23375909.64449
  95720451.82349       585.11749        47.822
  24964202.65843 131187772.67143      3269.71143        35.887    24964206.24641
 102224253.07841      2547.82441        30.859
  20299847.55849 106676492.44749      1200.60549        49.352    20299846.49847
  83124564.55547       935.53547        44.730
  21070663.48149 110727165.03949     -1521.20349        49.731    21070665.15147
  86280924.66647     -1185.35547        43.427
 20  9  1  0 54 30.0000000  0 11G 1G 3G10G11G12G21G22G25G26G31G32
  21794728.30948 114532082.05448       380.93448        46.631    21794731.50145
  89245794.46145       296.86345        40.182
  23943237.85746 125822558.55746      3249.63746        41.346    23943240.38849
  98043568.29449      2532.18049        48.341
  22899374.64147 120337040.96247     -2829.16447        44.676    22899376.64745
  93769152.33545     -2204.54745        39.707
  23118950.22747 121490901.18047     -2244.21147        43.357    23118950.02643
  94668236.50543     -1748.73843        34.530
  24565891.82145 129094637.43445      -756.40645        41.030    24565889.78747
 100593222.61447      -589.41047        43.745
  23058192.73147 121171620.66547     -2862.53547        43.562    23058191.81443
  94419460.13543     -2230.55143        35.061
  22451965.13648 117985894.00348      2537.67648        46.801    22451962.77045
  91937063.17945      1977.40645        40.191
  23371673.28346 122818973.54446       732.14546        41.977    23371675.68848
  95703116.28748       570.50048        47.384
  24945524.54144 131089618.40444      3273.35944        37.611    24945528.43142
 102147769.42342      2550.68042        33.947
  20293049.62849 106640769.60349      1180.76649        49.375    20293048.44947
  83096728.58547       920.07447        44.800
  21079366.14749 110772898.15849     -1527.67249        49.461    21079367.92246
  86316560.85546     -1190.39846        43.297
 20  9  1  0 55  0.0000000  0 11G 1G 3G10G11G12G21G22G25G26G31G32
  21792611.95748 114520960.84148       360.20748        46.639    21792615.03345
  89237128.58845       280.71945        40.655
  23924690.66445 125725092.90045      3247.82845        39.993    23924693.55249
  97967621.05849      2530.77349        49.055
  22915551.50647 120422050.88647     -2838.21147        45.102    22915553.46644
  93835393.80544     -2211.59844        37.928
  23131797.39447 121558412.00447     -2256.26647        43.688    23131796.86742
  94720842.31942     -1758.13342        32.768
  24570263.31846 129117607.47746      -775.14846        42.305    24570261.45446
 100611121.36546      -604.01646        42.994
  23074553.81947 121257598.90647     -2869.30547        43.994    23074552.86944
  94486456.12444     -2235.82444        37.041
  22437498.41348 117909869.60148      2530.71548        46.954    22437495.81545
  91877823.39945      1971.98045        40.621
  23367545.37046 122797281.85546       713.70346        41.923    23367547.44848
  95686213.68348       556.12948        47.401
  24926825.09444 130991354.07744      3277.41844        38.529    24926829.62543
 102071199.93243      2553.83243        34.946
  20286365.00249 106605641.66149      1160.96149        49.452    20286363.79047
  83069356.16847       904.64147        45.063
  21088106.46149 110818829.16649     -1534.48049        49.342    21088108.41446
  86352351.24746     -1195.70346        43.305
 20  9  1  0 55 30.0000000  0 11G 1G 3G10G11G12G21G22G25G26G31G32
  21790613.92148 114510461.36848       339.54348        46.266    21790617.10745
  89228947.17645       264.57445        39.997
  23906153.91745 125627684.73745      3245.98445        40.638    23906157.63349
  97891718.68549      2529.33649        48.961
  22931780.10447 120507332.44847     -2847.20747        45.030    22931782.05344
  93901846.96444     -2218.60544        38.728
  23144713.25346 121626284.81846     -2268.50846        42.918    23144712.98043
  94773730.22443     -1767.67243        35.081
  24574742.54645 129141146.56945      -794.23445        41.024    24574741.18647
 100629463.52147      -618.88747        44.975
  23090952.46347 121343772.85447     -2875.52747        44.380    23090951.31142
  94553604.61342     -2240.67642        33.779
  22423070.97348 117834052.76448      2523.77348        47.008    22423068.34845
  91818745.36245      1966.57445        39.759
  23363523.40546 122776147.30146       695.03946        41.785    23363525.37848
  95669745.20548       541.58648        47.624
  24908105.01343 130892982.15543      3281.05543        36.019    24908109.76744
 101994546.60944      2556.66444        38.173
  20279793.78149 106571109.25249      1141.07849        49.457    20279792.60147
  83042447.81147       889.14847        44.904
  21096884.35149 110864957.22649     -1540.91449        49.406    21096886.31447
  86388295.18147     -1200.71547        43.809
 20  9  1  0 56  0.0000000  0 11G 1G 3G10G11G12G21G22G25G26G31G32
  21788734.18248 114500583.88748       318.76648        45.987    21788737.64646
  89221250.44446       248.38746        41.249
  23887629.28546 125530335.95646      3243.91046        42.573    23887632.15248
  97815862.47948      2527.71948        47.587
  22948060.05947 120592884.76547     -2856.31647        44.675    22948062.19444
  93968511.07644     -2225.70344        38.295
  23157697.31647 121694516.54247     -2280.53947        43.563    23157697.39242
  94826897.75642     -1777.04742        33.838
  24579330.24345 129165254.27345      -813.18045        40.908    24579329.15047
 100648248.77847      -633.64847        44.708
  23107387.24447 121430140.43147     -2882.14547        43.814    23107386.36143
  94620903.97543     -2245.83243        34.933
  22408683.21848 117758445.20848      2516.73848        46.568    22408680.51945
  91759830.39745      1961.09045        39.956
  23359607.49545 122755571.33645       676.79745        40.209    23359610.29349
  95653712.02949       527.37149        49.442
  24889365.08744 130794505.47944      3284.12544        38.272    24889369.72941
 101917811.68041      2559.05541        27.918
  20273336.03549 106537173.03949      1121.28549        49.398    20273334.88747
  83016004.01547       873.72747        45.008
  21105699.65849 110911281.66549     -1547.39849        49.763    21105701.45846
  86424392.14146     -1205.77046        43.285
 20  9  1  0 56 30.0000000  0 11G 1G 3G10G11G12G21G22G25G26G31G32
  21786972.90848 114491328.60748       298.05148        46.130    21786976.58446
  89214038.53846       232.24646        41.358
  23869116.15246 125433048.06046      3242.02746        41.768    23869118.83148
  97740053.75348      2526.25048        47.735
  22964391.50947 120678706.81147     -2865.16847        45.405    22964393.48444
  94035385.38444     -2232.60244        37.517
  23170749.01846 121763103.90146     -2292.19546        42.037    23170749.06342
  94880342.42642     -1786.12942        34.312
  24584025.73745 129189929.83745      -832.19545        39.124    24584024.60647
 100667476.51147      -648.46947        44.429
  23123858.77646 121516699.12646     -2888.33246        43.249    23123858.27243
  94688352.26343     -2250.65243        36.004
  22394335.53748 117683048.76248      2509.81248        46.673    22394333.22345
  91701079.95045      1955.69545        39.752
  23355798.75446 122735555.60046       657.83646        41.246    23355801.86649
  95638115.38749       512.59849        49.741
  24870605.99944 130695926.55544      3287.69944        36.736    24870610.36043
 101840997.11243      2561.84043        35.302
  20266991.81449 106503833.67449      1101.31249        49.374    20266990.61847
  82990025.29647       858.16447        45.094
  21114552.22249 110957801.73349     -1553.95349        49.740    21114553.87647
  86460641.53147     -1210.87547        43.571
 20  9  1  0 57  0.0000000  0 11G 1G 3G10G11G12G21G22G25G26G31G32
  21785330.24848 114482695.74248       277.25448        46.811    21785333.75445
  89207311.64645       216.03945        39.885
  23850614.88446 125335822.78446      3239.74646        41.668    23850617.19149
  97664293.81849      2524.47349        47.813
  22980774.12247 120764797.66447     -2874.18447        44.433    22980776.36745
  94102469.14545     -2239.62945        39.452
  23183867.36446 121832043.76246     -2303.52046        42.047    23183867.94043
  94934061.74143     -1794.95743        35.187
  24588829.19245 129215173.16045      -850.82445        40.363    24588828.01047
 100687146.68247      -662.98447        43.972
  23140366.19347 121603446.55047     -2894.83647        43.801    23140365.84843
  94755947.61943     -2255.71943        36.627
  22380028.62648 117607865.56748      2502.48848        46.722    22380026.14045
  91642495.65345      1949.98845        39.365
  23352096.82245 122716101.54945       638.96545        40.903    23352099.88149
  95622956.40149       497.89149        49.982
  24851828.31944 130597248.02244      3291.16044        37.990    24851832.27441
 101764104.79641      2564.53541        32.095
  20260761.13049 106471091.92449      1081.43049        49.201    20260760.06147
  82964512.26247       842.66847        45.390
  21123441.86849 111004516.66349     -1560.31649        49.631    21123443.34147
  86497042.77947     -1215.83647        43.414
 20  9  1  0 57 30.0000000  0 11G 1G 3G10G11G12G21G22G25G26G31G32
  21783806.17648 114474685.40548       256.66848        46.671    21783809.20845
  89201069.84245       199.98445        40.583
  23832125.95046 125238661.82146      3237.47346        42.479    23832127.76548
  97588583.98748      2522.70348        46.830
  22997207.52347 120851156.31247     -2883.00447        44.716    22997210.23344
  94169761.58344     -2246.50044        38.561
  23197052.30546 121901333.22646     -2315.64846        41.377    23197053.21042
  94988053.50142     -1804.40642        33.507
  24593740.27245 129240983.52645      -869.88345        39.852    24593739.50646
 100707258.65546      -677.83246        43.134
  23156908.94546 121690379.86746     -2901.01646        43.158    23156908.61243
  94823687.85743     -2260.53543        35.523
  22365762.72148 117532897.49848      2495.39848        47.072    22365760.22645
  91584079.00245      1944.46545        39.600
  23348502.54746 122697210.62246       620.13346        42.438    23348505.17249
  95608236.22649       483.21949        49.420
  24833031.94444 130498472.61944      3294.26244        38.208    24833035.79543
 101687137.09543      2566.95343        35.366
  20254644.32649 106438948.22349      1061.52049        49.019    20254643.30847
  82939465.22347       827.15647        45.484
  21132368.44549 111051425.73449     -1567.00049        49.603    21132369.94747
  86533595.29147     -1221.04347        43.842
 20  9  1  0 58  0.0000000  0 11G 1G 3G10G11G12G21G22G25G26G31G32
  21782400.58848 114467297.79348       235.87148        47.039    21782403.39445
  89195313.26945       183.72745        40.233
  23813649.40745 125141566.84345      3235.57045        40.685    23813651.36049
  97512925.58249      2521.21949        48.286
  23013691.91347 120937781.80047     -2891.71147        44.290    23013694.65245
  94237261.94345     -2253.28545        40.142
  23210303.52446 121970968.97546     -2326.91446        41.626    23210304.33043
  95042315.07743     -1813.18443        36.076
  24598759.29844 129267360.54044      -889.14844        37.748    24598759.32148
 100727812.18148      -692.84848        45.863
  23173486.45646 121777496.91946     -2907.02346        42.839    23173486.64843
  94891571.19843     -2265.21943        35.951
  22351538.18748 117458146.57048      2488.06648        47.084    22351535.55545
  91525831.53945      1938.75045        40.190
  23345015.70646 122678884.21546       601.47746        41.818    23345017.78549
  95593955.91549       468.68049        49.031
  24814217.59844 130399602.97044      3297.22744        38.636    24814222.00242
 101610095.91842      2569.26642        34.037
  20248641.39549 106407403.13949      1041.50849        49.293    20248640.47247
  82914884.64647       811.56247        45.143
  21141331.76349 111098528.24549     -1573.44949        49.748    21141333.31846
  86570298.54046     -1226.06646        43.124
 20  9  1  0 58 30.0000000  0 11G 1G 3G10G11G12G21G22G25G26G31G32
  21781113.35348 114460532.99348       215.09448        47.164    21781115.94145
  89190042.00345       167.58645        40.582
  23795185.15645 125044539.55245      3233.09445        40.221    23795187.93849
  97437319.93949      2519.28949        48.326
  23030226.87647 121024673.07247     -2900.92647        44.180    23030229.24744
  94304969.42544     -2260.46544        38.165
  23223620.03946 122040947.90346     -2338.28146        42.066    23223620.93642
  95096844.04942     -1822.03942        33.842
  24603885.83344 129294303.43444      -908.09844        38.340    24603886.38148
 100748806.60148      -707.61348        46.773
  23190099.15546 121864794.54146     -2912.98046        43.142    23190098.71642
  94959595.30542     -2269.85942        32.592
  22337355.14148 117383614.46648      2480.58648        46.591    22337352.71045
  91467754.59545      1932.92245        40.391
  23341636.47246 122661123.81746       582.52746        42.912    23341637.83349
  95580116.64049       453.91449        47.988
  24795386.10545 130300641.75245      3300.07445        38.971    24795390.45843
 101532983.38743      2571.48843        34.595
  20242752.52449 106376457.22649      1021.46949        49.357    20242751.60447
  82890770.96147       795.94547        45.018
  21150331.76949 111145823.43949     -1579.78549        49.628    21150333.40046
  86607151.92946     -1231.00446        43.296
 20  9  1  0 59  0.0000000  0 11G 1G 3G10G11G12G21G22G25G26G31G32
  21779944.63948 114454391.07548       194.32848        47.065    21779947.21445
  89185256.10245       151.42245        40.184
  23776734.70245 124947581.75545      3230.91845        40.751    23776737.92349
  97361768.44949      2517.59449        48.663
  23046811.73747 121111829.17347     -2909.50447        43.673    23046814.72845
  94372883.22245     -2267.14845        39.950
  23237001.64546 122111266.72646     -2349.64546        43.028    23237002.25442
  95151637.93542     -1830.89542        32.915
  24609120.30144 129321811.46344      -926.45744        38.555    24609120.90648
 100770241.42948      -721.91848        46.425
  23206745.19746 121952270.07246     -2918.62546        43.266    23206744.70143
  95027758.00743     -2274.25843        35.868
  22323214.00548 117309303.23148      2473.29748        47.144    22323211.86745
  91409849.76745      1927.24245        39.860
  23338364.69646 122643930.78146       563.71546        42.723    23338365.50548
  95566719.48148       439.25448        47.127
  24776538.02544 130201591.68944      3303.11344        38.092    24776541.87043
 101455801.55643      2573.85243        35.678
  20236977.86049 106346111.14449      1001.48449        49.152    20236976.90647
  82867124.66647       780.37547        45.425
  21159368.27649 111193310.60749     -1586.11749        49.728    21159370.06046
  86644154.91746     -1235.93846        43.279
 20  9  1  0 59 30.0000000  0 11G 1G 3G10G11G12G21G22G25G26G31G32
  21778894.35448 114448872.11748       173.52748        46.470    21778896.92946
  89180955.62946       135.21546        41.256
  23758297.90546 124850695.11746      3228.35946        41.267    23758301.14549
  97286272.41449      2515.60249        49.162
  23063447.36947 121199249.01947     -2918.34847        44.776    23063450.47944
  94441002.57744     -2274.03944        38.766
  23250447.54947 122181922.54247     -2361.00847        43.577    23250447.33242
  95206694.40842     -1839.75042        33.170
  24614462.63745 129349883.66845      -944.88745        39.248    24614462.78447
 100792115.87147      -736.27747        44.644
  23223424.94846 122039921.42746     -2924.82846        42.963    23223424.93443
  95096057.69343     -2279.09443        35.592
  22309115.60548 117235214.60948      2465.74648        47.192    22309113.23645
  91352118.38845      1921.35545        40.106
  23335200.92046 122627306.45146       544.80946        42.212    23335201.34648
  95553765.47148       424.52348        47.689
  24757672.99244 130102455.41944      3305.90244        38.610    24757676.58041
 101378552.61841      2576.02341        32.124
  20231317.38749 106316365.45049       981.58249        49.187    20231316.64947
  82843946.21047       764.86747        45.042
  21168441.21049 111240989.06149     -1592.48449        49.566    21168443.02447
  86681306.95547     -1240.89847        43.778
 20  9  1  1  0  0.0000000  0 11G 1G 3G10G11G12G21G22G25G26G31G32
  21777962.48248 114443976.13448       152.78548        46.624    21777965.25445
  89177140.56645       119.05145        40.963
  23739874.97946 124753881.38846      3226.07446        41.241    23739878.22249
  97210833.17049      2513.82049        48.981
  23080132.62346 121286931.67246     -2927.09846        43.118    23080135.74645
  94509326.69645     -2280.85945        40.539
  23263956.65146 122252912.16346     -2371.91846        43.156    23263956.22342
  95262010.98342     -1848.25042        33.750
  24619911.86544 129378520.34544      -963.74644        38.050    24619911.95948
 100814430.19448      -750.97348        45.899
  23240137.44847 122127746.18947     -2930.43447        43.518    23240137.10542
  95164492.56142     -2283.45742        34.276
  22295059.89648 117161350.83648      2458.22748        47.085    22295057.09645
  91294562.22245      1915.49645        40.417
  23332145.57246 122611252.20846       525.61346        42.263    23332146.31948
  95541255.70148       409.56648        47.640
  24738791.35644 130003235.64644      3308.56644        36.697    24738795.42642
 101301238.60642      2578.10242        33.549
  20225771.23849 106287220.59649       961.44149        49.126    20225770.54247
  82821235.94747       749.17247        45.465
  21177550.41149 111288858.07449     -1598.82049        49.585    21177552.24547
  86718607.48547     -1245.83647        43.680
 20  9  1  1  0 30.0000000  0 11G 1G 3G10G11G12G21G22G25G26G31G32
  21777149.21648 114439703.12948       132.04348        46.707    21777152.21846
  89173810.95146       102.88746        41.273
  23721466.22046 124657142.36446      3223.29746        42.387    23721469.31849
  97135452.13249      2511.65649        48.740
  23096867.75447 121374876.02947     -2936.04747        43.368    23096870.97944
  94577854.75944     -2287.83244        37.720
  23277528.51846 122324232.51246     -2382.87146        42.829    23277528.05342
  95317585.26142     -1856.78542        33.718
  24625468.47045 129407720.27445      -982.86745        39.741    24625468.32347
 100837183.39747      -765.87547        43.724
  23256882.71646 122215741.22646     -2935.72746        42.891    23256882.32044
  95233060.08644     -2287.58244        36.708
  22281047.20448 117087713.58548      2450.74248        47.397    22281044.38745
  91237182.57245      1909.66845        39.631
  23329198.86445 122595769.35045       506.64145        40.723    23329200.39549
  95529191.13549       394.78149        49.546
  24719894.72444 129903935.14144      3311.59444        38.364    24719899.44143
 101223861.67943      2580.46143        35.268
  20220339.58149 106258677.07649       941.42249        49.106    20220338.80547
  82798994.24847       733.57447        45.344
  21186695.62949 111336916.95549     -1605.05149        49.343    21186697.62847
  86756055.96447     -1250.69147        43.382
 20  9  1  1  1  0.0000000  0 11G 1G 3G10G11G12G21G22G25G26G31G32
  21776454.49048 114436053.05248       111.24648        46.781    21776457.78046
  89170966.73146        86.66846        41.213
  23703071.81446 124560479.66846      3220.87146        41.899    23703075.02749
  97060130.59049      2509.76649        48.613
  23113652.73747 121463081.01647     -2944.51647        44.423    23113655.70044
  94646585.90844     -2294.43044        37.360
  23291162.56646 122395880.39846     -2393.59846        42.688    23291162.14042
  95373414.75042     -1865.14542        33.875
  24631132.22045 129437483.04145     -1001.49645        40.095    24631131.94547
 100860375.17247      -780.39147        45.270
  23273659.38846 122303903.88746     -2941.35946        43.157    23273659.18442
  95301758.21442     -2291.97742        33.996
  22267077.98148 117014304.90548      2443.24648        47.029    22267075.02945
  91179981.01945      1903.82445        40.034
  23326361.05745 122580859.11545       487.52345        40.892    23326363.33349
  95517572.79549       379.88749        49.436
  24700983.76145 129804556.66345      3314.05945        39.290    24700988.31942
 101146424.04242      2582.38342        34.075
  20215022.52349 106230735.18049       921.25049        49.800    20215021.61947
  82777221.34747       717.85547        44.893
  21195876.74249 111385164.99249     -1611.35949        49.535    21195878.88847
  86793651.84347     -1255.60947        43.536
 20  9  1  1  1 30.0000000  0 11G 1G 3G10G11G12G21G22G25G26G31G32
  21775878.40448 114433025.87248        90.44948        46.841    21775881.85845
  89168607.88945        70.47745        40.383
  23684692.41545 124463895.17645      3218.23845        40.323    23684695.49849
  96984869.98149      2507.71549        49.324
  23130487.14047 121551545.67547     -2953.44147        43.599    23130490.06845
  94715519.39145     -2301.38745        38.980
  23304858.22446 122467852.26146     -2404.34046        41.991    23304857.59442
  95429496.71842     -1873.51642        33.417
  24636902.93045 129467807.74145     -1020.01645        39.394    24636902.49047
 100884004.84147      -794.82047        44.664
  23290468.04447 122392231.79147     -2946.76247        44.361    23290466.90242
  95370585.17742     -2296.18042        34.119
  22253152.59248 116941126.91148      2435.41848        46.927    22253149.62045
  91122959.21745      1897.72745        40.547
  23323632.89446 122566522.84246       468.21546        41.203    23323635.65849
  95506401.68949       364.84049        49.594
  24682058.44745 129705102.94845      3316.15245        39.304    24682062.77742
 101068927.69042      2584.01242        32.779
  20209819.92449 106203395.24749       901.28949        48.975    20209818.99748
  82755917.51748       702.30148        45.937
  21205093.84849 111433601.50549     -1617.69149        49.560    21205096.08346
  86831394.57646     -1260.54346        43.120
 20  9  1  1  2  0.0000000  0 11G 1G 3G10G11G12G21G22G25G26G31G32
  21775421.07148 114430621.50248        69.89548        47.073    21775424.22246
  89166734.36746        54.46146        41.291
  23666327.96145 124367390.64145      3215.75845        40.690    23666331.08748
  96909671.71548      2505.78148        47.578
  23147370.35446 121640268.88346     -2961.55146        43.155    23147373.93344
  94784654.32244     -2307.70744        37.797
  23318614.94546 122540145.32346     -2415.10546        41.999    23318614.97042
  95485828.93342     -1881.90242        33.783
  24642780.45244 129498693.62044     -1038.84844        38.867    24642780.08346
 100908071.77346      -809.49646        42.422
  23307307.38946 122480722.58946     -2952.24646        42.655    23307306.19542
  95439539.00042     -2300.45742        33.651
  22239271.46848 116868181.33248      2427.85248        46.858    22239268.36345
  91066118.52345      1891.82845        40.422
  23321013.88746 122552761.71746       449.25446        41.215    23321017.41349
  95495678.73849       350.06649        49.178
  24663119.00543 129605576.58943      3318.68043        35.155    24663123.40043
 100991374.84043      2585.98443        36.569
  20204731.96149 106176657.57849       881.14549        49.407    20204730.90947
  82735082.97847       686.60247        45.433
  21214346.79549 111482225.76249     -1623.93849        49.338    21214348.97146
  86869283.61246     -1265.41046        43.104
 20  9  1  1  2 30.0000000  0 11G 1G 3G10G11G12G21G22G25G26G31G32
  21775082.36248 114428839.85148        48.85248        47.130    21775085.04746
  89165346.06146        38.06246        41.626
  23647979.37346 124270967.83446      3212.77046        41.577    23647982.05649
  96834537.08649      2503.45349        47.982
  23164302.63447 121729249.58247     -2970.18447        43.768    23164306.42244
  94853989.89044     -2314.43444        38.209
  23332432.45446 122612756.07946     -2425.61346        42.908    23332432.85642
  95542408.70442     -1890.09442        34.181
  24648764.24245 129530139.66545     -1057.80945        39.667    24648763.91046
 100932575.23246      -824.27046        42.770
  23324177.12347 122569373.57447     -2957.79347        43.846    23324175.73242
  95508617.66142     -2304.77742        33.590
  22225434.98848 116795470.24548      2419.78548        47.231    22225431.79345
  91009460.54245      1885.54345        40.762
  23318504.92446 122539577.01346       429.71546        41.389    23318508.39349
  95485404.95149       334.84049        48.727
  24644166.21644 129505980.41244      3320.40244        37.579    24644170.80342
 100913767.48842      2587.32442        33.560
  20199758.68549 106150522.84549       861.12949        49.279    20199757.55747
  82714718.24747       671.00847        45.467
  21223635.28149 111531037.10749     -1630.06649        49.471    21223637.51747
  86907318.42447     -1270.18447        43.570
 20  9  1  1  3  0.0000000  0 11G 1G 3G10G11G12G21G22G25G26G31G32
  21774861.96548 114427680.81348        28.25048        47.204    21774864.28945
  89164442.91945        22.01245        40.155
  23629646.83446 124174628.59346      3209.94546        42.249    23629649.33149
  96759467.55749      2501.25449        48.239
  23181284.17547 121818486.72847     -2979.13347        43.453    23181286.87544
  94923525.34444     -2321.40644        37.016
  23346309.93546 122685681.30846     -2435.79346        42.316    23346310.29042
  95599233.54642     -1898.02342        33.880
  24654854.95944 129562145.23944     -1076.00044        38.070    24654854.49447
 100957514.65847      -838.44947        43.379
  23341076.59046 122658182.14546     -2962.68046        42.560    23341075.79942
  95577819.09942     -2308.58642        33.697
  22211643.48048 116722995.54048      2411.83248        47.015    22211640.22645
  90952986.76045      1879.34845        40.261
  23316105.98646 122526969.78846       410.69546        41.786    23316109.23549
  95475581.17549       320.02049        48.905
  24625200.97345 129406317.15745      3323.48445        39.018    24625205.48943
 100836107.94343      2589.73043        34.672
  20194900.13049 106124991.32049       840.98049        49.226    20194899.17448
  82694823.56848       655.30548        45.861
  21232959.18049 111580034.89949     -1636.38349        49.157    21232961.41447
  86945498.51447     -1275.10547        43.645
 20  9  1  1  3 30.0000000  0 11G 1G 3G10G11G12G21G22G25G26G31G32
  21774759.84548 114427144.12848         7.59048        46.924    21774761.99945
  89164024.72045         5.91045        40.660
  23611330.33046 124078374.66246      3206.98846        42.834    23611333.02549
  96684464.54249      2498.94949        48.779
  23198314.15547 121907979.17547     -2987.34847        43.516    23198316.50444
  94993259.70744     -2327.80544        38.814
  23360246.59747 122758918.51847     -2446.22747        43.635    23360246.75543
  95656301.47943     -1906.15243        35.634
  24661051.46243 129594709.74143     -1094.88743        36.174    24661051.36547
 100982889.64047      -853.16047        43.543
  23358005.50147 122747146.05547     -2968.05947        43.438    23358005.63342
  95647141.56942     -2312.77742        33.671
  22197897.24448 116650759.02848      2404.03548        47.234    22197894.03745
  90896698.57345      1873.27045        40.046
  23313817.21246 122514941.29846       391.31646        41.876    23313820.32549
  95466208.34849       304.91849        49.333
  24606223.25044 129306589.64344      3325.13744        38.254    24606227.85142
 100758398.24642      2591.01242        33.863
  20190156.50449 106100063.32149       820.88349        49.612    20190155.62947
  82675399.15647       639.64547        45.268
  21242318.52349 111629218.43749     -1642.48049        49.229    21242320.76346
  86983823.34746     -1279.85946        43.261
 20  9  1  1  4  0.0000000  0 11G 1G 3G10G11G12G21G22G25G26G31G32
  21774776.14348 114427229.65648       -13.26248        46.955    21774778.09345
  89164091.36245       -10.33645        40.126
  23593030.61747 123982207.89747      3204.05147        43.334    23593032.94949
  96609529.40949      2496.66049        48.108
  23215392.39746 121997725.84646     -2995.72346        42.611    23215394.88744
  95063192.16944     -2334.33244        38.660
  23374241.88646 122832463.99646     -2456.53946        42.881    23374241.86141
  95713609.59041     -1914.19141        32.137
  24667355.53943 129627818.23743     -1113.83643        36.291    24667354.31647
 101008691.33847      -867.92647        45.281
  23374964.06447 122836262.25647     -2973.09047        43.416    23374963.73342
  95716582.74442     -2316.69542        34.073
  22184196.73648 116578762.57348      2395.97348        47.151    22184193.66945
  90840597.45645      1866.98845        39.964
  23311638.61846 122503492.68146       371.98046        41.950    23311641.58349
  95457287.38049       289.85249        49.025
  24587233.80844 129206800.50544      3327.18844        38.188    24587238.01241
 100680640.54141      2592.60941        31.872
  20185527.78449 106075738.91749       800.70349        49.263    20185526.78248
  82656445.08648       623.92248        45.737
  21251713.04749 111678587.02049     -1648.82849        49.366    21251715.19946
  87022292.37646     -1284.80546        43.325
 20  9  1  1  4 30.0000000  0 11G 1G 3G10G11G12G21G22G25G26G31G32
  21774910.77248 114427937.18048       -34.02048        47.137    21774912.67745
  89164642.66745       -26.51245        39.716
  23574747.29545 123886130.03245      3200.97345        40.970    23574749.59749
  96534663.57549      2494.26249        48.132
  23232518.81547 122087725.71047     -3004.25447        43.939    23232521.69444
  95133321.89344     -2340.98044        37.950
  23388295.11746 122906314.47446     -2466.92646        42.799    23388295.25442
  95771155.39342     -1922.28142        32.472
  24673763.23244 129661497.52044     -1131.84444        37.623    24673763.57148
 101034934.97648      -881.96148        45.750
  23391950.82946 122925528.09846     -2978.19546        42.966    23391950.25042
  95786140.51442     -2320.67642        33.360
  22170542.32148 116507008.07948      2387.75448        47.222    22170539.35145
  90784684.87745      1860.58645        40.216
  23309570.50546 122492624.96846       352.28546        41.516    23309573.33449
  95448819.04549       274.50449        48.908
  24568233.40144 129106952.66744      3329.65644        38.817    24568237.89843
 100602837.09143      2594.53943        36.324
  20181014.00849 106052018.54449       780.60949        49.480    20181012.83748
  82637961.68248       608.26648        45.740
  21261142.76149 111728140.00049     -1654.72349        49.408    21261144.65647
  87060905.08947     -1289.39847        43.355
 20  9  1  1  5  0.0000000  0 11G 1G 3G10G11G12G21G22G25G26G31G32
  21775163.73948 114429266.40448       -54.65248        47.278    21775165.66745
  89165678.43045       -42.59045        40.529
  23556480.80246 123790142.91246      3198.19146        41.321    23556484.17549
  96459868.50949      2492.09449        48.127
  23249693.68147 122177977.54147     -3012.71947        43.792    23249696.40744
  95203647.98844     -2347.57844        38.846
  23402405.92646 122980466.72646     -2476.62146        43.042    23402406.01342
  95828936.36742     -1929.83642        32.335
  24680278.78744 129695732.90144     -1150.23444        37.632    24680278.04047
 101061611.89047      -896.28947        45.301
  23408965.53346 123014941.13246     -2982.83246        42.941    23408965.06643
  95855812.94343     -2324.28943        34.716
  22156934.49848 116435497.88348      2379.64548        47.127    22156931.60645
  90728962.66245      1854.26645        40.656
  23307613.17746 122482339.39546       332.85546        41.919    23307615.73349
  95440804.29949       259.36349        48.457
  24549222.07744 129007048.80344      3330.70344        37.671    24549226.97342
 100524990.02542      2595.35942        33.439
  20176615.23849 106028902.22449       760.48449        49.563    20176613.90547
  82619948.97047       592.58247        45.483
  21270607.43449 111777876.74449     -1660.94949        49.597    21270609.35646
  87099660.99146     -1294.25046        43.100
 20  9  1  1  5 30.0000000  0 11G 1G 3G10G11G12G21G22G25G26G31G32
  21775534.93148 114431217.10748       -75.44548        47.338    21775537.01245
  89167198.46545       -58.79345        40.036
  23538232.81146 123694248.49246      3194.89546        42.212    23538235.90749
  96385145.60149      2489.52349        48.104
  23266915.43246 122268480.32246     -3021.30146        42.615    23266918.05644
  95274169.61444     -2354.26244        37.238
  23416573.68046 123054917.51646     -2486.73846        43.249    23416573.39641
  95886949.94841     -1937.72341        30.718
  24686899.40644 129730523.56144     -1168.86744        38.356    24686898.62748
 101088721.51748      -910.80948        46.256
  23426007.68147 123104498.69047     -2987.70347        43.367    23426007.30042
  95925597.99642     -2328.08242        33.300
  22143373.54548 116364233.92548      2371.48448        47.519    22143370.57445
  90673432.30245      1847.90645        40.666
  23305767.03346 122472636.78746       313.82046        42.436    23305769.29449
  95433243.84749       244.53149        48.668
  24530201.11645 128907091.75545      3332.67645        40.406    24530205.45841
 100447101.43641      2596.89141        31.530
  20172331.42349 106006390.23349       740.34049        49.802    20172329.90147
  82602407.16247       576.88747        45.068
  21280106.87949 111827796.57349     -1667.18449        49.413    21280108.87047
  87138559.56347     -1299.10547        43.589
 20  9  1  1  6  0.0000000  0 11G 1G 3G10G11G12G21G22G25G26G31G32
  21776024.26148 114433789.01948       -96.14548        46.969    21776026.61646
  89169202.54346       -74.92246        41.204
  23520002.71846 123598448.51946      3191.71546        42.414    23520005.40149
  96310496.29349      2487.04749        48.281
  23284184.80347 122359232.90947     -3029.25047        43.856    23284187.90044
  95344885.87744     -2360.45744        38.888
  23430797.66546 123129663.87646     -2496.43846        42.400    23430797.03342
  95945193.83242     -1945.27742        33.319
  24693625.53144 129765868.66244     -1187.56644        38.623    24693624.48948
 101116263.13348      -925.30148        46.634
  23443077.07846 123194197.90946     -2992.26246        42.776    23443076.59143
  95995493.48543     -2331.63743        35.296
  22129859.80848 116293218.36948      2363.14148        47.354    22129856.80645
  90618095.50845      1841.40645        40.715
  23304032.06046 122463518.37346       294.25046        41.784    23304033.94949
  95426138.57949       229.28149        48.046
  24511170.69545 128807084.34945      3334.13345        39.919    24511174.68643
 100369173.56243      2598.02343        35.477
  20168162.57449 105984482.81749       720.30949        49.552    20168160.95848
  82585336.46348       561.27748        45.643
  21289641.02049 111877898.82549     -1673.11349        49.405    21289643.19046
  87177600.27746     -1303.72746        43.213
 20  9  1  1  6 30.0000000  0 11G 1G 3G10G11G12G21G22G25G26G31G32
  21776631.54948 114436981.72348      -116.79748        46.348    21776634.38946
  89171690.37246       -91.01646        41.828
  23501791.18047 123502744.87047      3188.45747        43.612    23501793.72649
  96235922.05549      2484.50849        48.978
  23301502.26347 122450234.10947     -3037.55147        45.230    23301505.12644
  95415795.89644     -2366.92644        38.640
  23445076.95246 123204702.77846     -2506.29346        41.766    23445076.75841
  96003665.66241     -1952.95741        31.937
  24700456.71945 129801766.86445     -1205.77045        39.703    24700455.68148
 101144235.77948      -939.56248        46.282
  23460172.49646 123284036.79746     -2996.93846        41.803    23460172.48143
  96065497.73243     -2335.27743        35.504
  22116393.45148 116222452.80848      2354.69548        47.093    22116390.77346
  90562953.53146      1834.82446        41.213
  23302407.88645 122454985.06845       274.61745        40.908    23302410.16249
  95419489.28149       213.98449        49.579
  24492130.91945 128707029.33545      3335.82045        39.465    24492134.71843
 100291208.67343      2599.33643        35.243
  20164108.70749 105963180.03749       699.94949        49.652    20164107.22047
  82568736.89347       545.41047        45.550
  21299209.71049 111928182.88149     -1679.24649        49.152    21299211.98346
  87216782.65646     -1308.50846        43.054
 20  9  1  1  7  0.0000000  0 11G 1G 3G10G11G12G21G22G25G26G31G32
  21777357.08848 114440794.92348      -137.52748        47.062    21777360.18945
  89174661.70645      -107.16845        40.764
  23483598.62847 123407139.42747      3185.07447        43.684    23483600.59449
  96161424.32049      2481.87149        47.925
  23318866.93947 122541482.79947     -3045.63747        44.783    23318869.20844
  95486898.76344     -2373.22744        37.103
  23459411.24746 123280030.45846     -2515.80946        42.623    23459411.15143
  96062362.52143     -1960.37543        34.535
  24707392.96445 129838217.39945     -1223.93045        39.999    24707391.97248
 101172638.80748      -953.79348        46.217
  23477294.49146 123374012.65646     -3001.56646        43.267    23477294.25742
  96135608.77742     -2338.88742        32.247
  22102974.90748 116151939.21248      2346.41048        47.390    22102972.51845
  90508007.89445      1828.36745        40.510
  23300895.55946 122447037.85046       255.13346        42.403    23300898.34849
  95413296.67449       198.80149        48.345
  24473082.57544 128606929.63744      3337.70344        38.318    24473086.33143
 100213208.95543      2600.80543        34.980
  20160170.07349 105942482.16349       679.76249        49.601    20160168.61048
  82552608.69648       529.68048        45.625
  21308812.81049 111978648.07549     -1685.16449        49.048    21308815.25246
  87256106.17546     -1313.11746        42.834
 20  9  1  1  7 30.0000000  0 11G 1G 3G10G11G12G21G22G25G26G31G32
  21778200.60348 114445228.21948      -158.02048        46.573    21778203.86746
  89178116.21946      -123.13746        41.369
  23465424.58646 123311633.97446      3182.00846        41.877    23465426.60749
  96087004.48949      2479.48449        48.575
  23336277.41946 122632977.91946     -3053.90646        42.788    23336279.56043
  95558193.62843     -2379.67243        36.646
  23473799.90346 123355643.71046     -2525.13346        41.654    23473799.77541
  96121281.91041     -1967.64141        31.470
  24714434.04245 129875219.06345     -1242.51645        40.202    24714433.13648
 101201471.29948      -968.19548        46.695
  23494441.76046 123464122.51846     -3005.73446        42.586    23494441.95642
  96205824.19142     -2342.13342        32.659
  22089604.98248 116081679.83048      2337.64148        47.570    22089602.29845
  90453260.32945      1821.53545        40.373
  23299495.16546 122439677.70946       235.40246        42.088    23299497.85449
  95407561.50749       183.42649        48.722
  24454026.15144 128506787.98344      3338.93444        38.410    24454030.47443
 100135176.57143      2601.76643        36.207
  20156346.50449 105922389.18549       659.68849        49.606    20156345.17248
  82536951.83448       514.03948        45.764
  21318450.16049 112029293.78949     -1691.23049        48.801    21318452.73346
  87295570.37146     -1317.84446        42.828
 20  9  1  1  8  0.0000000  0 11G 1G 3G10G11G12G21G22G25G26G31G32
  21779161.97648 114450281.23648      -178.84448        46.410    21779165.22146
  89182053.62746      -139.36346        41.334
  23447269.33145 123216230.40645      3178.70745        40.525    23447272.08349
  96012664.11549      2476.91049        49.933
  23353734.64647 122724718.20447     -3062.16447        44.351    23353736.96844
  95629679.54144     -2386.10544        38.603
  23488242.24546 123431539.63546     -2534.57046        42.976    23488242.51241
  96180421.53941     -1974.99241        32.026
  24721579.93345 129912771.07145     -1261.09845        41.003    24721579.07347
 101230732.63147      -982.67647        45.270
  23511614.21046 123554363.87446     -3010.13346        42.931    23511614.08942
  96276142.07842     -2345.56242        33.579
  22076283.85648 116011676.48848      2329.16448        47.730    22076281.21045
  90398712.29245      1814.93045        40.926
  23298206.33946 122432905.53746       215.96146        42.039    23298209.26749
  95402284.48049       168.27749        48.598
  24434962.40045 128406607.35445      3339.94545        40.439    24434966.78242
 100057113.77542      2602.55142        33.857
  20152638.03949 105902901.24449       639.50049        49.818    20152636.74447
  82521766.43347       498.30947        45.467
  21328121.82849 112080119.39049     -1697.15649        49.009    21328124.35646
  87335174.72246     -1322.46146        43.063
 20  9  1  1  8 30.0000000  0 11G 1G 3G10G11G12G21G22G25G26G31G32
  21780241.36448 114455953.46848      -199.53148        46.898    21780244.74046
  89186473.55146      -155.48046        41.232
  23429134.10146 123120930.70146      3175.04746        41.957    23429137.00149
  95938404.64649      2474.05949        49.272
  23371239.08747 122816702.49547     -3070.21547        44.614    23371241.06744
  95701355.60744     -2392.37944        36.808
  23502737.96646 123507714.92946     -2543.80146        41.945    23502738.10843
  96239778.91943     -1982.18843        35.901
  24728830.24445 129950871.90745     -1279.05145        40.654    24728829.41848
 101260421.61748      -996.66848        45.991
  23528811.25046 123644734.05646     -3014.21946        42.599    23528810.54442
  96346560.38242     -2348.74642        32.975
  22063011.86749 115941930.80349      2320.56649        47.994    22063008.87145
  90344365.01245      1808.23045        39.604
  23297029.69646 122426722.18646       196.33646        41.910    23297032.68849
  95397466.31949       152.98449        48.975
  24415891.77345 128306390.46145      3341.16045        39.753    24415895.72542
  99979022.73942      2603.50042        32.379
  20149044.66249 105884018.45249       619.36349        49.589    20149043.40848
  82507052.57848       482.61748        45.733
  21337827.77249 112131124.23049     -1703.26249        49.087    21337829.99646
  87374918.76246     -1327.21946        42.610
 20  9  1  1  9  0.0000000  0 11G 1G 3G10G11G12G21G22G25G26G31G32
  21781438.79848 114462244.47448      -220.04748        47.040    21781441.95545
  89191375.62945      -171.46945        40.688
  23411019.24546 123025736.70746      3171.36346        42.752    23411022.40749
  95864227.56549      2471.18849        48.985
  23388789.46746 122908929.66946     -3078.30946        43.115    23388791.29443
  95773220.94843     -2398.68443        36.540
  23517286.13746 123584166.25346     -2552.99646        42.051    23517286.63642
  96299351.31442     -1989.35242        33.277
  24736184.69745 129989521.23245     -1297.38345        39.229    24736184.39848
 101290537.97948     -1010.94948        46.297
  23546032.30946 123735230.57846     -3018.60246        42.236    23546031.81544
  96417077.09344     -2352.16044        36.886
  22049789.30648 115872445.35448      2311.88748        47.693    22049786.07245
  90290220.51045      1801.46945        40.104
  23295965.27745 122421128.64145       176.78145        40.940    23295968.23149
  95393107.70849       137.75049        49.909
  24396814.59544 128206140.10044      3342.44944        38.614    24396818.46443
  99900905.62343      2604.50843        34.832
  20145566.39049 105865740.67449       599.11749        49.433    20145565.37848
  82492810.16048       466.84048        45.704
  21347567.68249 112182307.68849     -1709.03949        49.142    21347569.82546
  87414801.97546     -1331.72346        42.236
 20  9  1  1  9 30.0000000  0 11G 1G 3G10G11G12G21G22G25G26G31G32
  21782753.76848 114469153.79448      -240.64548        47.056    21782756.96745
  89196759.51745      -187.52045        41.028
  23392925.11647 122930650.30547      3167.79347        43.412    23392927.66849
  95790134.26749      2468.40649        48.320
  23406384.95046 123001398.58546     -3086.19946        42.334    23406387.67944
  95845274.57344     -2404.83644        36.841
  23531886.31946 123660890.36746     -2562.02046        41.770    23531886.20441
  96359136.34241     -1996.38341        31.948
  24743643.49345 130028717.59245     -1315.88745        39.785    24743642.92946
 101321080.62646     -1025.37146        43.085
  23563276.76746 123825850.79446     -3022.67246        41.873    23563276.49241
  96487690.19041     -2355.33241        27.693
  22036616.52048 115803221.94348      2303.06248        47.346    22036613.44645
  90236280.20445      1794.59045        41.069
  23295013.27646 122416125.68146       156.92646        42.990    23295016.47049
  95389209.31949       122.27749        47.929
  24377731.20744 128105859.25144      3343.07444        37.050    24377735.91543
  99822764.75243      2604.98843        35.696
  20142203.28849 105848067.74349       578.97749        49.750    20142202.31047
  82479039.05547       451.14847        45.303
  21357341.48449 112233669.18649     -1715.00449        49.032    21357343.71046
  87454823.91546     -1336.37146        43.029
 20  9  1  1 10  0.0000000  0 11G 1G 3G10G11G12G21G22G25G26G31G32
  21784186.18048 114476680.87248      -261.06648        46.986    21784189.30746
  89202624.76346      -203.43046        41.202
  23374851.63046 122835673.45446      3163.79346        42.567    23374854.19449
  95716126.34249      2465.28949        49.535
  23424027.35947 123094107.95047     -3094.25447        44.618    23424029.90044
  95917515.64044     -2411.10944        38.237
  23546537.58646 123737883.92946     -2570.96546        42.659    23546537.90942
  96419131.26642     -2003.35542        34.168
  24751206.11145 130068459.83545     -1333.77345        40.011    24751205.58547
 101352048.62147     -1039.30947        44.213
  23580544.02346 123916592.14446     -3026.39846        41.515    23580543.51742
  96558397.70642     -2358.23842        33.590
  22023493.82348 115734262.43648      2294.17248        47.214    22023490.80146
  90182545.53446      1787.66446        41.279
  23294173.72545 122411714.09745       137.23445        41.054    23294176.74549
  95385771.73949       106.93449        48.825
  24358642.66644 128005550.62444      3344.04344        38.576    24358647.49243
  99744602.22843      2605.74643        35.016
  20138955.44549 105831000.02149       558.85249        49.463    20138954.41448
  82465739.54348       435.46548        45.982
  21367149.16149 112285208.05649     -1720.86749        49.066    21367151.38146
  87494984.07746     -1340.93846        43.249
 20  9  1  1 10 30.0000000  0 11G 1G 3G10G11G12G21G22G25G26G31G32
  21785736.05848 114484825.17748      -281.79348        46.885    21785739.13145
  89208970.97445      -219.58245        41.016
  23356799.33646 122740807.98746      3160.40246        43.042    23356802.08149
  95642205.24249      2462.64849        48.648
  23441715.66547 123187056.58747     -3102.34847        44.797    23441717.14443
  95989943.18943     -2417.41843        36.101
  23561239.86446 123815143.73646     -2579.77346        42.317    23561240.16742
  96479333.68842     -2010.21542        33.229
  24758872.63045 130108746.79045     -1351.90245        39.321    24758871.80846
 101383441.05046     -1053.43446        42.457
  23597834.28346 124007452.06546     -3030.63746        42.345    23597833.86244
  96629197.61544     -2361.53944        37.048
  22010421.78748 115665569.05048      2285.31648        47.392    22010418.95845
  90129018.22745      1780.76245        40.914
  23293446.41745 122407894.69345       117.23045        40.171    23293449.98449
  95382795.59849        91.34449        49.711
  24339550.14344 127905217.30144      3344.86344        38.711    24339554.41943
  99666420.44243      2606.38343        36.638
  20135822.80249 105814537.46249       538.63349        49.777    20135821.68448
  82452911.57648       419.71148        45.578
  21376990.37549 112336923.71149     -1726.78549        49.111    21376992.51346
  87535281.98346     -1345.55146        42.812
 20  9  1  1 11  0.0000000  0 11G 1G 3G10G11G12G21G22G25G26G31G32
  21787403.13948 114493586.10848      -302.18448        46.683    21787406.01946
  89215797.67246      -235.47346        41.348
  23338768.21345 122646055.90445      3156.66845        40.369    23338771.07949
  95568372.46949      2459.73849        48.232
  23459448.23046 123280243.30146     -3110.00846        42.841    23459450.18344
  96062556.19044     -2423.38744        36.744
  23575992.12246 123892666.61446     -2588.53146        42.442    23575992.42142
  96539741.06042     -2017.04342        33.977
  24766642.41745 130149577.37945     -1370.25845        38.993    24766641.42946
 101415257.11646     -1067.73846        42.815
  23615146.18145 124098428.00045     -3034.46145        40.594    23615146.08443
  96700087.87743     -2364.52043        34.818
  21997400.82748 115597143.73848      2276.32048        47.523    21997398.06545
  90075699.82945      1773.75445        40.795
  23292832.09046 122404668.22946        97.98446        41.541    23292835.88649
  95380281.48149        76.34849        48.645
  24320453.51945 127804862.03345      3345.43045        39.753    24320457.84943
  99588221.59843      2606.82843        35.637
  20132805.23049 105798679.67849       518.55549        49.756    20132804.07548
  82440554.87848       404.06648        45.639
  21386865.04149 112388815.56149     -1732.70349        48.964    21386867.22646
  87575717.18646     -1350.16046        42.939
 20  9  1  1 11 30.0000000  0 11G 1G 3G10G11G12G21G22G25G26G31G32
  21789187.52848 114502963.09348      -322.75848        47.117    21789190.13645
  89223104.41145      -251.50445        40.727
  23320759.33646 122551419.09146      3152.67646        42.782    23320762.09649
  95494629.54449      2456.62949        49.327
  23477225.53746 123373666.99746     -3117.90246        43.010    23477228.72344
  96135353.78944     -2429.54344        37.166
  23590793.81046 123970449.24146     -2596.91446        41.397    23590793.68141
  96600350.87641     -2023.57441        32.222
  24774515.40444 130190950.31244     -1388.19544        38.175    24774514.46346
 101447495.80546     -1081.71546        41.836
  23632479.54046 124189517.25746     -3037.96146        41.321    23632479.38341
  96771066.48941     -2367.24641        30.880
  21984431.27849 115528988.05549      2267.34449        47.815    21984428.17145
  90022591.50945      1766.75845        41.017
  23292331.45646 122402035.49046        77.80946        41.617    23292334.97149
  95378230.00049        60.62549        49.578
  24301352.90045 127704487.68645      3345.94545        39.694    24301357.54344
  99510007.90144      2607.23044        36.764
  20129902.71449 105783426.52749       498.38349        49.714    20129901.38248
  82428669.30248       388.34848        45.902
  21396773.16349 112440882.99449     -1738.40249        49.080    21396775.38546
  87616289.19646     -1354.60246        42.843
 20  9  1  1 12  0.0000000  0 11G 1G 3G10G11G12G21G22G25G26G31G32
  21791089.00948 114512955.47048      -343.29348        46.972    21791091.43545
  89230890.69045      -267.50445        40.601
  23302773.35646 122456899.62246      3148.69546        42.958    23302776.06849
  95420978.03249      2453.52749        49.879
  23495048.62347 123467326.28447     -3125.64547        44.101    23495051.28444
  96208335.06244     -2435.57044        36.942
  23605643.54946 124048488.40746     -2605.60246        41.294    23605644.02941
  96661160.53741     -2030.34441        28.869
  24782491.11544 130232864.11144     -1405.99244        37.843    24782490.27147
 101480155.92547     -1095.58247        44.026
  23649834.51546 124280717.17946     -3041.95746        42.317    23649834.39741
  96842131.30341     -2370.35941        31.976
  21971513.53349 115461104.54549      2258.14149        47.841    21971510.38145
  89969695.27345      1759.58645        40.532
  23291944.13646 122399997.14546        58.08646        41.281    23291947.11749
  95376641.68749        45.25849        49.100
  24282249.08544 127604097.17044      3346.48444        37.318    24282253.32742
  99431781.59442      2607.65242        33.236
  20127115.26949 105768778.17349       478.19949        49.846    20127113.75048
  82417255.01548       372.62148        45.890
  21406714.73549 112493125.41649     -1744.24249        49.155    21406716.75446
  87656997.57346     -1359.15246        42.642
 20  9  1  1 12 30.0000000  0 11G 1G 3G10G11G12G21G22G25G26G31G32
  21793107.34548 114523562.64848      -363.91048        46.357    21793109.83846
  89239156.02146      -283.57046        41.165
  23284809.77547 122362499.29847      3144.81247        43.592    23284812.29946
  95347419.37346      2450.50046        43.292
  23512916.42747 123561220.00647     -3133.86347        43.829    23512918.39944
  96281499.01844     -2441.97344        37.055
  23620542.33746 124126780.86546     -2614.08246        42.467    23620542.64542
  96722167.67742     -2036.94942        32.674
  24790569.74744 130275317.49744     -1424.21544        38.559    24790569.07046
 101513236.52846     -1109.78146        42.069
  23667210.43346 124372025.03746     -3045.36746        43.140    23667209.68741
  96913280.23741     -2373.01641        31.549
  21958647.88748 115393495.10448      2248.89848        47.659    21958644.89146
  89917012.60846      1752.38746        41.270
  23291669.22245 122398553.88445        38.44945        40.784    23291671.98849
  95375517.07349        29.95749        49.313
  24263143.03245 127503693.43645      3346.94145        39.683    24263147.25542
  99353544.95742      2608.00442        33.774
  20124442.76049 105754734.26249       458.00049        49.718    20124441.25048
  82406311.71248       356.87948        45.789
  21416689.36949 112545542.28849     -1750.19549        48.939    21416691.23046
  87697841.88446     -1363.79346        42.735
 20  9  1  1 13  0.0000000  0 11G 1G 3G10G11G12G21G22G25G26G31G32
  21795242.48048 114534783.85948      -384.34048        46.696    21795245.05545
  89247899.82345      -299.48845        40.566
  23266869.16547 122268220.15847      3140.58247        43.590    23266871.35646
  95273955.14146      2447.20346        42.808
  23530828.00446 123655346.93546     -3141.26246        41.726    23530830.01644
  96354844.65644     -2447.73844        37.744
  23635488.61446 124205323.29446     -2622.31646        41.884    23635488.91242
  96783369.50442     -2043.36742        33.914
  24798750.85844 130318309.84744     -1442.10244        38.552    24798750.02745
 101546737.08245     -1123.71945        40.987
  23684606.25846 124463438.30246     -3048.73446        41.230    23684604.97541
  96984511.37441     -2375.64141        31.781
  21945834.62448 115326161.31348      2239.85948        47.381    21945831.90045
  89864544.73345      1745.34045        41.072
  23291507.84046 122397706.31646        18.27046        42.038    23291510.63948
  95374856.66448        14.23448        47.718
  24244035.33045 127403279.40945      3347.26245        40.654    24244039.40944
  99275300.32244      2608.25844        37.296
  20121885.31749 105741294.71749       437.91449        49.839    20121883.79048
  82395839.34848       341.23048        45.921
  21426697.05149 112598132.97449     -1756.00049        49.091    21426698.85746
  87738821.64346     -1368.31646        43.085
 20  9  1  1 13 30.0000000  0 11G 1G 3G10G11G12G21G22G25G26G31G32
  21797494.60748 114546618.42748      -404.71548        46.975    21797496.80445
  89257121.56245      -315.36745        39.894
  23248951.89646 122174064.13746      3136.39846        42.288    23248953.90745
  95200586.82945      2443.94545        38.900
  23548783.59646 123749705.88546     -3149.20746        43.094    23548786.11544
  96428371.04844     -2453.93444        38.284
  23650481.85546 124284112.40946     -2630.28546        41.854    23650481.96341
  96844763.56841     -2049.57441        30.607
  24807034.28744 130361839.78144     -1459.98044        37.569    24807033.42946
 101580656.51346     -1137.61746        41.871
  23702021.07646 124554954.32746     -3052.19546        42.391    23702019.94442
  97055822.47142     -2378.34042        33.785
  21933074.24448 115259105.58448      2230.39548        47.747    21933071.79746
  89812293.53246      1737.96546        41.252
  23291460.26846 122397455.14246        -2.02046        41.350    23291462.64149
  95374660.93849        -1.57849        48.748
  24224925.28845 127302857.81345      3347.46145        38.889    24224928.94442
  99197049.76642      2608.40642        33.074
  20119442.81849 105728459.46749       417.74649        49.601    20119441.31548
  82385837.85648       325.51248        45.703
  21436737.76549 112650896.87849     -1761.59449        49.290    21436739.59746
  87779936.36646     -1372.67246        42.666
 20  9  1  1 14  0.0000000  0 11G 1G 3G10G11G12G21G22G25G26G31G32
  21799863.26448 114559065.64248      -425.04348        46.990    21799865.31845
  89266820.69845      -331.20745        40.790
  23231057.74545 122080033.21145      3132.35545        40.810    23231060.26843
  95127316.01243      2440.79343        35.084
  23566783.84747 123844295.41447     -3156.74647        43.978    23566786.19044
  96502077.19144     -2459.80544        38.289
  23665521.03345 124363145.01745     -2638.45745        40.150    23665521.17343
  96906347.40443     -2055.94943        34.690
  24815419.52844 130405905.52444     -1477.52744        37.016    24815418.97847
 101614993.47447     -1151.55947        43.539
  23719455.24046 124646570.45046     -3055.73446        42.036    23719454.11441
  97127211.59841     -2381.09841        31.301
  21920367.25748 115192329.87948      2221.27748        47.749    21920364.80146
  89760260.52846      1730.86346        41.671
  23291526.13746 122397800.87046       -21.59446        41.872    23291527.86748
  95374930.34748       -16.82848        47.652
  24205814.56245 127202431.75845      3347.65645        40.540    24205818.07143
  99118795.75043      2608.55943        34.674
  20117115.16649 105716227.99249       397.69149        49.812    20117113.68948
  82376306.84248       309.88748        45.706
  21446811.34249 112703833.43649     -1767.50849        48.957    21446813.13646
  87821185.63746     -1377.28146        42.744
 20  9  1  1 14 30.0000000  0 11G 1G 3G10G11G12G21G22G25G26G31G32
  21802348.27848 114572124.70248      -445.45748        46.712    21802350.68545
  89276996.59645      -347.11345        40.950
  23213187.81146 121986129.35246      3127.85546        41.998    23213191.44644
  95054144.26244      2437.28544        38.038
  23584827.45346 123939114.47846     -3164.52046        42.575    23584829.66843
  96575962.16643     -2465.86343        35.127
  23680605.50245 124442418.01645     -2646.51245        39.911    23680606.54044
  96968118.53044     -2062.21944        36.825
  24823906.34844 130450505.62444     -1495.47344        37.127    24823906.30646
 101649746.81546     -1165.31646        43.130
  23736907.97146 124738284.24546     -3058.71946        42.323    23736906.46542
  97198676.90842     -2383.42242        33.379
  21907714.05549 115125836.04049      2211.67649        47.933    21907711.46146
  89708447.15446      1723.37946        41.486
  23291705.50945 122398744.14945       -41.57045        40.676    23291707.41949
  95375665.38649       -32.39549        49.270
  24186703.90745 127102004.11645      3347.73045        39.228    24186707.49643
  99040540.51743      2608.61743        34.532
  20114902.46649 105704600.20049       377.59849        49.679    20114900.92248
  82367246.23348       294.23048        45.820
  21456917.46749 112756942.10049     -1773.15649        49.056    21456919.33846
  87862569.01046     -1381.68446        42.668
 20  9  1  1 15  0.0000000  0 11G 1G 3G10G11G12G21G22G25G26G31G32
  21804949.60148 114585794.82648      -465.94548        46.388    21804952.33846
  89287648.65346      -363.07846        41.234
  23195343.36246 121892354.60046      3123.80946        43.054    23195346.70045
  94981073.04745      2434.13345        39.231
  23602914.18046 124034161.70846     -3172.06646        43.202    23602916.08144
  96650024.91744     -2471.74244        37.535
  23695736.19746 124521927.97346     -2654.26246        41.938    23695736.97543
  97030074.26343     -2068.26243        35.262
  24832495.18044 130495639.35944     -1513.22744        37.917    24832495.13646
 101684915.98846     -1179.14146        42.098
  23754378.62046 124830092.99146     -3061.81246        42.737    23754377.30943
  97270216.12643     -2385.83243        36.075
  21895114.80649 115059626.05049      2202.22749        47.794    21895112.07746
  89656854.96046      1716.01646        41.667
  23291998.67346 122400285.54046       -61.33246        41.225    23292001.10249
  95376866.47549       -47.79349        48.948
  24167593.24044 127001577.75144      3347.25844        38.799    24167596.46441
  98962286.25341      2608.25441        31.620
  20112804.53849 105693575.68449       357.40249        49.738    20112803.05248
  82358655.70248       278.49248        45.573
  21467056.19549 112810222.28649     -1778.76649        48.641    21467058.10046
  87904086.04246     -1386.05546        42.242
 20  9  1  1 15 30.0000000  0 11G 1G 3G10G11G12G21G22G25G26G31G32
  21807666.90748 114600075.18048      -486.13348        46.448    21807669.68846
  89298776.20046      -378.80946        41.383
  23177523.99347 121798710.96947      3119.27347        43.438    23177526.82045
  94908104.02545      2430.59845        39.239
  23621044.24646 124129435.80646     -3179.57446        42.924    23621046.05244
  96724264.47744     -2477.59444        37.732
  23710911.43246 124601671.58046     -2661.94146        42.254    23710911.62241
  97092212.11541     -2074.24241        30.049
  24841185.30044 130541304.89944     -1531.14544        38.887    24841184.70246
 101720499.55446     -1193.10246        41.174
  23771866.67045 124921994.05045     -3064.94545        40.545    23771865.91343
  97341827.31543     -2388.27343        35.676
  21882569.87949 114993702.05749      2192.72349        47.927    21882566.98946
  89605485.62446      1708.61346        41.716
  23292405.84246 122402425.52646       -81.67646        41.141    23292408.61149
  95378534.02349       -63.64849        49.215
  24148483.58845 126901155.60745      3347.37945        39.060    24148486.49944
  98884035.26144      2608.34444        37.218
  20110821.37749 105683154.40649       337.26249        49.635    20110819.94248
  82350535.23448       262.79748        45.798
  21477227.47049 112863673.42749     -1784.56649        48.856    21477229.52846
  87945736.27446     -1390.57446        42.209
 20  9  1  1 16  0.0000000  0 11G 1G 3G10G11G12G21G22G25G26G31G32
  21810500.27248 114614964.95048      -506.48448        46.462    21810503.34046
  89310378.61646      -394.66846        41.153
  23159729.95347 121705200.42947      3114.75447        44.552    23159732.40244
  94835238.68244      2427.07844        38.692
  23639216.87246 124224935.56146     -3187.25846        42.592    23639218.86343
  96798679.83343     -2483.58243        36.425
  23726130.05046 124681645.60246     -2669.50046        42.460    23726129.82741
  97154529.49341     -2080.13341        30.704
  24849976.16944 130587500.87344     -1548.91044        37.338    24849975.67347
 101756496.44447     -1206.94547        43.672
  23789371.52746 125013985.17446     -3067.61746        42.350    23789370.96442
  97413508.66442     -2390.35542        32.586
  21870079.67648 114928066.09248      2182.99248        47.632    21870076.60846
  89554340.73946      1701.03146        41.408
  23292927.37946 122405164.60646      -101.32446        41.938    23292929.58649
  95380668.38249       -78.95749        47.875
  24129375.50845 126800719.69845      3347.01645        40.224    24129378.75344
  98805769.97144      2608.06244        37.050
  20108952.88549 105673335.72749       317.23049        49.594    20108951.47647
  82342884.32847       247.18847        45.345
  21487431.19349 112917295.00549     -1790.19549        48.441    21487433.51946
  87987519.31446     -1394.96146        42.604
 20  9  1  1 16 30.0000000  0 11G 1G 3G10G11G12G21G22G25G26G31G32
  21813449.50348 114630463.25048      -526.85548        46.816    21813452.60345
  89322455.22345      -410.53945        40.445
  23141961.47146 121611825.00446      3110.14146        43.101    23141963.51444
  94762478.63744      2423.48444        38.614
  23657432.54046 124320659.65546     -3194.63746        41.885    23657434.64944
  96873270.02444     -2489.33244        38.309
  23741391.90646 124761846.77046     -2677.28146        41.901    23741391.63041
  97217023.93941     -2086.19141        29.830
  24858867.31144 130634226.06944     -1566.70744        37.764    24858867.26046
 101792905.70646     -1220.81246        41.915
  23806893.39345 125106063.51545     -3070.61745        40.798    23806893.03542
  97485257.98442     -2392.69542        34.319
  21857644.73049 114862720.13349      2173.37949        47.913    21857641.59045
  89503421.81645      1693.53945        40.960
  23293562.85546 122408503.20546      -121.32046        41.305    23293564.33248
  95383269.90348       -94.53948        47.382
  24110270.48046 126700314.99346      3346.43846        42.467    24110272.41644
  98727532.51444      2607.60944        36.844
  20107199.01249 105664119.39449       297.22749        49.767    20107197.57848
  82335702.77748       231.60248        45.705
  21497667.30349 112971086.40449     -1795.97749        48.672    21497669.81846
  88029434.70346     -1399.46546        42.638
 20  9  1  1 17  0.0000000  0 11G 1G 3G10G11G12G21G22G25G26G31G32
  21816514.35348 114646569.18348      -547.09048        46.138    21816517.42745
  89335005.29345      -426.30945        41.012
  23124218.29946 121518586.63046      3105.78146        41.860    23124220.35844
  94689825.41244      2420.08644        37.664
  23675690.59046 124416606.81546     -3202.22746        42.562    23675692.93244
  96948034.02144     -2495.24644        37.118
  23756696.42446 124842271.61046     -2684.37946        42.099    23756695.53641
  97279692.61241     -2091.72741        28.796
  24867858.98344 130681478.63744     -1583.71144        37.520    24867858.87446
 101829725.93146     -1234.06246        41.559
  23824431.46146 125198226.04746     -3073.45346        42.282    23824431.33241
  97557072.91741     -2394.90241        31.768
  21845265.44649 114797666.19749      2163.59849        48.237    21845262.32045
  89452730.45145      1685.91845        40.769
  23294312.12746 122412441.81046      -141.49246        42.194    23294313.61448
  95386338.95748      -110.25848        47.140
  24091165.88845 126599923.37345      3346.22745        39.057    24091168.93542
  98649305.29742      2607.44542        33.860
  20105559.71249 105655505.05049       277.13749        49.535    20105558.08948
  82328990.30648       215.94948        45.723
  21507935.60149 113025047.12649     -1801.57049        48.658    21507938.13746
  88071482.00646     -1403.82446        42.592
 20  9  1  1 17 30.0000000  0 11G 1G 3G10G11G12G21G22G25G26G31G32
  21819694.70348 114663281.81048      -567.29748        46.735    21819697.92946
  89348028.12146      -442.05146        41.112
  23106501.83346 121425487.46946      3100.91446        42.848    23106504.04844
  94617280.64444      2416.29344        37.823
  23693990.96846 124512775.71746     -3209.21146        42.574    23693993.24044
  97022970.83444     -2500.68844        36.805
  23772042.51645 124922917.10545     -2691.66845        39.968    23772041.71743
  97342533.18143     -2097.41043        35.392
  24876951.16044 130729257.45844     -1601.36744        37.129    24876951.03146
 101866956.20446     -1247.82046        41.963
  23841985.08045 125290470.54045     -3076.26245        40.919    23841985.16842
  97628951.69342     -2397.09042        33.902
  21832942.17449 114732906.21849      2153.71549        47.946    21832938.77946
  89402268.14046      1678.21546        41.585
  23295175.90845 122416980.83045      -161.29745        40.684    23295177.44749
  95389875.86249      -125.68849        49.140
  24072064.09145 126499547.80845      3345.56245        39.878    24072068.05843
  98571090.62643      2606.93043        35.205
  20104034.83149 105647492.30149       257.10249        49.375    20104033.17148
  82322746.60848       200.33648        45.637
  21518236.09249 113079176.62649     -1807.13749        48.842    21518238.58246
  88113660.84246     -1408.16046        42.347
 20  9  1  1 18  0.0000000  0 11G 1G 3G10G11G12G21G22G25G26G31G32
  21822990.45548 114680600.19148      -587.40648        46.746    21822993.62445
  89361522.96045      -457.72345        40.991
  23088812.39146 121332529.53846      3096.23446        42.873    23088814.72544
  94544845.92544      2412.64844        38.272
  23712333.09845 124609165.10445     -3216.58245        40.400    23712335.68244
  97098079.44044     -2506.43044        36.863
  23787429.63045 125003779.93045     -2699.10245        39.744    23787429.70542
  97405543.13742     -2103.19942        34.320
  24886143.19543 130777561.28143     -1618.62943        36.200    24886142.88346
 101904595.57746     -1261.27346        42.802
  23859553.81445 125382794.35245     -3078.73445        40.557    23859553.94342
  97700892.35042     -2399.01642        33.162
  21820675.07449 114668442.32449      2143.82049        47.889    21820671.77946
  89352036.54546      1670.50846        41.530
  23296153.56546 122422120.57346      -181.56246        41.386    23296155.49348
  95393880.89748      -141.48048        47.665
  24052966.93545 126399191.32045      3344.78545        39.967    24052971.20343
  98492890.82743      2606.32443        35.208
  20102624.43649 105640080.64049       237.00849        49.709    20102622.78548
  82316971.29148       184.68048        45.632
  21528568.74949 113133474.36049     -1812.82049        48.862    21528571.10546
  88155970.76546     -1412.59046        42.003
 20  9  1  1 18 30.0000000  0 11G 1G 3G10G11G12G21G22G25G26G31G32
  21826401.42848 114698523.34948      -607.49648        47.414    21826403.96945
  89375489.06845      -473.37545        40.402
  23071150.32147 121239714.83947      3091.14547        43.555    23071152.75244
  94472522.80644      2408.68044        37.199
  23730716.93246 124705773.55246     -3223.68446        41.403    23730720.04644
  97173358.68944     -2511.96544        38.587
  23802857.73545 125084856.96445     -2706.41045        40.219    23802858.31741
  97468720.03341     -2108.89541        29.758
  24895434.65644 130826388.25144     -1636.40244        37.284    24895434.18545
 101942642.59045     -1275.12145        39.951
  23877136.46545 125475194.97545     -3081.25445        39.529    23877137.26843
  97772892.75843     -2400.98043        34.554
  21808464.65149 114604276.36449      2133.77749        48.110    21808461.53546
  89302037.11446      1662.68046        41.540
  23297246.04046 122427861.49346      -201.46146        41.287    23297248.23849
  95398354.35349      -156.98449        48.270
  24033873.81645 126298856.87445      3344.22745        39.322    24033878.05044
  98414708.18244      2605.88744        37.272
  20101328.41149 105633270.06549       217.00049        49.619    20101326.88647
  82311664.35647       169.08647        45.550
  21538933.28549 113187939.77549     -1818.27349        48.628    21538935.67846
  88198411.34346     -1416.84046        42.611
 20  9  1  1 19  0.0000000  0 11G 1G 3G10G11G12G21G22G25G26G31G32
  21829927.10548 114717050.27448      -627.59048        47.208    21829929.32645
  89389925.64545      -489.03545        40.209
  23053516.10846 121147045.43546      3086.59046        43.096    23053518.09145
  94400312.88245      2405.13345        39.406
  23749142.80046 124802599.82746     -3231.37546        43.175    23749145.45043
  97248807.70643     -2517.95743        36.076
  23818326.31445 125166144.88045     -2712.71945        40.395    23818327.50142
  97532061.17442     -2113.80942        33.450
  24904825.38243 130875736.98143     -1654.03143        36.086    24904825.28345
 101981096.20345     -1288.85945        39.601
  23894733.99545 125567669.52745     -3083.57045        40.856    23894734.65143
  97844950.81843     -2402.78543        34.612
  21796311.27649 114540410.36449      2123.88749        48.336    21796308.21446
  89252271.41946      1654.97346        41.642
  23298453.43346 122434203.87946      -221.44946        42.788    23298455.60249
  95403296.48049      -172.56249        47.972
  24014785.62445 126198547.50245      3343.14545        39.830    24014790.05144
  98336545.06544      2605.04344        37.793
  20100146.55449 105627059.63649       197.00849        49.416    20100145.19948
  82306825.07048       153.50848        45.866
  21549329.51349 113242572.34649     -1823.81649        48.808    21549331.79346
  88240982.16846     -1421.16046        42.075
 20  9  1  1 19 30.0000000  0 11G 1G 3G10G11G12G21G22G25G26G31G32
  21833567.31648 114736179.93948      -647.67648        46.808    21833569.40045
  89404831.87045      -504.68845        40.407
  23035909.63646 121054523.38446      3081.52046        42.019    23035912.01245
  94328217.80845      2401.18045        39.965
  23767609.84346 124899642.48046     -3238.41446        42.987    23767611.57743
  97324425.39343     -2523.44143        36.589
  23833834.68846 125247640.20546     -2719.87146        41.873    23833835.51942
  97595563.98142     -2119.38342        34.149
  24914314.08742 130925607.75642     -1670.21942        33.069    24914313.90047
 102019956.97847     -1301.47747        44.222
  23912345.10946 125660215.46746     -3085.90646        41.487    23912345.58341
  97917064.51841     -2404.60541        31.031
  21784215.48049 114476846.63349      2113.77749        48.021    21784212.63446
  89202741.24946      1647.09846        42.033
  23299775.15146 122441148.01446      -241.71146        41.916    23299777.33549
  95408707.50149      -188.34849        48.373
  23995701.92645 126098265.96245      3341.81645        39.852    23995707.31543
  98258403.78543      2604.01243        35.225
  20099078.89249 105621448.95649       176.96949        49.653    20099077.56348
  82302453.11448       137.89548        45.621
  21559757.53749 113297371.54449     -1829.41849        48.840    21559759.59146
  88283682.85346     -1425.52346        41.903
 20  9  1  1 20  0.0000000  0 11G 1G 3G10G11G12G21G22G25G26G31G32
  21837321.99548 114755911.31248      -667.75448        46.603    21837323.90045
  89420206.95445      -520.33245        40.940
  23018331.57946 120962150.74446      3076.47346        43.003    23018334.19044
  94256239.16844      2397.25044        38.871
  23786117.38646 124996900.33446     -3245.62946        42.868    23786119.56944
  97400210.68144     -2529.06644        37.518
  23849381.92045 125329339.66845     -2726.75445        40.972    23849382.66144
  97659225.88644     -2124.74644        36.755
  24923904.76143 130975990.19243     -1688.65643        35.165    24923902.85946
 102059209.92546     -1315.84046        41.620
  23929968.86145 125752830.25745     -3088.11745        39.688    23929969.66443
  97989231.86143     -2406.32843        34.911
  21772177.55849 114413587.04549      2103.55549        48.000    21772174.76346
  89153448.08246      1639.12946        41.568
  23301211.29946 122448694.16246      -261.52046        41.746    23301213.35749
  95414587.64749      -203.78549        48.998
  23976625.59046 125998015.56346      3341.10946        42.037    23976629.24143
  98180286.47443      2603.45743        34.930
  20098125.34049 105616437.55449       157.03949        49.816    20098123.95348
  82298548.13348       122.36348        45.700
  21570217.22749 113352336.86949     -1834.83249        48.816    21570219.10446
  88326512.97146     -1429.74246        41.978
 20  9  1  1 20 30.0000000  0 11G 1G 3G10G11G12G21G22G25G26G31G32
  21841190.94248 114776243.24548      -687.75048        47.005    21841192.85845
  89436050.01845      -535.91445        40.322
  23000782.05646 120869929.58846      3071.55546        42.625    23000785.12044
  94184378.57044      2393.41844        38.102
  23804665.54446 125094371.96846     -3252.84046        42.089    23804668.39544
  97476162.56144     -2534.68444        37.118
  23864967.37646 125411240.26646     -2733.23846        41.762    23864967.89341
  97723044.46741     -2129.80141        30.707
  24933590.84143 131026894.47643     -1705.47343        36.110    24933590.12146
 102098875.61746     -1328.94146        42.075
  23947605.45746 125845511.40846     -3090.51646        41.276    23947606.55642
  98061450.86842     -2408.19542        33.565
  21760197.87549 114350633.04049      2093.31249        48.315    21760194.88746
  89104393.01746      1631.14846        41.349
  23302761.83646 122456842.61446      -281.77346        41.139    23302763.79649
  95420937.07749      -219.56649        48.810
  23957554.84844 125897799.12344      3340.09444        38.587    23957559.28242
  98102195.85342      2602.67242        33.410
  20097285.70149 105612024.70549       137.17249        49.754    20097284.21648
  82295109.55048       106.88348        45.701
  21580708.26949 113407467.81349     -1840.62549        48.606    21580710.08646
  88369472.14846     -1434.25846        41.795
 20  9  1  1 21  0.0000000  0 11G 1G 3G10G11G12G21G22G25G26G31G32
  21845174.05248 114797174.64348      -707.67648        46.935    21845176.19145
  89452360.19945      -551.43845        40.246
  22983262.59747 120777862.06347      3066.36347        43.554    22983265.27544
  94112637.66144      2389.37144        38.386
  23823254.25746 125192055.95346     -3259.73046        42.543    23823256.95744
  97552279.94044     -2540.05544        36.702
  23880590.28946 125493338.49246     -2739.90246        41.342    23880590.72543
  97787017.11443     -2134.99243        34.897
  24943375.87343 131078314.00043     -1722.47743        36.017    24943374.39445
 102138942.76745     -1342.19145        39.559
  23965254.30345 125938256.15545     -3092.35945        40.381    23965255.29141
  98133719.46841     -2409.63341        32.077
  21748276.77549 114287987.02449      2083.00049        48.032    21748273.53246
  89055577.94346      1623.11346        41.140
  23304427.04446 122465593.55246      -301.76646        41.776    23304428.84149
  95427756.00949      -235.14549        48.070
  23938490.95644 125797619.61344      3338.37544        37.108    23938494.89343
  98024133.89543      2601.32843        34.516
  20096559.87849 105608210.04049       117.09849        49.760    20096558.31248
  82292137.08748        91.24248        45.792
  21591230.74449 113462763.85649     -1846.00449        48.463    21591232.64846
  88412559.97646     -1438.44946        42.636
 20  9  1  1 21 30.0000000  0 11G 1G 3G10G11G12G21G22G25G26G31G32
  21849270.91748 114818704.44348      -727.51248        46.526    21849273.23345
  89469136.66345      -566.89545        40.425
  22965772.43947 120685950.23047      3061.07047        43.689    22965774.90445
  94041018.07145      2385.24645        39.275
  23841883.11546 125289951.10446     -3266.76646        42.993    23841885.41543
  97628561.89843     -2545.53543        35.842
  23896250.20145 125575631.00045     -2746.43445        40.697    23896250.23841
  97851141.11141     -2140.08241        31.782
  24953258.30343 131130247.56743     -1739.81243        35.548    24953257.26845
 102179410.51745     -1355.68845        40.317
  23982914.73846 126031061.88346     -3094.35946        41.217    23982915.44741
  98206035.58541     -2411.19141        31.215
  21736414.63749 114225651.27549      2072.72349        47.929    21736411.31146
  89007004.63046      1615.10546        41.346
  23306207.11646 122474947.13346      -321.71946        42.209    23306208.53548
  95435044.52348      -250.69148        47.745
  23919435.06646 125697480.10546      3337.36746        41.335    23919439.63844
  97946103.20044      2600.54344        38.556
  20095947.63049 105604992.78749        97.29349        49.562    20095946.07448
  82289630.14548        75.80948        45.826
  21601784.59949 113518224.46149     -1851.37949        48.340    21601786.33846
  88455776.03646     -1442.63746        42.111
 20  9  1  1 22  0.0000000  0 11G 1G 3G10G11G12G21G22G25G26G31G32
  21853481.46448 114840831.45548      -747.49648        46.805    21853483.84446
  89486378.48546      -582.46946        41.177
  22948312.44547 120594196.17247      3055.87147        44.152    22948314.77144
  93969521.41544      2381.19544        38.645
  23860551.71846 125388055.93646     -3273.68046        41.238    23860554.08444
  97705007.21744     -2550.92244        36.935
  23911946.27046 125658114.63646     -2752.72746        41.736    23911945.95841
  97915414.04641     -2144.98441        26.132
  24963237.70643 131182693.33343     -1756.23443        35.270    24963236.53246
 102220280.38546     -1368.59446        42.466
  24000586.36645 126123925.96945     -3096.16845        39.971    24000586.69043
  98278397.18743     -2412.60543        35.375
  21724611.70548 114163627.42648      2062.33648        47.683    21724608.56346
  88958674.36646      1607.01246        41.720
  23308101.54546 122484903.54346      -341.93846        41.553    23308103.31049
  95442802.78749      -266.44949        48.648
  23900387.96046 125597383.70546      3335.87146        41.244    23900391.67641
  97868106.00041      2599.37541        31.012
  20095448.92249 105602372.32049        77.36349        49.676    20095447.39248
  82287588.22848        60.28148        45.607
  21612369.52249 113573849.16549     -1856.86749        48.276    21612371.22346
  88499119.96446     -1446.91446        41.858
 20  9  1  1 22 30.0000000  0 11G 1G 3G10G11G12G21G22G25G26G31G32
  21857805.65248 114863554.42848      -767.34848        46.966    21857807.95345
  89504084.69845      -597.93845        40.814
  22930882.53947 120502602.03747      3050.33247        43.836    22930884.83245
  93898149.38845      2376.87945        38.918
  23879259.57946 125486369.18346     -3280.35246        41.615    23879262.56342
  97781614.87342     -2556.12542        34.057
  23927678.02745 125740786.08245     -2758.58245        40.668    23927677.22842
  97979833.35042     -2149.54742        32.329
  24973314.44543 131235649.44443     -1773.67643        35.890    24973314.65944
 102261544.92544     -1382.10944        37.391
  24018268.49745 126216845.77145     -3098.04745        40.210    24018268.99342
  98350802.18142     -2414.06642        33.014
  21712868.55948 114101917.74948      2051.60548        47.666    21712865.77646
  88910588.91546      1598.65246        42.258
  23310110.63946 122495462.96746      -362.12546        41.290    23310113.05149
  95451030.91049      -282.18049        49.402
  23881349.26045 125497333.33845      3334.14145        40.749    23881352.43244
  97790144.66244      2598.02744        38.240
  20095063.73649 105600348.12649        57.51649        49.833    20095062.25048
  82286010.93548        44.81248        45.620
  21622985.73649 113629637.45349     -1862.40249        48.728    21622987.54146
  88542591.35346     -1451.22746        41.963
 20  9  1  1 23  0.0000000  0 11G 1G 3G10G11G12G21G22G25G26G31G32
  21862243.06848 114886872.21948      -787.20348        47.137    21862245.29446
  89522254.39746      -613.41046        41.301
  22913483.36646 120411169.91346      3045.14546        42.695    22913486.04145
  93826903.58145      2372.83645        39.355
  23898007.54047 125584889.32547     -3287.67247        43.352    23898010.55343
  97858383.82143     -2561.82443        35.101
  23943444.71445 125823642.52545     -2764.87145        39.125    23943444.07141
  98044396.79241     -2154.44941        30.687
  24983489.26743 131289114.41943     -1790.96543        36.403    24983487.69644
 102303205.91244     -1395.36744        37.535
  24035960.65145 126309819.07745     -3100.02745        39.794    24035961.06743
  98423248.88743     -2415.60943        34.540
  21701185.83349 114040524.48749      2041.02049        48.142    21701183.06746
  88862750.01646      1590.40246        42.064
  23312234.52846 122506625.43446      -381.88346        41.554    23312237.48049
  95459728.95149      -297.57449        48.587
  23862318.88845 125397331.93245      3332.53945        38.938    23862323.29044
  97712221.65044      2596.78544        36.709
  20094792.01149 105598919.68849        37.65249        49.887    20094790.41748
  82284897.87648        29.33648        45.868
  21633632.94949 113685588.83849     -1867.85949        47.984    21633634.77146
  88586189.83846     -1455.47746        41.993
 20  9  1  1 23 30.0000000  0 11G 1G 3G10G11G12G21G22G25G26G31G32
  21866793.36448 114910783.58848      -806.85548        46.773    21866795.83945
  89540886.62145      -628.72345        40.691
  22896115.22246 120319901.82646      3039.32846        43.212    22896118.46645
  93755785.63445      2368.30545        40.283
  23916794.60846 125683615.01446     -3294.28146        42.748    23916797.37143
  97935312.92843     -2566.97743        36.179
  23959246.14945 125906680.26845     -2770.70345        40.322    23959245.70041
  98109101.48641     -2158.99241        29.377
  24993761.05943 131343087.21343     -1807.43043        35.306    24993758.81145
 102345262.91445     -1408.41045        40.776
  24053662.47645 126402843.11945     -3101.36345        40.208    24053663.08741
  98495735.12541     -2416.64841        30.661
  21689563.71549 113979449.26949      2030.60949        48.362    21689560.80646
  88815158.94846      1582.28946        42.241
  23314473.54346 122518391.11646      -402.21946        41.908    23314476.39149
  95468897.02549      -313.42249        48.328
  23843299.69646 125297382.72546      3330.85246        42.607    23843303.05543
  97634339.11043      2595.46543        35.084
  20094633.47749 105598086.30049        17.76249        49.899    20094631.85048
  82284248.48848        13.83648        45.577
  21644310.93749 113741702.82849     -1873.19549        48.135    21644312.83446
  88629915.02946     -1459.63746        41.870
 20  9  1  1 24  0.0000000  0 10G 1G 3G10G11G21G22G25G26G31G32
  21871456.16248 114935287.25948      -826.61748        46.790    21871458.58945
  89559980.39245      -644.12145        40.372
  22878779.03546 120228800.01746      3033.97346        43.102    22878782.27444
  93684797.24844      2364.13344        38.726
  23935619.96646 125782544.92146     -3301.03946        41.570    23935622.94544
  98012401.11144     -2572.24244        36.910
  23975081.96146 125989896.12746     -2776.62546        41.536    23975081.36042
  98173944.99642     -2163.60542        33.278
  24071373.58845 126495915.10245     -3103.26645        39.694    24071374.18742
  98568258.68842     -2418.13742        33.830
  21678002.47249 113918693.63249      2019.73449        48.457    21677999.44446
  88767816.89146      1573.81646        41.325
  23316827.42446 122530759.88246      -422.50846        41.640    23316829.26048
  95478535.04048      -329.23048        47.526
  23824290.34145 125197488.65345      3328.67645        40.869    23824293.90443
  97556499.62643      2593.77043        35.262
  20094587.96449 105597846.87549        -1.88749        49.843    20094586.33548
  82284061.92748        -1.47348        46.071
  21655019.84749 113797978.93549     -1878.66049        48.264    21655021.72946
  88673766.53846     -1463.89546        42.473
 20  9  1  1 24 30.0000000  0 10G 1G 3G10G11G21G22G25G26G31G32
  21876231.26248 114960381.95048      -846.35248        46.805    21876233.78145
  89579534.68245      -659.48045        40.855
  22861475.24347 120137866.62847      3028.18847        44.149    22861478.04044
  93613940.07344      2359.62544        38.078
  23954484.09146 125881677.59746     -3307.68446        41.722    23954487.49944
  98089647.31544     -2577.42244        37.042
  23990950.84245 126073286.91545     -2782.56645        38.993    23990950.51142
  98238924.79042     -2168.24242        32.261
  24089093.40245 126589032.57245     -3104.53945        40.595    24089093.70642
  98640817.75342     -2419.12542        34.370
  21666502.35849 113858260.27349      2009.07049        48.273    21666499.17546
  88720725.97546      1565.50846        41.804
  23319295.95046 122543731.95646      -442.39846        41.594    23319297.33349
  95488643.15749      -344.73049        47.973
  23805291.96344 125097652.77444      3327.05944        37.880    23805295.73145
  97478705.43445      2592.51245        39.442
  20094655.39149 105598200.80649       -21.69149        49.925    20094653.76748
  82284337.72048       -16.90648        46.225
  21665759.68249 113854416.68349     -1883.94949        48.254    21665761.55046
  88717744.00446     -1468.01646        41.897
 20  9  1  1 25  0.0000000  0 10G 1G 3G10G11G21G22G25G26G31G32
  21881118.77648 114986066.33948      -865.78948        46.631    21881121.49945
  89599548.48545      -674.64545        41.035
  22844203.93747 120047103.73047      3022.65247        44.573    22844206.31444
  93543215.74644      2355.30944        38.384
  23973387.22846 125981011.63846     -3314.31246        43.311    23973389.81543
  98167050.47843     -2582.58643        35.764
  24006852.32146 126156849.11446     -2788.06246        41.120    24006852.02842
  98304038.08642     -2172.52342        33.007
  24106821.42845 126682192.91145     -3106.22745        40.441    24106821.33341
  98713410.18541     -2420.44141        31.915
  21655063.95249 113798151.00649      1998.32049        48.002    21655060.68546
  88673887.58346      1557.12946        41.337
  23321879.22046 122557307.29246      -462.55146        41.601    23321880.99549
  95499221.35149      -360.43449        48.276
  23786305.41746 124997878.12946      3324.66446        42.044    23786309.15443
  97400959.06043      2590.64543        36.411
  20094835.58949 105599147.48549       -41.40649        49.881    20094833.98148
  82285075.39948       -32.27048        45.963
  21676530.08849 113911015.57749     -1889.34049        48.273    21676531.99346
  88761847.04146     -1472.21546        41.808
 20  9  1  1 25 30.0000000  0 11G 1G 3G 4G10G11G21G22G25G26G31G32
  21886118.29448 115012339.05748      -885.64548        46.830    21886121.18845
  89620020.72845      -690.11745        40.687
  22826965.55947 119956513.55447      3016.75447        44.850    22826967.21045
  93472626.00145      2350.71545        39.185
  25038033.83144 131575752.68344      2790.33644        38.274    25038035.66742
 102526572.91642      2174.28942        32.281
  23992328.28246 126080545.66046     -3321.31246        42.075    23992330.82541
  98244609.46041     -2588.03941        31.298
  24022785.79745 126240579.65445     -2793.93445        40.966    24022785.89544
  98369282.68644     -2177.09444        36.814
  24124556.97345 126775393.36345     -3107.38745        40.796    24124556.67241
  98786033.87641     -2421.34441        29.772
  21643687.39048 113738367.67348      1987.26248        47.666    21643684.39546
  88627303.18346      1548.51246        42.563
  23324577.30846 122571485.83646      -482.75846        41.999    23324579.61649
  95510269.57149      -376.18049        48.295
  23767331.61145 124898167.82045      3322.44945        40.573    23767334.81743
  97323262.70043      2588.91843        36.066
  20095128.47249 105600686.23749       -61.20749        49.932    20095126.77148
  82286274.43348       -47.69548        45.842
  21687330.97749 113967775.18749     -1894.54349        47.782    21687333.00046
  88806075.30846     -1476.27046        42.254
 20  9  1  1 26  0.0000000  0 11G 1G 3G 4G10G11G21G22G25G26G31G32
  21891229.60348 115039198.85448      -905.13348        46.286    21891232.55146
  89640950.40846      -705.30146        41.596
  22809760.30647 119866098.16947      3010.98047        44.238    22809761.81445
  93402172.45945      2346.21545        39.080
  25022108.71644 131492065.69544      2788.52744        38.524    25022111.49942
 102461362.32542      2172.86742        32.712
  24011306.91146 126180278.24646     -3327.81646        41.351    24011309.44744
  98322323.15844     -2593.10544        37.191
  24038750.27045 126324475.32445     -2799.16445        39.353    24038751.04041
  98434655.90041     -2181.17241        30.752
  24142299.90346 126868631.58546     -3108.55946        41.363    24142299.83141
  98858687.03141     -2422.25841        27.872
  21632373.35649 113678912.53549      1976.41849        48.228    21632370.40746
  88580974.51446      1540.06246        41.639
  23327390.04045 122586267.47745      -502.73445        41.108    23327392.62049
  95521787.75749      -391.74649        48.494
  23748369.38044 124798524.79044      3320.42644        38.732    23748374.31445
  97245618.92645      2587.34845        39.255
  20095533.76049 105602815.87349       -80.65249        49.885    20095531.95348
  82287933.89448       -62.84848        46.002
  21698162.41149 114024695.02649     -1900.00449        48.345    21698164.46646
  88850428.43246     -1480.52746        41.434
 20  9  1  1 26 30.0000000  0 11G 1G 3G 4G10G11G21G22G25G26G31G32
  21896452.52448 115066644.19948      -924.71148        46.963    21896455.34645
  89662336.38945      -720.55945        40.995
  22792588.02447 119775859.74547      3004.97747        44.407    22792590.07144
  93331856.84944      2341.53544        37.869
  25006193.80944 131408430.37944      2787.08244        37.415    25006195.66143
 102396191.99643      2171.75043        35.238
  24030322.64945 126280208.00145     -3334.28945        40.817    24030325.69944
  98400190.45344     -2598.15244        37.363
  24054745.64245 126408532.95045     -2804.57445        39.676    24054746.54041
  98500155.27341     -2185.39541        32.006
  24160049.40245 126961904.94745     -3109.48445        40.965    24160049.26942
  98931367.51842     -2422.97742        33.617
  21621122.21049 113619787.31449      1965.19149        48.247    21621119.09746
  88534902.92246      1531.31646        41.177
  23330317.43245 122601652.25745      -523.27745        40.394    23330320.15649
  95533775.89149      -407.75049        49.259
  23729421.21245 124698952.21245      3317.75445        40.313    23729425.63544
  97168029.91644      2585.25844        38.200
  20096051.36049 105605536.01549      -100.54749        49.888    20096049.63748
  82290053.49248       -78.35248        45.895
  21709024.30949 114081774.60449     -1905.22749        48.096    21709026.13146
  88894906.02546     -1484.59446        41.182
 20  9  1  1 27  0.0000000  0 11G 1G 3G 4G10G11G21G22G25G26G31G32
  21901786.42048 115094673.74748      -944.06648        46.702    21901788.92645
  89684177.58445      -735.64145        40.710
  22775450.21547 119685800.53047      2998.94547        43.969    22775452.69045
  93261680.83545      2336.83645        39.596
  24990288.53745 131324846.97545      2785.30145        39.046    24990290.75241
 102331062.11241      2170.35941        29.285
  24049375.79746 126380333.35146     -3340.59446        42.473    24049379.00143
  98478210.17443     -2603.06243        35.058
  24070771.54345 126492749.03245     -2809.86345        40.807    24070772.01142
  98565778.15542     -2189.51242        33.192
  24177805.06145 127055210.68245     -3110.55145        40.686    24177804.43341
  99004073.20841     -2423.81241        31.946
  21609934.41549 113560994.23649      1954.14549        48.576    21609931.09046
  88489090.14646      1522.70746        41.776
  23333359.51245 122617639.91445      -543.19945        40.815    23333362.72349
  95546233.81949      -423.27349        48.456
  23710487.61946 124599453.14346      3315.43446        42.308    23710491.88244
  97090498.22044      2583.45344        37.618
  20096681.00149 105608845.36949      -120.08649        49.781    20096679.48648
  82292632.21748       -93.57848        45.891
  21719916.45249 114139013.52149     -1910.66049        47.970    21719918.40346
  88939507.77446     -1488.82846        41.795
 20  9  1  1 27 30.0000000  0 11G 1G 3G 4G10G11G21G22G25G26G31G32
  21907231.07748 115123286.06748      -963.39148        46.703    21907233.50545
  89706472.89845      -750.69545        40.755
  22758346.71447 119595922.59647      2992.87947        43.670    22758349.48644
  93191646.12144      2332.10944        38.523
  24974393.03745 131241315.55745      2783.36745        38.961    24974394.71743
 102265972.69743      2168.91443        35.164
  24068465.89746 126480652.95746     -3347.23846        42.843    24068469.13543
  98556381.25243     -2608.24243        36.110
  24086827.08345 126577120.28945     -2815.08645        40.800    24086826.85441
  98631522.03841     -2193.57441        28.602
  24195566.49345 127148546.95645     -3111.40645        40.848    24195565.47241
  99076802.81241     -2424.47741        31.213
  21598810.15949 113502535.15749      1943.05149        48.303    21598806.70946
  88443537.63246      1514.06246        42.093
  23336516.39545 122634230.41045      -562.97745        41.108    23336519.74449
  95559161.48349      -438.68849        48.337
  23691568.32846 124500030.59946      3312.67646        41.387    23691572.20744
  97013026.14044      2581.30144        37.061
  20097422.55949 105612743.23149      -139.69549        49.548    20097421.15648
  82295669.51848      -108.85548        46.209
  21730838.79149 114196411.26749     -1915.83249        47.916    21730840.97846
  88984233.28046     -1492.85946        41.751
 20  9  1  1 28  0.0000000  0 11G 1G 3G 4G10G11G21G22G25G26G31G32
  21912786.34348 115152479.70848      -982.86748        46.539    21912788.69045
  89729221.18645      -765.87545        40.192
  22741278.45647 119506228.19447      2986.89847        44.577    22741280.97145
  93121754.40445      2327.44945        39.320
  24958507.43244 131157836.30644      2781.98444        37.063    24958509.29041
 102200923.98841      2167.78141        31.853
  24087593.09346 126581165.31146     -3353.59446        43.167    24087595.57143
  98634702.56843     -2613.19143        35.920
  24102911.26444 126661643.89444     -2819.96144        38.592    24102910.94942
  98697384.53642     -2197.37942        34.343
  24213332.87046 127241910.06246     -3112.68446        41.302    24213332.01942
  99149553.25942     -2425.47342        32.365
  21587749.70949 113444411.74449      1931.66849        48.441    21587746.25246
  88398246.66546      1505.19146        42.307
  23339788.34546 122651423.51346      -583.02046        41.718    23339790.79648
  95572558.71448      -454.30548        46.864
  23672663.39545 124400687.63745      3310.21545        40.622    23672667.61742
  96935616.10542      2579.38742        34.261
  20098275.97549 105617228.55749      -159.23849        49.466    20098274.62248
  82299164.58348      -124.08648        46.151
  21741791.30948 114253967.43048     -1921.24248        47.771    21741793.55146
  89029082.23746     -1497.07446        42.068
 20  9  1  1 28 30.0000000  0 11G 1G 3G 4G10G11G21G22G25G26G31G32
  21918451.93348 115182253.16348     -1002.17248        46.562    21918454.47445
  89752421.28045      -780.91845        39.928
  22724245.81147 119416719.51647      2980.52047        44.854    22724247.77045
  93052007.38645      2322.48045        39.069
  24942631.53943 131074409.43743      2780.37943        36.179    24942632.99842
 102135916.13542      2166.53142        33.166
  24106756.27445 126681869.08345     -3360.16845        40.014    24106758.59842
  98713173.05542     -2618.31242        34.002
  24119023.83746 126746315.97946     -2824.89546        41.283    24119023.76042
  98763362.77442     -2201.21942        32.915
  24231103.84645 127335297.65745     -3113.44145        40.841    24231102.99242
  99222322.78242     -2426.06242        33.416
  21576753.45249 113386626.43549      1920.54749        48.481    21576750.20246
  88353219.16546      1496.52746        42.221
  23343174.87146 122669219.09446      -603.44546        41.403    23343176.94549
  95586425.43149      -470.21949        47.981
  23653775.16845 124301427.45745      3307.24245        41.088    23653779.05643
  96858270.56343      2577.07043        36.232
  20099241.05249 105622300.66049      -178.85949        49.607    20099239.95548
  82303116.87348      -139.37548        46.024
  21752774.03549 114311681.54049     -1926.33649        48.025    21752776.24446
  89074054.26646     -1501.04346        41.539
 20  9  1  1 29  0.0000000  0 11G 1G 3G 4G10G11G21G22G25G26G31G32
  21924227.59648 115212604.94548     -1021.26248        46.186    21924230.26145
  89776071.99445      -795.79345        40.810
  22707248.70847 119327398.71747      2974.27047        43.962    22707250.43845
  92982406.76645      2317.60945        39.000
  24926765.86344 130991035.14244      2777.59844        36.759    24926767.39241
 102070949.19741      2164.52341        31.610
  24125955.13745 126782762.85245     -3366.47745        39.315    24125958.64443
  98791791.48643     -2623.23043        36.574
  24135164.58246 126831133.80246     -2829.64146        41.531    24135163.75542
  98829454.56442     -2204.91842        33.712
  24248878.95445 127428707.66645     -3113.82045        40.659    24248878.42943
  99295109.74543     -2426.35543        34.836
  21565821.86649 113329181.25649      1909.08249        48.220    21565818.74246
  88308456.70546      1487.59446        42.435
  23346675.85446 122687616.85846      -623.28146        41.367    23346677.99449
  95600761.36649      -485.67649        48.053
  23634902.76045 124202253.01745      3304.21945        40.441    23634906.14344
  96780991.80844      2574.71144        36.866
  20100317.70149 105627958.85849      -198.39549        49.683    20100316.72448
  82307525.86648      -154.59848        45.977
  21763786.56749 114369553.19949     -1931.71149        48.009    21763788.94645
  89119149.05445     -1505.23445        41.070
 20  9  1  1 29 30.0000000  0 11G 1G 3G 4G10G11G21G22G25G26G31G32
  21930113.43948 115243533.48648     -1040.48448        46.962    21930115.93245
  89800172.16045      -810.77045        40.220
  22690287.36147 119238267.94847      2967.70747        43.704    22690289.66244
  92912954.25344      2312.49644        38.561
  24910909.98144 130907713.49144      2776.68044        37.056    24910911.98542
 102006023.26542      2163.55942        33.967
  24145190.81846 126883844.95546     -3372.49246        42.881    24145194.01844
  98870556.74944     -2627.91844        38.045
  24151331.78144 126916093.99144     -2834.24644        38.124    24151331.43342
  98895657.27342     -2208.50842        33.289
  24266658.07645 127522137.74245     -3114.48845        40.932    24266657.61941
  99367912.31341     -2426.88341        30.212
  21554955.32849 113272078.08249      1897.69549        48.349    21554952.43146
  88263960.73446      1478.71946        42.554
  23350291.53546 122706616.59346      -643.43846        41.703    23350293.70649
  95615566.37049      -501.38349        48.310
  23616047.44245 124103167.49245      3301.40245        40.556    23616050.71843
  96703782.33243      2572.52043        35.254
  20101505.71449 105634201.85349      -217.87949        49.738    20101504.68648
  82312390.54048      -169.77748        45.795
  21774829.00649 114427581.90049     -1936.85249        48.045    21774831.68146
  89164366.22746     -1509.23846        42.322
 20  9  1  1 30  0.0000000  0 11G 1G 3G 4G10G11G21G22G25G26G31G32
  21936108.67848 115275037.24248     -1059.68848        47.025    21936111.04245
  89824720.53545      -825.73445        40.517
  22673362.92747 119149329.49447      2961.50447        44.196    22673364.98544
  92843651.57444      2307.66444        38.757
  24895064.67144 130824444.75044      2774.66844        37.963    24895066.91642
 101941138.58642      2162.07442        34.221
  24164462.20146 126985114.02746     -3378.73046        42.729    24164465.01343
  98949467.69443     -2632.78143        35.580
  24167525.42445 127001193.30345     -2839.12945        39.131    24167526.03642
  98961968.37142     -2212.31242        32.595
  24284440.43144 127615584.73744     -3114.87144        38.550    24284439.88841
  99440728.18941     -2427.17641        31.077
  21544154.37549 113215318.98149      1886.08249        48.369    21544151.60346
  88219732.88046      1469.67246        42.268
  23354021.59046 122726218.02746      -663.71146        41.526    23354023.98149
  95630840.22549      -517.18049        48.220
  23597209.29746 124004173.88446      3298.15246        42.083    23597212.50543
  96626644.50443      2569.98443        36.594
  20102804.82749 105641028.47049      -237.22749        49.755    20102803.68348
  82317709.98548      -184.85548        45.894
  21785901.49349 114485767.27649     -1942.28949        48.084    21785904.21946
  89209705.48146     -1513.47746        41.735
 20  9  1  1 30 30.0000000  0 11G 1G 3G 4G10G11G21G22G25G26G31G32
  21942212.88148 115307114.64748     -1078.59048        46.532    21942215.26245
  89849715.90445      -840.46145        40.785
  22656475.38947 119060585.53747      2954.89147        44.432    22656477.47044
  92774500.46144      2302.50844        38.870
  24879229.16944 130741229.00244      2773.52044        38.860    24879231.72643
 101876295.20843      2161.02043        34.716
  24183768.42045 127086568.59445     -3384.49245        40.236    24183770.95643
  99028523.20843     -2637.27043        35.215
  24183744.79545 127086428.40345     -2843.13345        38.986    24183745.88842
  99028385.27242     -2215.43042        33.200
  24302225.35445 127709046.11445     -3115.55545        39.458    24302224.91642
  99513555.14142     -2427.71142        32.341
  21533419.32249 113158905.66249      1874.58649        48.413    21533416.44946
  88175774.46546      1460.71546        41.979
  23357865.90645 122746420.85145      -683.75845        40.924    23357868.65249
  95646582.67549      -532.80149        48.245
  23578389.84345 123905275.44145      3295.06245        40.277    23578393.40044
  96549580.79844      2567.58244        38.854
  20104214.95249 105648438.22049      -256.66449        49.822    20104213.61048
  82323483.82448      -200.00048        45.646
  21797003.65948 114544108.89448     -1947.32848        47.451    21797006.17746
  89255166.48046     -1517.40246        42.292
 20  9  1  1 31  0.0000000  0 11G 1G 3G 4G10G11G21G22G25G26G31G32
  21948425.74448 115339764.07848     -1097.79348        46.287    21948428.20846
  89875157.00846      -855.42646        41.314
  22639625.70947 118972038.10547      2948.27747        44.962    22639627.83445
  92705502.46945      2297.35545        39.448
  24863404.08544 130658066.41044      2771.45744        38.797    24863406.25342
 101811493.23942      2159.55942        33.377
  24203108.73144 127188207.24044     -3390.98044        38.801    24203111.99844
  99107722.09644     -2642.32444        37.758
  24199989.53745 127171796.21145     -2847.55945        39.280    24199991.02841
  99094905.64841     -2218.87141        30.747
  24320012.69245 127802519.43345     -3116.19545        40.115    24320012.58441
  99586391.44441     -2428.21141        31.682
  21522750.67149 113102840.30549      1862.96549        48.644    21522747.53046
  88132087.18346      1451.65646        42.080
  23361824.90046 122767224.71646      -703.35246        42.257    23361827.37348
  95662793.49048      -548.07048        47.061
  23559588.23846 123806475.05846      3291.58246        41.690    23559592.29344
  96472593.52744      2564.86344        36.973
  20105735.73449 105656429.67249      -276.12149        49.805    20105734.16248
  82329710.93748      -215.16448        45.646
  21808135.29549 114602606.29049     -1952.52749        47.987    21808137.92846
  89300748.85346     -1521.45346        41.334
 20  9  1  1 31 30.0000000  0 11G 1G 3G 4G10G11G21G22G25G26G31G32
  21954747.01748 115372983.90948     -1116.77748        46.548    21954749.83545
  89901042.59245      -870.21945        40.732
  22622813.77147 118883689.81547      2941.78147        45.045    22622815.99745
  92636659.67445      2292.29345        39.780
  24847588.80544 130574957.21744      2769.65244        38.171    24847591.03143
 101746732.91743      2158.17243        36.237
  24222484.78846 127290028.33246     -3396.94146        41.714    24222488.49543
  99187063.16943     -2646.96943        35.913
  24216259.32045 127257293.51945     -2852.21945        39.731    24216260.51441
  99161526.79041     -2222.51641        31.842
  24337801.85745 127896002.15545     -3116.51245        40.678    24337801.85841
  99659235.11841     -2428.45341        27.284
  21512148.53249 113047124.80149      1851.22349        48.634    21512145.11546
  88088672.50646      1442.50846        42.374
  23365898.09245 122788629.28445      -723.52345        41.097    23365900.34949
  95679472.38949      -563.78949        48.028
  23540806.60546 123707776.01046      3288.39546        41.180    23540810.84044
  96395685.24944      2562.38344        37.204
  20107366.92549 105665001.55249      -295.44949        49.705    20107365.18548
  82336390.33748      -230.22348        45.925
  21819296.73749 114661259.05249     -1957.73449        48.092    21819298.96546
  89346452.31246     -1525.51246        41.918
 20  9  1  1 32  0.0000000  0 11G 1G 3G 4G10G11G21G22G25G26G31G32
  21961176.56848 115406772.49248     -1135.80148        46.022    21961179.56246
  89927371.34646      -885.04346        41.425
  22606039.96747 118795542.70447      2934.82447        45.223    22606042.26645
  92567973.63245      2286.87145        39.684
  24831783.82444 130491901.54444      2767.72744        38.480    24831785.91641
 101682014.22741      2156.64141        29.144
  24241895.38946 127392030.48746     -3402.94946        41.373    24241899.03744
  99266545.35344     -2651.65244        38.852
  24232553.43846 127342916.74646     -2856.21146        41.764    24232553.83041
  99228246.17841     -2225.62141        29.919
  24355592.24945 127989491.74245     -3116.60245        39.195    24355592.35041
  99732084.09141     -2428.52341        30.836
  21501613.20349 112991760.99249      1839.53149        48.354    21501609.46846
  88045531.88646      1433.39846        41.597
  23370085.25246 122810634.20346      -743.64846        41.221    23370087.31748
  95696619.07048      -579.46948        47.423
  23522045.18646 123609181.39046      3285.08246        42.123    23522048.14644
  96318858.25944      2559.80144        38.381
  20109108.44349 105674153.09549      -314.64549        49.780    20109106.63248
  82343521.40848      -245.18048        45.684
  21830487.67949 114720066.78849     -1962.93449        47.879    21830489.66546
  89392276.52646     -1529.56246        41.941
 20  9  1  1 32 30.0000000  0 11G 1G 3G 4G10G11G21G22G25G26G31G32
  21967714.03848 115441128.16748     -1154.54748        46.394    21967717.28545
  89954141.99245      -899.64845        40.282
  22589304.82347 118707598.98047      2928.03547        44.543    22589307.16745
  92499446.07645      2281.58245        40.823
  24815989.04245 130408899.45645      2765.96545        39.597    24815990.92642
 101617337.36542      2155.15642        32.399
  24261339.86345 127494212.19445     -3409.03945        39.399    24261343.41042
  99346167.42842     -2656.39842        33.865
  24248870.88345 127428663.02945     -2860.21545        41.036    24248871.30941
  99295061.43241     -2228.74241        31.067
  24373383.35744 128082985.56544     -3116.35544        38.723    24373384.02541
  99804936.42741     -2428.33241        30.381
  21491144.98049 112936750.94549      1827.64849        48.245    21491141.36746
  88002666.91446      1424.13746        42.555
  23374386.63046 122833239.00046      -763.68446        41.267    23374388.95949
  95714233.21449      -595.08249        48.355
  23503303.91445 123510694.29745      3281.07045        40.662    23503306.68844
  96242115.09844      2556.67244        37.394
  20110960.01349 105683883.14449      -333.98049        49.824    20110958.19348
  82351103.26748      -260.24648        45.719
  21841707.73148 114779029.08148     -1968.20348        47.439    21841709.66846
  89438221.15446     -1533.66846        42.583
 20  9  1  1 33  0.0000000  0 11G 1G 3G 4G10G11G21G22G25G26G31G32
  21974359.35148 115476049.20148     -1173.54748        46.025    21974362.46045
  89981353.18945      -914.45745        40.242
  22572608.73947 118619860.95747      2920.91847        45.010    22572611.15445
  92431078.81545      2276.03545        40.388
  24800204.21644 130325951.24444      2764.14844        37.141    24800206.63042
 101552702.42942      2153.87942        32.778
  24280818.20945 127596571.98645     -3414.91445        40.603    24280821.01842
  99425928.25342     -2660.98042        32.842
  24265210.63245 127514529.52745     -2863.96145        41.000    24265211.24641
  99361970.43741     -2231.65641        29.492
  24391174.74444 128176481.05544     -3116.28144        38.664    24391175.45342
  99877790.03942     -2428.27342        33.305
  21480744.27449 112882096.61449      1815.92249        47.908    21480741.09246
  87960079.13246      1415.00046        42.333
  23378802.25046 122856443.24546      -783.32446        41.749    23378804.65048
  95732314.44048      -610.38748        47.358
  23484583.06046 123412317.79546      3277.52046        42.032    23484585.71744
  96165458.12344      2553.90644        37.722
  20112921.41349 105694190.52049      -353.09849        49.865    20112919.65348
  82359134.98948      -275.14548        45.671
  21852957.19749 114838145.48949     -1973.17649        48.030    21852958.97646
  89484285.89846     -1537.54346        41.408
 20  9  1  1 33 30.0000000  0 11G 1G 3G 4G10G11G21G22G25G26G31G32
  21981112.13948 115511533.90948     -1192.14848        46.912    21981114.98645
  90009003.60845      -928.94945        40.723
  22555952.05447 118532330.75347      2914.15247        44.747    22555954.40845
  92362873.47845      2270.76645        40.176
  24784429.73944 130243057.08944      2762.39144        36.933    24784432.23542
 101488109.61642      2152.52742        34.169
  24300330.61946 127699108.26146     -3420.94546        42.318    24300332.67343
  99505826.70543     -2665.67643        34.757
  24281572.91746 127600512.03246     -2868.14146        42.031    24281573.20341
  99428969.77941     -2234.91841        28.977
  24408966.22444 128269975.91144     -3116.65244        38.579    24408966.62442
  99950643.13542     -2428.56242        32.685
  21470411.58449 112827799.88049      1803.97349        48.139    21470408.95746
  87917770.00546      1405.69146        42.806
  23383332.10346 122880246.52446      -803.43446        41.237    23383334.31249
  95750862.43649      -626.05549        47.811
  23465883.81846 123314055.04246      3273.39146        41.516    23465886.56143
  96088889.81543      2550.69143        35.935
  20114992.57749 105705074.45149      -372.44949        49.797    20114990.82248
  82367615.98648      -290.22348        45.697
  21864236.09949 114897415.65449     -1978.21149        47.833    21864237.60046
  89530470.44146     -1541.46546        41.522
 20  9  1  1 34  0.0000000  0 11G 1G 3G 4G10G11G21G22G25G26G31G32
  21987971.59348 115547580.52248     -1210.92648        45.902    21987974.69446
  90037091.87146      -943.58246        41.682
  22539335.52447 118445010.72447      2907.09447        44.867    22539337.82145
  92294831.91045      2265.26645        39.695
  24768665.62344 130160217.07744      2760.84444        36.909    24768667.93643
 101423558.95443      2151.41443        35.830
  24319876.09546 127801819.50646     -3426.48446        41.827    24319878.27942
  99585861.42742     -2669.99242        34.196
  24297956.72745 127686608.19245     -2871.71145        39.894    24297956.97742
  99496057.66142     -2237.69942        32.500
  24426757.08844 128363467.47844     -3116.35244        38.648    24426757.59143
 100023493.63843     -2428.32843        35.971
  21460147.60249 112773862.93849      1791.82849        48.235    21460145.23146
  87875741.22946      1396.22746        42.665
  23387975.48446 122904648.32946      -823.38746        41.617    23387977.78048
  95769876.81748      -641.60248        47.025
  23447207.84445 123215909.27545      3269.43845        39.782    23447210.84545
  96012412.58145      2547.60945        40.085
  20117173.17749 105716533.40849      -391.55549        49.841    20117171.36947
  82376545.05247      -305.10947        45.469
  21875544.04749 114956839.16849     -1983.35949        47.980    21875545.71546
  89576774.47346     -1545.47746        41.341
 20  9  1  1 34 30.0000000  0 11G 1G 3G 4G10G11G21G22G25G26G31G32
  21994937.56748 115584187.27748     -1229.74248        46.204    21994940.82145
  90065616.60645      -958.30145        40.829
  22522759.55047 118357903.10847      2899.86747        44.759    22522761.53645
  92226955.86445      2259.63345        39.994
  24752911.91645 130077431.46745      2758.67645        39.654    24752914.36141
 101359050.74941      2149.61741        30.805
  24339454.25744 127904704.25544     -3432.48844        38.109    24339456.67044
  99666031.33744     -2674.67244        37.230
  24314360.93545 127772814.24545     -2875.32845        39.419    24314361.58541
  99563231.19141     -2240.52041        30.610
  24444546.68244 128456952.94544     -3115.83244        38.623    24444547.07141
 100096339.46741     -2427.92641        28.868
  21449952.56849 112720287.43349      1779.91849        48.224    21449950.18046
  87833994.09346      1386.94546        42.449
  23392733.06446 122929648.07346      -843.12146        42.593    23392734.87048
  95789357.16448      -656.98048        47.084
  23428553.60645 123117883.35745      3265.57045        41.031    23428556.59943
  95936028.81143      2544.59843        36.429
  20119463.03049 105728566.62749      -410.68849        49.754    20119461.11147
  82385921.59347      -320.02047        45.262
  21886881.07249 115016415.58649     -1988.42649        47.841    21886882.91346
  89623197.65446     -1549.42646        41.500
 20  9  1  1 35  0.0000000  0 11G 1G 3G 4G10G11G21G22G25G26G31G32
  22002009.91848 115621352.37148     -1247.99248        46.545    22002013.11345
  90094576.41645      -972.46545        40.972
  22506224.36347 118271010.12747      2892.78147        45.311    22506226.35345
  92159247.06545      2254.11345        39.416
  24737168.78944 129994700.35644      2756.26644        37.276    24737171.24042
 101294585.02342      2147.74242        33.623
  24359064.78745 128007761.02445     -3438.14845        39.019    24359067.94244
  99746335.27444     -2679.07844        37.559
  24330785.39245 127859127.07945     -2878.85245        39.691    24330786.35041
  99630487.88641     -2243.26641        29.673
  24462334.67144 128550430.06444     -3115.45744        37.654    24462335.70642
 100169178.73242     -2427.63342        33.667
  21439826.76749 112667075.49349      1767.54349        48.299    21439824.20246
  87792530.25446      1377.30546        42.839
  23397604.54246 122955245.30046      -863.23446        43.109    23397605.94548
  95809303.07348      -672.65248        47.067
  23409923.07546 123019980.64346      3261.30946        42.275    23409926.84143
  95859741.07143      2541.27743        34.773
  20121861.73149 105741172.40749      -429.79749        49.660    20121859.84648
  82395744.28848      -334.91048        45.607
  21898247.18249 115076144.57349     -1993.50049        48.069    21898248.78546
  89669739.71746     -1553.37946        41.580
 20  9  1  1 35 30.0000000  0 11G 1G 3G 4G10G11G21G22G25G26G31G32
  22009188.30348 115659074.01348     -1266.59448        46.774    22009191.27646
  90123969.90546      -986.96146        41.410
  22489730.49147 118184334.10747      2885.61347        45.226    22489732.44345
  92091707.32045      2248.52745        39.062
  24721436.18545 129912023.96745      2754.64845        39.334    24721438.59642
 101230161.88342      2146.47742        34.303
  24378708.49346 128110988.12246     -3443.85546        41.694    24378711.81542
  99826771.95342     -2683.52742        33.868
  24347229.79645 127945543.76645     -2882.44145        38.942    24347230.88843
  99697825.49043     -2246.06243        34.888
  24480120.92444 128643896.07944     -3115.38744        38.501    24480121.31741
 100242009.31441     -2427.58241        31.551
  21429770.59649 112614228.95249      1755.48049        48.681    21429767.59646
  87751351.13546      1367.90246        42.437
  23402589.30346 122981439.39646      -883.15646        41.805    23402590.65749
  95829714.07949      -688.17649        48.280
  23391316.93646 122922204.22546      3256.92246        42.065    23391320.45944
  95783551.66744      2537.86344        36.798
  20124369.14749 105754349.62049      -448.73449        49.561    20124367.30447
  82406012.25647      -349.66847        45.350
  21909642.29249 115136025.73149     -1998.59849        48.289    21909643.53645
  89716400.36545     -1557.35245        40.873
 20  9  1  1 36  0.0000000  0 11G 1G 3G 4G10G11G21G22G25G26G31G32
  22016471.94548 115697350.39248     -1285.15648        46.226    22016474.90545
  90153795.65145     -1001.42245        40.990
  22473278.44647 118097877.28047      2878.29747        44.875    22473280.24345
  92024338.37145      2242.82445        39.966
  24705714.02945 129829402.46345      2753.27745        40.387    24705716.09442
 101165781.52342      2145.52342        33.584
  24398383.98846 128214384.09346     -3449.48446        41.233    24398387.13341
  99907340.26241     -2687.91041        31.262
  24363693.27544 128032061.15744     -2885.37144        37.781    24363694.88843
  99765241.55243     -2248.34843        34.830
  24497904.57644 128737348.37744     -3115.22744        37.824    24497904.74341
 100314829.26441     -2427.45341        31.683
  21419784.51749 112561749.95249      1743.04349        48.910    21419781.09746
  87710458.41446      1358.21146        42.239
  23407686.88945 123008229.74145      -903.10545        40.714    23407689.04849
  95850589.67249      -703.72349        48.999
  23372735.50045 122824557.19845      3252.75045        40.515    23372739.04244
  95707463.12644      2534.60544        37.948
  20126985.28049 105768097.34049      -467.78149        49.760    20126983.35647
  82416724.76947      -364.50847        45.357
  21921066.32149 115196058.64849     -2003.62549        48.342    21921067.38046
  89763179.26946     -1561.27046        41.257
 20  9  1  1 36 30.0000000  0 11G 1G 3G 4G10G11G21G22G25G26G31G32
  22023861.03248 115736179.59348     -1303.66048        46.773    22023863.77545
  90184052.17145     -1015.84445        40.627
  22456867.99847 118011641.91447      2870.92647        45.414    22456870.45545
  91957142.01545      2237.08245        39.059
  24690002.44245 129746836.01945      2751.18445        40.197    24690004.09343
 101101444.08343      2143.77743        35.053
  24418091.28145 128317947.43045     -3454.85545        40.869    24418094.65842
  99988038.93442     -2692.09842        34.292
  24380175.59445 128118675.94945     -2888.56645        39.104    24380177.04142
  99832733.51942     -2250.84042        33.732
  24515685.22944 128830784.44644     -3114.49244        38.504    24515685.07142
 100387636.56442     -2426.87942        32.891
  21409868.77049 112509640.67349      1730.76649        48.755    21409865.08446
  87669853.78446      1348.64546        42.242
  23412897.85145 123035615.80745      -922.64145        40.814    23412900.74949
  95871929.45449      -718.94549        48.586
  23354179.08346 122727042.67946      3248.45346        42.222    23354182.57944
  95631477.84144      2531.25844        38.106
  20129709.70449 105782414.12849      -486.69549        49.726    20129707.75947
  82427880.71447      -379.24647        45.455
  21932519.02949 115256242.97349     -2008.68049        47.869    21932520.36146
  89810076.15846     -1565.20746        41.795
 20  9  1  1 37  0.0000000  0 11G 1G 3G 4G10G11G21G22G25G26G31G32
  22031354.87848 115775559.76348     -1321.84048        46.412    22031357.38045
  90214738.01445     -1030.00845        40.553
  22440500.63947 117925630.33047      2863.15247        45.261    22440502.70445
  91890120.00645      2231.02345        39.831
  24674300.80644 129664324.72544      2749.66844        38.740    24674302.42542
 101037149.63742      2142.59442        32.984
  24437830.39645 128421676.52145     -3460.15645        39.721    24437833.43144
 100068866.76544     -2696.23044        36.933
  24396676.09746 128205384.90846     -2891.87946        41.380    24396676.73842
  99900298.92342     -2253.41442        32.589
  24533462.20744 128924202.25244     -3114.03144        37.436    24533462.18841
 100460429.62241     -2426.52041        31.268
  21400023.24349 112457902.12249      1718.44949        48.586    21400019.55446
  87629538.03046      1339.04746        42.667
  23418222.20046 123063596.83146      -942.60946        41.274    23418225.38249
  95893732.87549      -734.50449        48.328
  23335648.08746 122629663.81746      3243.73846        41.396    23335651.32544
  95555598.21144      2527.58644        37.727
  20132542.14149 105797298.53749      -505.53949        49.671    20132540.25947
  82439478.96747      -393.93047        45.548
  21944000.47749 115316578.32849     -2013.74249        48.109    21944002.00246
  89857090.71346     -1569.15246        41.646
 20  9  1  1 37 30.0000000  0 11G 1G 3G 4G10G11G21G22G25G26G31G32
  22038952.97948 115815488.99648     -1340.11748        45.950    22038955.68445
  90245851.69745     -1044.25045        40.554
  22424176.45348 117839844.82348      2855.61748        45.769    22424178.34945
  91823274.16145      2225.15245        40.361
  24658610.11345 129581868.91445      2747.31245        39.817    24658612.12441
 100972898.34941      2140.76241        29.736
  24457600.67245 128525569.87745     -3465.87945        39.585    24457603.50543
 100149822.58343     -2700.68843        35.613
  24413194.17045 128292184.76845     -2894.90645        40.205    24413193.83542
  99967935.15742     -2255.77042        33.949
  24551235.15045 129017599.02545     -3112.80145        39.789    24551235.24241
 100533206.28841     -2425.56241        27.610
  21390248.58549 112406536.71649      1705.89149        48.563    21390245.09346
  87589513.04946      1329.26246        42.761
  23423659.91246 123092172.22146      -962.40646        41.294    23423663.09249
  95915999.39449      -749.93049        48.486
  23317143.74445 122532423.78645      3239.00445        41.034    23317147.93544
  95479826.85444      2523.89844        38.755
  20135482.31849 105812749.28649      -524.44549        49.594    20135480.50948
  82451518.51948      -408.66048        45.710
  21955510.63349 115377064.31549     -2018.61749        48.114    21955512.10146
  89904222.65746     -1572.95346        41.282
 20  9  1  1 38  0.0000000  0 11G 1G 3G 4G10G11G21G22G25G26G31G32
  22046655.13248 115855965.38148     -1358.33648        45.921    22046658.06945
  90277391.73545     -1058.44545        41.076
  22407895.52747 117754287.62847      2848.10947        45.259    22407897.73745
  91756606.23645      2219.30545        40.265
  24642929.71944 129499468.53544      2745.79744        38.000    24642931.65542
 100908690.29042      2139.57842        32.242
  24477402.17645 128629625.87845     -3471.25445        40.975    24477404.84143
 100230905.16043     -2704.87543        35.655
  24429728.33845 128379072.44345     -2897.58245        40.194    24429728.33941
 100035639.84341     -2257.85941        31.391
  24569003.54344 129110972.06644     -3112.02044        38.597    24569003.42042
 100605964.48942     -2424.95342        32.675
  21380545.19449 112355546.44449      1693.46949        48.118    21380542.04946
  87549780.37946      1319.58246        42.121
  23429210.74946 123121341.22446      -982.43846        42.242    23429213.79449
  95938728.49749      -765.53949        47.792
  23298666.89046 122435325.75246      3234.04346        42.071    23298670.82144
  95404166.07044      2520.03144        38.213
  20138529.98649 105828765.41849      -543.25449        49.452    20138528.28048
  82463998.62748      -423.31648        45.726
  21967049.33949 115437700.58549     -2023.73049        47.881    21967050.65845
  89951471.70945     -1576.93845        40.980
 20  9  1  1 38 30.0000000  0 11G 1G 3G 4G10G11G21G22G25G26G31G32
  22054461.11148 115896986.97048     -1376.52748        46.206    22054464.45945
  90309356.59545     -1072.70745        40.356
  22391658.27547 117668961.09147      2840.28147        45.409    22391660.72245
  91690118.04745      2213.20345        39.728
  24627259.18844 129417123.90144      2743.63344        36.731    24627262.16642
 100844525.79342      2137.89542        33.784
  24497234.27445 128733842.96645     -3476.54345        39.126    24497236.40442
 100312113.26942     -2708.99642        33.852
  24446278.65444 128466044.90844     -2900.34044        38.656    24446278.38242
 100103410.63342     -2260.00842        33.053
  24586766.89944 129204319.00244     -3111.30144        37.800    24586766.68341
 100678702.30441     -2424.39541        31.234
  21370913.53949 112304933.46949      1680.79749        48.235    21370910.78046
  87510341.71846      1309.70746        42.599
  23434874.47646 123151103.12346     -1001.86346        41.775    23434877.13749
  95961919.59049      -780.67649        48.128
  23280217.68446 122338372.80646      3229.34846        42.041    23280220.94343
  95328618.34943      2516.37143        36.348
  20141684.94349 105845345.20149      -561.95749        49.613    20141683.35848
  82476917.95048      -437.89148        45.590
  21978616.30348 115498486.80148     -2028.82448        47.705    21978617.97646
  89998837.58546     -1580.90646        41.639
 20  9  1  1 39  0.0000000  0 11G 1G 3G 4G10G11G21G22G25G26G31G32
  22062370.65648 115938551.81248     -1394.64148        45.966    22062374.05245
  90341744.78045     -1086.73445        40.782
  22375465.17547 117583867.47847      2832.61347        44.623    22375467.66945
  91623811.36645      2207.22745        40.684
  24611600.22444 129334835.16344      2741.88744        36.965    24611603.59743
 100780404.78843      2136.53543        35.408
  24517096.53545 128838219.60745     -3482.12145        39.849    24517098.52342
 100393445.72842     -2713.34442        33.239
  24462844.25445 128553098.86245     -2903.15645        39.534    24462844.29241
 100171244.73441     -2262.20741        30.196
  24604525.02344 129297637.41044     -3110.34844        38.541    24604524.65941
 100751417.93841     -2423.65241        31.339
  21361354.15849 112254699.36749      1668.07849        48.316    21361351.42846
  87471198.27946      1299.79746        42.599
  23440650.99746 123181457.19346     -1021.57046        41.430    23440653.15449
  95985572.11849      -796.03149        48.441
  23261796.31346 122241568.11846      3224.45746        43.000    23261799.09444
  95253186.17944      2512.56244        36.844
  20144946.97349 105862487.46949      -580.87149        49.678    20144945.57148
  82490275.56948      -452.62948        45.658
  21990211.99548 115559422.52948     -2033.74248        47.598    21990213.73546
  90046319.98446     -1584.73846        41.133
 20  9  1  1 39 30.0000000  0 11G 1G 3G 4G10G11G21G22G25G26G31G32
  22070383.25348 115980657.91148     -1412.49248        46.193    22070386.56245
  90374554.71345     -1100.64545        40.847
  22359316.78247 117499009.10647      2824.59047        44.856    22359319.81945
  91557687.99745      2200.97745        41.053
  24595951.77645 129252602.53845      2740.07845        39.713    24595955.19443
 100716327.44443      2135.12143        34.950
  24536989.14446 128942754.14846     -3486.93846        42.869    24536990.76142
 100474901.21542     -2717.09842        34.111
  24479425.11045 128640231.25445     -2905.71945        40.695    24479425.15941
 100239140.08941     -2264.19941        28.540
  24622277.08345 129390924.64245     -3109.09045        40.046    24622277.19641
 100824109.27041     -2422.67241        12.610
  21351867.56449 112204846.03449      1655.50849        48.426    21351864.48746
  87432351.53346      1290.00446        42.797
  23446539.64246 123212402.60246     -1041.28546        41.381    23446541.71549
  96009685.45049      -811.39549        48.082
  23243403.74045 122144914.90245      3219.02345        40.428    23243406.51044
  95177871.99444      2508.32844        36.973
  20148315.78149 105880190.65349      -599.49649        49.582    20148314.33247
  82504070.27747      -467.14547        45.490
  22001835.96548 115620507.46948     -2038.85248        47.532    22001837.64146
  90093918.63146     -1588.71946        41.605
 20  9  1  1 40  0.0000000  0 11G 1G 3G 4G10G11G21G22G25G26G31G32
  22078498.55348 116023303.23448     -1430.39148        46.359    22078501.71245
  90407784.82445     -1114.59445        40.130
  22343214.14048 117414388.32548      2816.62548        45.868    22343216.68645
  91491749.74045      2194.77045        40.889
  24580314.13645 129170426.11745      2738.45345        39.719    24580317.31942
 100652293.95642      2133.85542        33.505
  24556911.56645 129047445.09445     -3492.47345        39.811    24556913.19343
 100556478.54643     -2721.41043        35.971
  24496020.28245 128727438.72945     -2908.22745        39.560    24496020.27442
 100307094.01942     -2266.14842        32.833
  24640022.52144 129484178.15644     -3107.42644        38.864    24640023.13241
 100896774.32741     -2421.37541        31.795
  21342453.71149 112155375.31149      1642.65249        48.587    21342450.45946
  87393802.92946      1279.98446        42.797
  23452540.46545 123243938.60545     -1061.07045        40.807    23452542.82949
  96034258.96049      -826.81249        48.746
  23225040.44745 122048416.22945      3214.01645        40.784    23225043.24544
  95102678.27644      2504.43044        37.187
  20151791.11949 105898453.49549      -618.08649        49.539    20151789.50247
  82518301.07147      -481.62947        45.447
  22013488.27448 115681741.22148     -2043.66448        47.740    22013489.91945
  90141633.25945     -1592.46945        40.250
 20  9  1  1 40 30.0000000  0 11G 1G 3G 4G10G11G21G22G25G26G31G32
  22086716.06248 116066485.78148     -1448.37948        46.315    22086719.17545
  90441433.55545     -1128.60945        39.565
  22327157.26248 117330007.40348      2808.67648        45.894    22327159.25845
  91425998.37645      2188.57445        39.998
  24564687.45444 129088306.10544      2736.21544        38.883    24564689.89441
 100588304.38641      2132.11741        29.070
  24576862.81545 129152290.82845     -3497.23445        39.833    24576865.12841
 100638176.49741     -2725.12141        30.976
  24512628.66744 128814718.31244     -2910.53544        38.424    24512629.12642
 100375104.05442     -2267.95342        32.855
  24657760.46344 129577395.63344     -3106.52744        37.396    24657761.52443
 100969411.29543     -2420.68043        35.216
  21333113.03249 112106289.19949      1629.75849        48.810    21333109.50146
  87355554.01646      1269.93846        42.403
  23458653.83546 123276064.39346     -1080.64146        41.882    23458656.19849
  96059292.02749      -842.06249        48.056
  23206707.54146 121952075.32446      3208.66846        42.051    23206709.90044
  95027607.44344      2500.25844        38.130
  20155372.77749 105917274.58249      -636.69549        49.641    20155371.05748
  82532966.86948      -496.12948        45.661
  22025168.55048 115743123.48848     -2048.54748        46.984    22025170.26946
  90189463.59146     -1596.27346        41.203
 20  9  1  1 41  0.0000000  0 11G 1G 3G 4G10G11G21G22G25G26G31G32
  22095035.35548 116110203.51048     -1466.08248        46.296    22095038.00945
  90475499.30945     -1142.40645        40.203
  22311146.30648 117245868.70048      2800.53548        46.269    22311147.97545
  91360435.76745      2182.23045        39.548
  24549071.46545 129006242.68045      2734.51645        39.597    24549073.34242
 100524358.88142      2130.79342        32.835
  24596843.25645 129257289.75145     -3502.69945        40.038    24596845.41844
 100719993.81944     -2729.37944        36.702
  24529250.44345 128902066.92345     -2912.64845        38.910    24529251.07941
 100443167.82841     -2269.59441        29.175
  24675491.63544 129670574.61844     -3105.39144        37.614    24675492.81242
 101042018.25042     -2419.78942        32.692
  21323845.73349 112057589.48449      1616.98849        48.132    21323842.21646
  87317606.20146      1259.98846        42.268
  23464879.44645 123308778.97345     -1100.24645        40.873    23464881.81949
  96084783.92949      -857.33649        48.163
  23188405.17146 121855895.28146      3203.32446        41.944    23188408.32944
  94952662.03844      2496.09444        38.268
  20159060.33649 105936652.44849      -655.25049        49.706    20159058.57347
  82548066.51147      -510.58647        45.349
  22036877.43648 115804653.91748     -2053.50848        47.339    22036879.08246
  90237409.39546     -1600.14146        41.142
 20  9  1  1 41 30.0000000  0 11G 1G 3G 4G10G11G21G22G25G26G31G32
  22103456.21448 116154454.33448     -1483.94148        46.590    22103458.62945
  90509980.45945     -1156.32045        39.707
  22295181.90348 117161974.51948      2792.41848        45.609    22295183.46345
  91295063.68745      2175.90645        40.354
  24533466.05744 128924236.05344      2732.52344        38.332    24533468.15542
 100460457.61842      2129.23442        32.647
  24616852.66546 129362440.22046     -3507.38346        41.225    24616855.00342
 100801929.25842     -2733.02342        34.169
  24545884.85144 128989481.34344     -2914.92244        37.358    24545885.77443
 100511282.91243     -2271.37143        36.278
  24693215.67544 129763712.56044     -3104.06244        37.888    24693216.38341
 101114593.22041     -2418.75441        25.459
  21314652.35249 112009278.23849      1603.91049        48.484    21314648.99546
  87279961.07946      1249.79746        42.756
  23471216.45345 123342081.59945     -1120.38345        40.599    23471219.12049
  96110734.01549      -873.02749        49.051
  23170133.75346 121759879.32546      3197.78946        42.802    23170137.04944
  94877844.44744      2491.78144        36.842
  20162853.59049 105956585.70449      -673.67649        49.818    20162851.70947
  82563598.92047      -524.94547        44.943
  22048614.53448 115866332.12648     -2058.40248        47.400    22048616.30645
  90285470.32945     -1603.95345        40.353
 20  9  1  1 42  0.0000000  0 11G 1G 3G 4G10G11G21G22G25G26G31G32
  22111977.85548 116199236.17248     -1501.51648        45.916    22111980.42445
  90544875.39945     -1170.01645        40.849
  22279264.12047 117078327.16247      2783.99647        45.287    22279265.87645
  91229883.95445      2169.34445        40.099
  24517871.41945 128842286.30145      2730.97745        40.038    24517873.82543
 100396600.74243      2128.03143        36.273
  24636890.25345 129467740.76345     -3512.16445        39.873    24636893.28842
 100883981.59542     -2736.75442        32.862
  24562530.90645 129076958.29845     -2917.08645        39.564    24562532.21242
 100579446.68342     -2273.05942        34.206
  24710931.22444 129856807.00644     -3102.32844        37.899    24710931.63141
 101187134.31641     -2417.40241        26.686
  21305533.27849 111961357.22049      1590.81649        48.695    21305530.03146
  87242620.03746      1239.59446        42.565
  23477665.47845 123375971.25345     -1139.36745        40.771    23477668.10649
  96137141.56449      -887.82049        48.724
  23151894.23946 121664030.56346      3191.96546        42.254    23151897.74943
  94803157.12943      2487.24243        36.335
  20166752.25449 105977072.73849      -692.12149        49.725    20166750.13248
  82579562.85148      -539.31648        45.696
  22060379.57848 115928157.80748     -2063.37948        47.333    22060381.56745
  90333646.19145     -1607.83245        40.435
 20  9  1  1 42 30.0000000  0 11G 1G 3G 4G10G11G21G22G25G26G31G32
  22120600.05348 116244546.92448     -1519.14548        45.873    22120602.98245
  90580182.45845     -1183.75445        39.870
  22263393.87548 116994928.98848      2775.78548        45.869    22263395.59245
  91164898.39545      2162.94545        39.417
  24502287.80945 128760393.72445      2728.86345        40.573    24502290.29243
 100332788.41443      2126.38343        35.759
  24656956.79946 129573189.60946     -3517.40246        41.599    24656959.68343
 100966149.52943     -2740.83643        36.197
  24579188.59845 129164494.65045     -2918.81245        39.539    24579190.04841
 100647656.79941     -2274.40241        31.565
  24728637.77044 129949855.48344     -3100.48044        38.495    24728638.54241
 101259639.57741     -2415.96141        25.053
  21296488.92749 111913828.41049      1577.78149        48.700    21296485.71746
  87205584.62146      1229.43846        43.258
  23484225.89945 123410447.14445     -1158.96145        40.538    23484228.45448
  96164005.87048      -903.09048        47.658
  23133687.13046 121568352.23946      3186.54746        41.283    23133690.92744
  94728602.63544      2483.02044        37.817
  20170755.91749 105998112.29149      -710.49649        49.651    20170753.65447
  82595957.31047      -553.63747        44.841
  22072172.68848 115990130.63548     -2068.33248        47.403    22072174.69445
  90381936.70145     -1611.69145        41.074
 20  9  1  1 43  0.0000000  0 11G 1G 3G 4G10G11G21G22G25G26G31G32
  22129322.43548 116290384.44948     -1536.66048        45.601    22129325.53945
  90615900.00645     -1197.40245        39.867
  22247571.51847 116911782.34847      2767.14147        45.447    22247573.25745
  91100108.81445      2156.21145        40.269
  24486714.94044 128678558.42144      2726.89144        37.994    24486717.66444
 100269020.72744      2124.85244        37.649
  24677051.19345 129678785.24445     -3522.12945        40.682    24677053.96943
 101048431.82943     -2744.52043        35.412
  24595857.40045 129252087.50145     -2920.54345        39.866    24595858.39942
 100715910.97442     -2275.75442        32.299
  24746334.94544 130042855.29644     -3099.00444        37.704    24746336.10242
 101332106.94842     -2414.81242        33.769
  21287519.50549 111866693.39249      1564.56249        48.800    21287516.15446
  87168856.04146      1219.13746        42.902
  23490897.60446 123445508.14946     -1178.60546        41.151    23490900.22748
  96191326.15848      -918.39848        47.776
  23115512.53146 121472847.38646      3180.47346        42.100    23115516.60744
  94654183.32244      2478.28944        38.178
  20174864.34749 106019702.81149      -728.87149        49.591    20174862.07247
  82612781.10247      -567.95347        45.032
  22083993.77448 116052250.22548     -2073.05148        47.290    22083995.58945
  90430341.59045     -1615.36745        40.882
 20  9  1  1 43 30.0000000  0 11G 1G 3G 4G10G11G21G22G25G26G31G32
  22138144.74048 116336746.59848     -1554.12548        45.797    22138147.87045
  90652026.33345     -1211.00845        39.969
  22231797.53648 116828889.53548      2758.85548        45.988    22231799.36645
  91035517.03145      2149.75445        39.686
  24471152.18643 128596780.50343      2725.13343        36.639    24471156.36443
 100205297.77443      2123.48443        34.964
  24697172.96145 129784526.08045     -3527.01645        40.009    24697175.70941
 101130827.28841     -2748.32841        30.939
  24612536.15245 129339733.65845     -2922.32845        40.289    24612536.34241
 100784206.62841     -2277.14541        31.589
  24764022.70444 130135804.40444     -3097.38744        37.909    24764023.86142
 101404534.76042     -2413.55142        33.979
  21278625.37149 111819954.28749      1551.43049        48.441    21278622.01346
  87132435.97746      1208.90246        43.185
  23497680.82546 123481153.35346     -1197.78546        41.512    23497683.17748
  96219101.64948      -933.34448        47.605
  23097372.46846 121377519.30246      3174.69946        41.408    23097376.15745
  94579901.71745      2473.78945        39.089
  20179077.31249 106041842.56949      -747.15649        49.384    20179075.20348
  82630032.86848      -582.20348        45.611
  22095842.56648 116114516.30848     -2078.00448        46.886    22095844.62146
  90478860.61546     -1619.22746        41.194
 20  9  1  1 44  0.0000000  0 11G 1G 3G 4G10G11G21G22G25G26G31G32
  22147066.64848 116383631.19848     -1571.39148        45.934    22147069.57445
  90688559.77145     -1224.46545        39.681
  22216072.17348 116746252.92148      2750.27348        45.814    22216074.35145
  90971124.88745      2143.06645        39.462
  24455600.94944 128515060.29844      2723.14844        37.038    24455605.57243
 100141619.77343      2121.93043        34.542
  24717322.11645 129890410.40945     -3531.84045        38.904    24717324.77944
 101213334.52544     -2752.08644        37.327
  24629223.94345 129427430.11545     -2923.86345        39.205    24629223.91041
 100852541.56941     -2278.34041        30.772
  24781700.28644 130228699.96344     -3095.62544        37.335    24781701.04441
 101476920.86641     -2412.18441        23.719
  21269806.83849 111773612.77249      1538.13749        48.848    21269803.51046
  87096325.71746      1198.54346        42.808
  23504575.11946 123517381.80046     -1217.13746        41.723    23504577.01648
  96247331.62548      -948.42248        46.567
  23079266.33446 121282371.08346      3168.62546        42.228    23079270.26344
  94505760.33044      2469.05544        37.952
  20183394.46449 106064529.86849      -765.37949        49.259    20183392.65648
  82647711.29448      -596.40248        45.830
  22107719.14948 116176928.52048     -2082.86348        47.641    22107721.42645
  90527493.50345     -1623.01245        40.269
 20  9  1  1 44 30.0000000  0 11G 1G 3G 4G10G11G21G22G25G26G31G32
  22156087.66048 116431036.06348     -1588.68048        46.131    22156090.37745
  90725498.62245     -1237.93445        40.083
  22200395.91648 116663874.83848      2741.60248        45.782    22200398.69446
  90906934.20946      2136.30946        41.229
  24440061.60845 128433397.92845      2721.40645        40.259    24440065.26043
 100077986.79843      2120.57443        34.770
  24737497.80445 129996436.72145     -3536.45345        40.507    24737500.09842
 101295952.38242     -2755.68042        33.216
  24645920.73545 129515173.50545     -2925.39145        38.988    24645921.08641
 100920912.92041     -2279.52741        30.952
  24799367.20644 130321539.55944     -3093.84044        38.581    24799367.86442
 101549263.37142     -2410.79342        33.404
  21261064.29449 111727670.76349      1524.73449        48.847    21261060.87946
  87060526.75246      1188.10246        42.371
  23511579.96245 123554192.47645     -1236.75445        41.013    23511581.57348
  96276015.26048      -963.70748        47.632
  23061194.98646 121187405.92046      3161.87946        41.794    23061198.77243
  94431761.55543      2463.79743        35.871
  20187815.58249 106087763.45649      -783.56249        49.444    20187813.90847
  82665815.39247      -610.57047        45.090
  22119623.55948 116239486.53748     -2087.81248        47.084    22119625.95345
  90576240.02345     -1626.87145        41.030
