     2.11           OBSERVATION DATA    G                   RINEX VERSION / TYPE
sbf2rin-13.2.0                          02-SEP-20 00:03     PGM / RUN BY / DATE
usn8                                                        MARKER NAME
40451S009                                                   MARKER NUMBER
Time Services       USNO                                    OBSERVER / AGENCY
4701171             SEPT POLARX5TR      5.2.0               REC # / TYPE / VERS
762-11615           TPSCR.G5        TPSH                    ANT # / TYPE
  1112161.9919 -4842855.0890  3985497.3152                  APPROX POSITION XYZ
        0.0000        0.0000        0.0000                  ANTENNA: DELTA H/E/N
     1     1                                                WAVELENGTH FACT L1/2
     7    C1    L1    L2    P2    P1    S1    S2            # / TYPES OF OBSERV
For GPS, L2 corresponds to the L2P carrier phase.           COMMENT
    30.000                                                  INTERVAL
  2020     9     1     0     0    0.0000000     GPS         TIME OF FIRST OBS
  2020     9     1    23    59   30.0000000     GPS         TIME OF LAST OBS
    30                                                      # OF SATELLITES
                                                            END OF HEADER
 20  9  1  0  0  0.0000000  0 10G24G10G20G11G01G21G32G12G25G31
  23970263.969 6 125964644.57606  98154292.80806  23970264.272 6  23970263.518 6
        39.500          37.500
  20441361.167 8 107420115.82308  83704001.02108  20441361.459 8  20441360.846 8
        51.750          51.000
  22001100.182 7 115616589.21407  90090855.19706  22001098.137 6  22001099.038 6
        46.500          38.250
  24456404.027 6 128519282.52106 100144865.89403  24456401.306 3  24456403.393 3
        37.500          20.250
  24330673.936 6 127858556.80206  99630058.78504  24330674.644 4  24330673.570 4
        39.000          24.500
  22906892.425 7 120376548.82707  93799902.12006  22906889.696 6  22906891.267 6
        46.250          36.000
  20749771.745 8 109040857.39808  84966917.30408  20749771.699 8  20749771.593 8
        52.000          49.500
  22578904.728 7 118652996.75107  92456875.82107  22578902.530 7  22578904.192 7
        45.500          47.000
  22243130.026 7 116888494.60607  91081941.68606  22243131.187 6  22243129.163 6
        45.000          37.500
  22191606.116 7 116617738.76007  90870981.45606  22191602.919 6  22191605.768 6
        46.500          39.500
 20  9  1  0  0 30.0000000  0 10G24G10G20G11G01G21G32G12G25G31
  23990435.975 6 126070651.03406  98236895.24606  23990436.168 6  23990435.537 6
        38.500          36.500
  20446672.089 8 107448025.03808  83725748.45808  20446672.513 8  20446671.768 8
        52.250          51.000
  22018874.619 7 115709995.84307  90163639.56006  22018872.895 6  22018873.461 6
        47.500          38.250
  24460943.132 6 128543139.83406 100163455.99503  24460941.613 3  24460942.506 3
        37.750          19.750
  24319655.569 6 127800659.16006  99584943.73704  24319656.704 4  24319655.221 4
        38.500          24.000
  22915492.378 7 120421742.88707  93835118.26005  22915489.888 5  22915491.207 5
        46.250          35.750
  20744530.199 8 109013312.95808  84945454.10308  20744530.148 8  20744530.061 8
        52.250          49.250
  22575693.311 7 118636119.27307  92443724.55807  22575691.073 7  22575692.784 7
        45.500          46.750
  22229937.988 7 116819170.09707  91027922.62407  22229939.270 7  22229937.121 7
        45.500          43.750
  22173964.627 8 116525033.55308  90798743.67106  22173961.947 6  22173964.274 6
        48.000          40.500
 20  9  1  0  1  0.0000000  0 10G24G10G20G11G01G21G32G12G25G31
  24010623.420 6 126176735.60506  98319558.54106  24010623.773 6  24010623.009 6
        38.750          36.750
  20452080.948 8 107476448.46108  83747896.57708  20452081.222 8  20452080.622 8
        52.000          51.000
  22036709.051 7 115803715.91307  90236668.15906  22036706.835 6  22036707.884 6
        46.250          37.750
  24465576.402 6 128567485.04506 100182426.27903  24465574.455 3  24465575.763 3
        37.750          21.500
  24308733.911 6 127743261.33806  99540218.21003  24308734.972 3  24308733.581 3
        36.750          23.250
  22924162.394 7 120467302.55507  93870619.28205  22924159.411 5  22924161.223 5
        45.500          35.250
  20739328.672 8 108985978.98108  84924154.90708  20739328.828 8  20739328.534 8
        52.000          49.500
  22572595.633 7 118619840.03507  92431039.45507  22572593.401 7  22572595.115 7
        44.250          46.750
  22216828.305 7 116750277.28807  90974239.95307  22216829.581 7  22216827.456 7
        45.500          44.000
  22156386.996 7 116432662.40407  90726766.19806  22156384.938 6  22156386.643 6
        47.000          40.750
 20  9  1  0  1 30.0000000  0 10G24G10G20G11G01G21G32G12G25G31
  24030825.548 6 126282896.37206  98402281.20906  24030825.437 6  24030825.164 6
        37.000          36.500
  20457587.451 8 107505386.17008  83770445.43608  20457587.793 8  20457587.125 8
        52.000          51.000
  22054603.007 7 115897747.53507  90309939.53006  22054600.533 6  22054601.849 6
        46.500          37.750
  24470301.440 6 128592316.68106 100201775.63103  24470299.087 3  24470300.814 3
        36.750          20.250
  24297905.940 6 127686365.23606  99495883.59504  24297908.226 4  24297905.601 4
        36.500          24.000
  22932901.768 7 120513226.20307  93906403.92805  22932898.187 5  22932900.570 5
        45.000          34.750
  20734167.536 8 108958855.71808  84903019.90808  20734167.485 8  20734167.402 8
        51.500          49.500
  22569611.900 7 118604159.77407  92418821.08407  22569609.635 7  22569611.368 7
        44.250          46.750
  22203801.266 7 116681819.15507  90920895.98408  22203802.166 8  22203800.395 8
        46.000          49.500
  22138873.108 7 116340627.04707  90655050.36406  22138870.871 6  22138872.751 6
        47.250          40.750
 20  9  1  0  2  0.0000000  0 10G24G10G20G11G01G21G32G12G25G31
  24051040.815 6 126389131.04106  98485061.44906  24051041.942 6  24051040.453 6
        38.500          37.000
  20463192.113 8 107534838.17708  83793395.04808  20463192.296 8  20463191.792 8
        51.750          50.750
  22072555.646 7 115992088.69807  90383452.09306  22072553.570 6  22072554.479 6
        46.000          37.500
  24475118.806 6 128617632.96406 100221502.57103  24475116.925 3  24475118.158 3
        37.750          21.250
  24287175.441 6 127629972.67706  99451941.37404  24287177.177 4  24287175.124 4
        37.750          24.750
  22941709.436 7 120559511.59807  93942470.45605  22941706.264 5  22941708.225 5
        44.750          34.750
  20729046.213 8 108931943.39408  84882049.27108  20729046.167 8  20729046.079 8
        51.500          49.500
  22566742.008 7 118589080.14007  92407070.73707  22566739.243 7  22566741.472 7
        45.250          46.250
  22190857.231 7 116613798.73607  90867893.09008  22190858.053 8  22190856.373 8
        45.750          49.500
  22121423.672 7 116248929.27707  90583597.59206  22121421.397 6  22121423.319 6
        47.250          40.500
 20  9  1  0  2 30.0000000  0 10G24G10G20G11G01G21G32G12G25G31
  24071270.085 6 126495437.55206  98567897.69906  24071271.058 6  24071269.701 6
        38.500          36.500
  20468894.716 8 107564804.55308  83816745.46408  20468894.881 8  20468894.395 8
        52.000          50.750
  22090566.339 7 116086737.50307  90457204.38006  22090564.434 6  22090565.168 6
        46.750          37.000
  24480028.787 6 128643431.59906 100241605.42203  24480026.623 3  24480028.117 3
        37.000          19.750
  24276541.203 6 127574085.52306  99408392.95804  24276542.232 4  24276540.908 4
        37.750          25.250
  22950585.429 7 120606156.38707  93978817.03905  22950582.180 5  22950584.209 5
        45.250          35.000
  20723965.160 8 108905242.26708  84861243.20308  20723965.281 8  20723965.026 8
        52.000          49.750
  22563986.958 7 118574602.22407  92395789.25807  22563984.299 7  22563986.400 7
        45.000          46.750
  22177997.542 7 116546218.96607  90815233.55908  22177997.966 8  22177996.671 8
        46.250          49.750
  22104039.029 7 116157570.65607  90512409.08206  22104036.297 6  22104038.676 6
        47.250          41.250
 20  9  1  0  3  0.0000000  0 10G24G10G20G11G01G21G32G12G25G31
  24091512.654 6 126601813.80106  98650788.27005  24091513.945 5  24091512.239 5
        37.750          35.750
  20474695.117 8 107595285.28008  83840496.67608  20474695.152 8  20474694.796 8
        51.750          50.750
  22108635.869 7 116181692.17207  90531195.00106  22108633.666 6  22108634.689 6
        46.000          37.000
  24485029.440 6 128669711.36806 100262083.16703  24485027.364 3  24485028.765 3
        36.750          18.500
  24266001.630 6 127518705.51006  99365239.72804  24266003.271 4  24266001.340 4
        40.250          25.250
  22959529.760 7 120653159.19907  94015442.58605  22959527.174 5  22959528.526 5
        45.750          35.500
  20718924.559 8 108878752.56008  84840601.88108  20718924.623 8  20718924.425 8
        51.500          49.500
  22561346.957 7 118560727.40507  92384977.72607  22561344.396 7  22561346.385 7
        44.500          46.500
  22165221.896 7 116479082.86007  90762919.74108  22165222.554 8  22165221.029 8
        45.250          49.500
  22086718.862 7 116066552.90907  90441486.18806  22086716.111 6  22086718.505 6
        47.750          41.000
 20  9  1  0  3 30.0000000  0 10G24G10G20G11G01G21G32G12G25G31
  24111768.885 6 126708258.26706  98733731.99506  24111769.644 6  24111768.470 6
        38.750          36.250
  20480592.997 8 107626280.37608  83864648.69208  20480593.218 8  20480592.680 8
        52.000          51.000
  22126762.754 7 116276950.46707  90605422.22206  22126760.466 6  22126761.552 6
        46.750          37.000
  24490120.770 6 128696470.21806 100282934.20203  24490119.295 3  24490120.113 3
        36.000          18.000
  24255560.780 6 127463834.40706  99322483.03003  24255561.008 3  24255560.490 3
        38.500          23.000
  22968541.888 7 120700517.33907  94052345.01005  22968538.781 5  22968540.654 5
        46.000          35.750
  20713923.770 8 108852474.54308  84820125.50608  20713924.083 8  20713923.627 8
        51.750          50.000
  22558821.571 7 118547456.53507  92374636.80407  22558819.307 7  22558820.999 7
        45.000          47.250
  22152531.554 7 116412393.33807  90710953.90408  22152531.723 8  22152530.705 8
        44.500          49.500
  22069463.647 7 115975877.96807  90370830.40406  22069461.108 6  22069463.285 6
        47.000          41.500
 20  9  1  0  4  0.0000000  0 10G24G10G20G11G01G21G32G12G25G31
  24132036.980 6 126814768.03406  98816726.61906  24132037.859 6  24132036.574 6
        39.250          36.750
  20486589.110 8 107657789.78608  83889201.47808  20486589.266 8  20486588.793 8
        52.000          50.750
  22144947.620 7 116372510.47207  90679884.53206  22144945.406 6  22144946.436 6
        46.250          37.250
  24495304.783 6 128723705.44006 100304156.44803  24495302.344 3  24495304.144 3
        36.500          18.750
  24245215.488 6 127409473.94206  99280124.23703  24245216.603 3  24245215.211 3
        38.500          23.250
  22977621.093 7 120748228.94107  94089522.85905  22977618.549 5  22977619.859 5
        45.500          35.750
  20708963.571 8 108826408.48108  84799814.29508  20708963.909 8  20708963.428 8
        51.750          49.750
  22556411.149 7 118534790.52907  92364767.20307  22556409.111 7  22556410.564 7
        45.000          47.000
  22139926.300 7 116346153.37307  90659338.37908  22139926.590 8  22139925.415 8
        45.250          49.000
  22052274.808 7 115885547.34507  90300442.94806  22052271.837 6  22052274.455 6
        47.500          41.500
 20  9  1  0  4 30.0000000  0 10G24G10G20G11G01G21G32G12G25G31
  24152316.965 6 126921340.98106  98899770.48206  24152317.821 6  24152316.532 6
        39.750          37.000
  20492683.236 8 107689813.48108  83914155.00208  20492683.198 8  20492682.919 8
        51.750          50.750
  22163189.109 7 116468370.80907  90754580.87606  22163187.055 6  22163187.938 6
        46.250          37.250
  24500577.344 6 128751415.70806 100325748.88103  24500575.254 3  24500576.741 3
        36.000          18.000
  24234969.382 6 127355625.90206  99238164.76004  24234970.040 4  24234969.105 4
        39.000          25.000
  22986766.913 7 120796292.18407  94126974.70706  22986764.489 6  22986765.688 6
        46.250          36.000
  20704043.733 8 108800554.59708  84779668.42008  20704043.997 8  20704043.590 8
        51.750          49.750
  22554116.350 7 118522730.84607  92355370.06307  22554113.653 7  22554115.742 7
        44.750          47.000
  22127407.004 7 116280365.87307  90608075.41408  22127407.612 8  22127406.119 8
        44.750          49.500
  22035150.847 8 115795562.58008  90230325.00207  22035148.228 7  22035150.494 7
        48.250          42.000
 20  9  1  0  5  0.0000000  0 10G24G10G20G11G01G21G32G12G25G31
  24172608.821 6 127027975.51406  98982862.31906  24172609.946 6  24172608.325 6
        39.500          37.000
  20498874.798 8 107722351.37608  83939509.20208  20498874.808 8  20498874.481 8
        51.750          50.750
  22181487.198 7 116564528.82707  90829509.16706  22181485.422 6  22181486.036 6
        45.500          36.750
  24505941.337 6 128779599.10106 100347709.94303  24505938.559 3  24505940.756 3
        36.250          18.500
  24224819.535 6 127302292.00606  99196605.88004  24224821.608 4  24224819.272 4
        38.500          25.250
  22995979.477 7 120844704.69607  94164698.73005  22995976.331 5  22995978.252 5
        45.500          35.500
  20699164.281 8 108774913.19208  84759688.10908  20699164.460 8  20699164.143 8
        51.500          49.750
  22551937.402 7 118511278.41507  92346446.10307  22551934.461 7  22551936.794 7
        44.500          47.250
  22114974.989 7 116215033.74507  90557167.29208  22114975.504 8  22114974.109 8
        45.000          49.500
  22018093.396 7 115705925.47407  90160477.94806  22018091.009 6  22018093.039 6
        47.250          41.500
 20  9  1  0  5 30.0000000  0 10G24G10G20G11G01G21G32G12G25G31
  24192912.292 6 127134669.26306  99066000.29606  24192913.214 6  24192911.742 6
        39.500          37.000
  20505164.394 8 107755403.41108  83965264.03008  20505164.417 8  20505164.095 8
        52.250          51.000
  22199841.927 7 116660982.74007  90904668.02606  22199839.854 6  22199840.751 6
        46.750          36.750
  24511393.065 6 128808253.78106 100370038.26402  24511390.777 2  24511392.489 2
        37.250          16.500
  24214768.699 6 127249473.91406  99155448.96004  24214770.183 4  24214768.440 4
        38.750          24.000
  23005258.206 7 120893464.33607  94202693.23905  23005255.395 5  23005256.995 5
        46.250          35.250
  20694325.540 8 108749484.52708  84739873.56908  20694325.431 8  20694325.402 8
        52.250          49.750
  22549873.368 7 118500433.93807  92337995.86807  22549871.080 7  22549872.751 7
        44.250          47.250
  22102629.625 7 116150159.94707  90506616.30708  22102630.249 8  22102628.727 8
        46.000          49.750
  22001102.434 7 115616637.65307  90090903.06406  22001100.100 6  22001102.081 6
        47.500          41.250
 20  9  1  0  6  0.0000000  0 10G24G10G20G11G01G21G32G12G25G31
  24213226.338 6 127241420.47206  99149183.04106  24213227.590 6  24213225.797 6
        37.500          36.500
  20511551.941 8 107788969.42208  83991419.35608  20511551.853 8  20511551.642 8
        52.000          50.750
  22218251.956 7 116757730.67707  90980056.00706  22218250.087 6  22218250.745 6
        46.000          36.000
  24516935.178 6 128837377.74706 100392732.26702  24516933.040 2  24516934.593 2
        38.000          16.500
  24204816.481 6 127197173.31006  99114695.26004  24204817.456 4  24204816.222 4
        38.750          24.000
  23014602.915 7 120942569.36407  94240956.87805  23014599.749 5  23014601.722 5
        45.750          34.750
  20689526.997 8 108724268.84508  84720224.98508  20689527.013 8  20689526.859 8
        52.000          49.750
  22547925.737 7 118490197.96907  92330019.79507  22547923.523 7  22547925.129 7
        44.750          47.500
  22090372.012 7 116085747.29907  90456424.65408  22090373.138 8  22090371.132 8
        46.000          50.000
  21984178.067 7 115527700.72507  90021601.59306  21984175.944 6  21984177.701 6
        47.750          41.500
 20  9  1  0  6 30.0000000  0 10G24G10G20G11G01G21G32G12G25G31
  24233551.036 6 127348227.25406  99232409.09706  24233552.027 6  24233550.500 6
        39.250          36.750
  20518037.100 8 107823049.34908  84017975.14008  20518036.931 8  20518036.801 8
        52.250          50.750
  22236719.070 7 116854770.95807  91055671.77806  22236716.319 6  22236717.868 6
        45.500          36.250
  24522566.681 6 128866968.96206 100415790.36602  24522564.145 2  24522566.127 2
        36.750          17.000
  24194962.583 6 127145391.91806  99074346.15104  24194963.534 4  24194962.355 4
        39.500          24.750
  23024012.203 7 120992017.07607  94279487.54705  23024009.617 5  23024011.014 5
        46.250          35.750
  20684769.324 8 108699266.43508  84700742.58808  20684769.077 8  20684769.195 8
        52.000          50.000
  22546093.982 7 118480572.43307  92322519.39207  22546091.978 7  22546093.379 7
        45.000          47.500
  22078203.287 7 116021798.71607  90406594.62008  22078204.257 8  22078202.424 8
        46.500          50.250
  21967321.448 8 115439116.30008  89952574.79106  21967318.530 6  21967321.091 6
        48.000          41.750
 20  9  1  0  7  0.0000000  0 10G24G10G20G11G01G21G32G12G25G31
  24253885.587 6 127455086.42706  99315675.98806  24253886.856 6  24253885.064 6
        38.500          36.500
  20524620.007 8 107857643.00308  84044931.22908  20524619.795 8  20524619.717 8
        52.000          50.500
  22255239.548 7 116952101.13807  91131513.45306  22255237.780 6  22255238.319 6
        46.000          36.000
  24528286.050 6 128897025.21106 100439210.80203  24528283.999 3  24528285.509 3
        36.250          18.000
  24185208.500 6 127094131.25406  99034402.80904  24185209.405 4  24185208.299 4
        39.000          25.000
  23033486.541 7 121041805.80907  94318283.92905  23033484.413 5  23033485.365 5
        46.000          35.500
  20680051.960 8 108674477.56508  84681426.58708  20680051.905 8  20680051.849 8
        52.250          49.500
  22544378.296 7 118471558.16307  92315495.29607  22544376.664 7  22544377.679 7
        45.000          47.250
  22066122.778 7 115958317.05407  90357128.41808  22066124.088 8  22066121.924 8
        46.250          50.000
  21950531.360 8 115350886.08608  89883824.00407  21950529.130 7  21950531.021 7
        48.250          42.000
 20  9  1  0  7 30.0000000  0 10G24G10G20G11G01G21G32G12G25G31
  24274229.991 6 127561997.47406  99398983.30706  24274231.133 6  24274229.468 6
        38.750          36.500
  20531300.746 8 107892750.25908  84072287.52808  20531300.551 8  20531300.456 8
        51.750          50.500
  22273815.928 7 117049719.29007  91207579.50706  22273814.291 6  22273814.703 6
        45.500          36.250
  24534093.569 5 128927544.58105 100462992.09602  24534091.684 2  24534092.975 2
        35.000          16.750
  24175552.551 6 127043393.00606  98994866.53004  24175554.349 4  24175552.359 4
        38.250          24.500
  23043025.684 7 121091933.04507  94357344.10106  23043023.824 6  23043024.535 6
        46.250          36.250
  20675375.601 8 108649902.54308  84662277.21808  20675375.482 8  20675375.490 8
        51.750          50.000
  22542779.454 7 118463155.84307  92308948.04607  22542777.612 7  22542778.833 7
        44.750          47.250
  22054132.178 7 115895305.14907  90308028.25508  22054132.909 8  22054131.338 8
        45.750          50.000
  21933809.519 8 115263011.65008  89815350.44707  21933806.925 7  21933809.180 7
        48.250          42.000
 20  9  1  0  8  0.0000000  0 10G24G10G20G11G01G21G32G12G25G31
  24294583.990 6 127668957.55106  99482328.80906  24294585.176 6  24294583.440 6
        38.250          36.250
  20538079.190 8 107928370.91808  84100043.87908  20538079.012 8  20538078.900 8
        52.000          50.250
  22292446.454 7 117147623.45507  91283868.43505  22292445.002 5  22292445.220 5
        44.750          35.750
  24539988.610 5 128958525.02905 100487132.67302  24539986.701 2  24539988.016 2
        35.250          13.750
  24165997.055 6 126993178.78906  98955738.57504  24165998.943 4  24165996.881 4
        40.000          25.000
  23052628.942 7 121142396.83207  94396666.50605  23052626.736 5  23052627.816 5
        45.500          35.500
  20670739.883 8 108625541.64008  84643294.69508  20670739.871 8  20670739.772 8
        52.000          49.750
  22541296.881 7 118455366.03407  92302878.07407  22541295.171 7  22541296.255 7
        44.750          47.250
  22042231.346 7 115832765.83207  90259296.34908  22042232.240 8  22042230.506 8
        46.000          49.750
  21917155.609 8 115175494.65008  89747155.41007  21917153.177 7  21917155.270 7
        48.500          42.250
 20  9  1  0  8 30.0000000  0 10G24G10G20G11G01G21G32G12G25G31
  24314946.461 6 127775965.08106  99565711.29506  24314947.550 6  24314945.961 6
        37.000          36.000
  20544955.195 8 107964504.76808  84128200.12008  20544955.183 8  20544954.891 8
        51.750          50.500
  22311131.720 7 117245811.50707  91360378.56806  22311129.158 6  22311130.500 6
        45.000          36.000
  24545971.799 6 128989964.81606 100511631.20202  24545969.280 2  24545971.115 2
        36.000          15.500
  24156542.142 6 126943490.11906  98917020.14604  24156542.901 4  24156541.950 4
        38.000          24.500
  23062295.401 7 121193195.13507  94436249.57905  23062292.609 5  23062294.266 5
        45.500          35.250
  20666144.907 8 108601395.13208  84624479.23208  20666144.913 8  20666144.796 8
        52.250          50.000
  22539931.677 7 118448189.62807  92297286.07707  22539929.314 7  22539931.065 7
        44.500          47.000
  22030421.379 7 115770701.92607  90210934.88908  22030421.701 8  22030420.552 8
        45.250          49.750
  21900569.893 8 115088336.54308  89679240.01607  21900567.124 7  21900569.572 7
        49.250          42.500
 20  9  1  0  9  0.0000000  0 10G24G10G20G11G01G21G32G12G25G31
  24335317.927 6 127883018.05506  99649129.20206  24335319.194 6  24335317.516 6
        38.000          36.250
  20551928.944 8 108001151.60508  84156756.09008  20551928.853 8  20551928.640 8
        51.250          50.500
  22329869.042 7 117344281.83107  91437108.65605  22329867.188 5  22329867.799 5
        45.750          35.250
  24552041.756 5 129021861.49805 100536485.73602  24552039.123 2  24552041.086 2
        35.500          16.500
  24147186.872 6 126894328.56106  98878712.45304  24147188.155 4  24147186.685 4
        39.250          25.750
  23072024.881 7 121244325.53707  94476091.43505  23072022.408 5  23072023.750 5
        46.000          35.000
  20661591.031 8 108577463.33608  84605831.07708  20661590.856 8  20661590.911 8
        51.750          49.750
  22538683.052 7 118441628.15107  92292173.24507  22538680.890 7  22538682.418 7
        44.250          47.250
  22018701.207 7 115709116.21807  90162946.05308  22018701.945 8  22018700.367 8
        46.000          49.750
  21884052.949 8 115001538.92508  89611605.52707  21884050.198 7  21884052.645 7
        48.500          42.500
 20  9  1  0  9 30.0000000  0 10G24G10G20G11G01G21G32G12G25G31
  24355697.985 6 127990113.61306  99732580.29806  24355698.743 6  24355697.628 6
        38.750          36.000
  20559000.210 8 108038311.17208  84185711.59008  20559000.160 8  20558999.902 8
        51.750          50.500
  22348661.022 7 117443032.17507  91514056.95205  22348658.520 5  22348659.802 5
        45.750          35.250
  24558197.773 5 129054213.24105 100561694.91702  24558195.604 2  24558197.080 2
        35.250          15.750
  24137932.199 6 126845695.66306  98840816.72804  24137933.815 4  24137931.989 4
        40.500          26.250
  23081817.926 7 121295786.01607  94516190.49705  23081814.864 5  23081816.800 5
        45.250          34.750
  20657077.854 8 108553746.53008  84587350.45208  20657077.750 8  20657077.725 8
        51.750          50.000
  22537551.434 7 118435681.97907  92287539.87407  22537549.337 7  22537550.795 7
        44.750          47.250
  22007073.982 7 115648011.51107  90115332.01608  22007074.108 8  22007073.124 8
        45.250          50.000
  21867604.720 8 114915103.48808  89544253.26307  21867602.081 7  21867604.412 7
        48.250          42.500
 20  9  1  0 10  0.0000000  0 10G24G10G20G11G01G21G32G12G25G31
  24376085.172 6 128097250.76506  99816063.81306  24376086.601 6  24376084.815 6
        38.000          36.000
  20566168.808 8 108075983.20408  84215066.41308  20566169.043 8  20566168.491 8
        50.750          50.250
  22367505.384 7 117542060.56207  91591221.91205  22367502.908 5  22367504.137 5
        45.000          34.500
  24564439.545 5 129087017.71805 100587256.81102  24564438.454 2  24564438.915 2
        34.250          12.250
  24128778.425 6 126797593.02206  98803334.19704  24128780.475 4  24128778.197 4
        39.000          26.250
  23091672.660 7 121347574.10507  94556544.84005  23091669.560 5  23091671.529 5
        45.500          34.500
  20652605.515 8 108530245.03308  84569037.60108  20652605.627 8  20652605.377 8
        51.250          49.750
  22536537.142 7 118430351.81707  92283386.51407  22536535.191 7  22536536.490 7
        44.250          47.250
  21995538.023 7 115587390.55607  90068094.93808  21995538.449 8  21995537.152 8
        45.500          50.000
  21851225.953 7 114829031.72707  89477184.40107  21851223.310 7  21851225.663 7
        47.750          42.750
 20  9  1  0 10 30.0000000  0 10G24G10G20G11G01G21G32G12G25G31
  24396480.077 6 128204427.88606  99899578.47405  24396481.372 5  24396479.751 5
        36.500          34.500
  20573435.264 8 108114167.41808  84244820.33708  20573435.309 8  20573434.951 8
        51.500          50.000
  22386402.882 7 117641364.83507  91668601.83605  22386400.486 5  22386401.653 5
        45.750          35.250
  24570768.659 5 129120272.69305 100613169.74902  24570766.560 2  24570767.975 2
        35.750          13.000
  24119725.646 6 126750022.13906  98766265.99204  24119726.638 4  24119725.445 4
        38.750          24.000
  23101589.723 7 121399687.59907  94597152.73905  23101587.073 5  23101588.579 5
        46.000          35.250
  20648174.457 8 108506959.12208  84550892.73308  20648174.522 8  20648174.319 8
        51.750          49.750
  22535640.601 7 118425638.16907  92279713.55307  22535637.858 7  22535639.944 7
        44.500          46.750
  21984094.483 7 115527256.08607  90021236.93608  21984095.540 8  21984093.589 8
        45.500          50.250
  21834916.475 8 114743325.13408  89410400.07407  21834913.876 7  21834916.167 7
        48.250          42.500
 20  9  1  0 11  0.0000000  0 10G24G10G20G11G01G21G32G12G25G31
  24416882.182 6 128311641.92206  99983121.87005  24416883.937 5  24416881.887 5
        36.500          34.500
  20580798.681 8 108152863.53308  84274973.14708  20580798.806 8  20580798.368 8
        51.500          50.250
  22405351.769 7 117740942.78507  91746195.00605  22405349.971 5  22405350.540 5
        45.500          35.500
  24577182.149 5 129153976.24105 100639432.29002  24577180.312 2  24577181.550 2
        35.750          14.250
  24110775.234 6 126702984.38206  98729613.18503  24110775.554 3  24110775.042 3
        38.500          23.750
  23111568.228 7 121452124.53907  94638012.66505  23111566.389 5  23111567.084 5
        46.000          35.500
  20643784.440 8 108483889.10108  84532916.08508  20643784.359 8  20643784.306 8
        52.000          50.000
  22534860.574 7 118421542.01707  92276521.75207  22534858.092 7  22534859.917 7
        45.250          47.250
  21972744.223 7 115467610.86107  89974760.15908  21972745.506 8  21972743.343 8
        46.000          50.500
  21818676.741 8 114657985.41308  89343901.61307  21818674.271 7  21818676.446 7
        48.250          42.500
 20  9  1  0 11 30.0000000  0 10G24G10G20G11G01G21G32G12G25G31
  24437291.365 6 128418891.65306 100066693.09105  24437292.731 5  24437291.084 5
        37.750          35.250
  20588259.601 8 108192071.23208  84305524.59508  20588259.615 8  20588259.293 8
        51.500          50.250
  22424352.638 7 117840792.85207  91824000.22006  22424351.156 6  22424351.418 6
        45.500          36.250
  24583680.388 6 129188126.11906 100666042.51502  24583678.165 2  24583679.749 2
        37.000          13.750
  24101925.675 6 126656481.28206  98693377.00704  24101926.889 4  24101925.456 4
        37.750          24.750
  23121607.685 7 121504882.45807  94679122.70905  23121605.548 5  23121606.541 5
        46.500          35.500
  20639435.366 8 108461035.29508  84515107.91008  20639435.491 8  20639435.241 8
        51.250          50.000
  22534198.896 7 118418064.01507  92273811.63107  22534196.153 7  22534198.239 7
        44.750          47.000
  21961488.109 7 115408457.59807  89928666.74008  21961489.127 8  21961487.224 8
        46.500          50.750
  21802507.544 8 114573013.93108  89277690.08707  21802504.397 7  21802507.245 7
        48.000          42.250
 20  9  1  0 12  0.0000000  0 10G24G10G20G11G01G21G32G12G25G31
  24457707.095 6 128526174.94706 100150290.46206  24457707.861 6  24457706.782 6
        38.250          36.250
  20595817.869 8 108231790.14408  84336474.38908  20595817.694 8  20595817.561 8
        52.000          50.250
  22443404.681 7 117940912.57407  91902015.55205  22443402.915 5  22443403.461 5
        44.750          35.000
  24590263.634 5 129222720.25105 100692998.99402  24590261.511 2  24590262.955 2
        35.750          15.500
  24093178.595 6 126610514.20706  98657558.54604  24093179.823 4  24093178.336 4
        38.000          24.750
  23131707.796 7 121557959.22707  94720481.20205  23131705.852 5  23131706.656 5
        44.750          34.750
  20635127.532 8 108438398.00308  84497468.45408  20635127.767 8  20635127.421 8
        51.750          50.000
  22533654.920 7 118415204.73607  92271583.63207  22533652.086 7  22533654.277 7
        44.250          46.750
  21950325.602 7 115349798.99707  89882958.77408  21950326.754 8  21950324.704 8
        45.500          51.000
  21786408.001 8 114488411.99208  89211766.50207  21786405.031 7  21786407.702 7
        48.500          42.750
 20  9  1  0 12 30.0000000  0 10G24G10G20G11G01G21G32G12G25G31
  24478128.039 6 128633489.61206 100233912.29706  24478128.889 6  24478127.731 6
        38.500          36.000
  20603473.322 8 108272019.95608  84367822.29008  20603473.112 8  20603473.018 8
        51.500          50.250
  22462507.964 7 118041299.93207  91980239.43605  22462505.767 5  22462506.726 5
        45.750          35.250
  24596930.534 5 129257756.26805 100720299.74202  24596928.495 2  24596929.850 2
        34.500          15.000
  24084533.375 6 126565084.62506  98622158.91404  24084535.783 4  24084533.080 4
        37.500          27.000
  23141868.683 7 121611352.68907  94762086.45905  23141866.085 5  23141867.534 5
        43.750          33.250
  20630861.226 8 108415977.61208  84479998.00708  20630860.998 8  20630861.115 8
        51.500          49.750
  22533228.383 7 118412964.80107  92269838.23507  22533226.048 7  22533227.744 7
        44.250          47.000
  21939257.759 7 115291637.75607  89837638.35508  21939259.126 8  21939256.883 8
        46.500          51.000
  21770379.554 8 114404181.48808  89146132.35107  21770376.562 7  21770379.259 7
        48.000          43.000
 20  9  1  0 13  0.0000000  0 10G24G10G20G11G01G21G32G12G25G31
  24498555.445 6 128740833.88106 100317557.18905  24498556.057 5  24498555.132 5
        38.250          35.750
  20611225.861 8 108312760.27408  84399567.98908  20611225.649 8  20611225.562 8
        51.500          50.000
  22481661.538 7 118141953.01107  92058670.36705  22481659.489 5  22481660.286 5
        44.250          33.750
  24603681.069 5 129293232.11605 100747943.23002  24603679.420 2  24603680.403 2
        34.250          14.000
  24075990.874 6 126520193.91306  98587179.18104  24075993.133 4  24075990.602 4
        38.000          25.500
  23152088.384 7 121665060.37807  94803936.58805  23152085.290 5  23152087.235 5
        44.250          33.250
  20626636.062 8 108393774.41608  84462696.81308  20626635.981 8  20626635.955 8
        52.250          50.000
  22532920.258 7 118411344.89507  92268575.98407  22532917.927 7  22532919.641 7
        44.250          47.000
  21928285.453 7 115233976.52007  89792707.55408  21928286.377 8  21928284.577 8
        46.500          51.000
  21754421.894 8 114320323.58008  89080788.55307  21754418.996 7  21754421.604 7
        48.250          42.750
 20  9  1  0 13 30.0000000  0 10G24G10G20G11G01G21G32G12G25G31
  24518987.164 6 128848205.58806 100401223.46905  24518987.862 5  24518986.860 5
        37.250          34.250
  20619075.545 8 108354010.67608  84431711.15608  20619075.484 8  20619075.241 8
        51.500          50.250
  22500865.392 7 118242869.58707  92137306.63705  22500862.943 5  22500864.109 5
        45.250          34.750
  24610515.708 5 129329145.31705 100775927.56302  24610513.267 2  24610515.015 2
        35.750          15.750
  24067551.838 6 126475843.45406  98552620.40903  24067553.048 3  24067551.579 3
        37.250          23.500
  23162368.086 7 121719079.95407  94846029.74105  23162364.875 5  23162366.937 5
        45.250          33.750
  20622452.238 8 108371788.75108  84445565.12808  20622452.264 8  20622452.131 8
        52.000          50.000
  22532729.752 7 118410345.08807  92267796.91907  22532727.167 7  22532729.158 7
        45.000          47.000
  21917408.744 7 115176817.92707  89748168.41908  21917409.348 8  21917407.868 8
        46.250          51.250
  21738535.366 8 114236839.80908  89015736.28307  21738532.399 7  21738535.076 7
        48.000          42.750
 20  9  1  0 14  0.0000000  0 11G24G10G22G20G11G01G21G32G12G25G31
  24539424.327 6 128955603.71906 100484910.34005  24539425.104 5  24539424.064 5
        36.000          33.500
  20627022.486 8 108395770.76108  84464251.47408  20627022.474 8  20627022.173 8
        51.500          50.000
  25582776.791 5
        31.500
  22520118.751 7 118344047.77607  92216146.75005  22520117.079 5  22520117.468 5
        45.250          35.000
  24617432.880 6 129365493.66706 100804250.99502  24617430.567 2  24617432.210 2
        37.500          17.000
  24059215.071 6 126432034.58806  98518483.60903  24059215.596 3  24059214.785 3
        38.000          22.750
  23172706.487 7 121773409.34107  94888364.31405  23172703.445 5  23172705.356 5
        45.250          34.000
  20618310.034 8 108350020.90008  84428603.16308  20618309.767 8  20618309.927 8
        52.000          50.000
  22532657.612 7 118409966.72307  92267502.10307  22532654.937 7  22532657.027 7
        44.500          46.750
  21906627.438 7 115120164.66807  89704023.05108  21906628.319 8  21906626.567 8
        46.000          51.250
  21722720.479 8 114153731.68108  88950976.71607  21722717.705 7  21722720.207 7
        49.000          43.500
 20  9  1  0 14 30.0000000  0 11G24G10G22G20G11G01G21G32G12G25G31
  24559866.077 6 129063026.27206 100568616.23605  24559866.787 5  24559865.876 5
        36.000          33.000
  20635065.820 8 108438040.10208  84497188.61508  20635066.222 8  20635065.499 8
        51.500          49.750
  25563661.784 5 134337948.40615
        33.000
  22539421.877 7 118445485.42007  92295189.04005  22539420.072 5  22539420.608 5
        45.250          34.750
  24624432.552 5 129402275.00705 100832911.75002  24624429.985 2  24624431.868 2
        34.500          14.250
  24050981.421 6 126388768.60006  98484769.86503  24050981.497 3  24050981.149 3
        38.750          22.250
  23183103.968 7 121828045.99407  94930938.31105  23183100.415 5  23183102.837 5
        44.750          33.250
  20614209.413 8 108328471.20408  84411811.17608  20614209.204 8  20614209.306 8
        52.000          49.750
  22532703.607 7 118410209.79007  92267691.51607  22532701.308 7  22532703.040 7
        45.750          46.750
  21895943.515 7 115064019.31707  89660273.44408  21895944.222 8  21895942.661 8
        46.000          51.000
  21706977.039 8 114071000.80408  88886511.12107  21706975.063 7  21706976.776 7
        48.000          43.250
 20  9  1  0 15  0.0000000  0 11G24G10G22G20G11G01G21G32G12G25G31
  24580312.501 6 129170470.68006 100652339.17205  24580312.798 5  24580312.327 5
        37.500          33.500
  20643206.306 8 108480818.25008  84530522.22608  20643206.694 8  20643205.980 8
        51.750          50.000
  25544555.860 5 134237546.33105 104600671.08712  25544552.543 2  25544555.503 2
        33.250          15.000
  22558773.728 7 118547180.32607  92374431.79205  22558771.824 5  22558772.459 5
        44.250          33.500
  24631512.657 5 129439487.27105 100861908.30502  24631511.067 2  24631512.130 2
        34.000          12.000
  24042852.332 6 126346046.84106  98451480.18504  24042852.020 4  24042852.051 4
        40.750          25.750
  23193559.024 7 121882987.73807  94973750.02505  23193556.464 5  23193557.898 5
        44.250          33.250
  20610149.916 8 108307140.01208  84395189.44708  20610149.936 8  20610149.809 8
        52.000          50.000
  22532868.278 7 118411074.78807  92268365.55107  22532865.757 7  22532867.737 7
        44.750          46.750
  21885356.454 7 115008384.46407  89616921.64008  21885357.129 8  21885355.600 8
        46.000          51.250
  21691306.035 8 113988648.48608  88822340.49507  21691303.564 7  21691305.767 7
        48.750          43.250
 20  9  1  0 15 30.0000000  0 11G24G10G22G20G11G01G21G32G12G25G31
  24600761.968 6 129277935.57506 100736078.06905  24600762.861 5  24600761.749 5
        37.500          34.000
  20651443.564 8 108524104.71608  84564251.93008  20651443.799 8  20651443.229 8
        51.750          50.250
  25525459.396 5 134137194.45005 104522474.84702  25525455.705 2  25525458.686 2
        35.750          15.750
  22578174.276 7 118649130.48607  92453873.44105  22578172.294 5  22578173.007 5
        44.500          33.750
  24638675.871 5 129477127.92705 100891238.67002  24638673.762 2  24638675.299 2
        34.000          14.000
  24034826.214 6 126303870.60606  98418615.59204  24034827.930 4  24034825.942 4
        41.250          28.000
  23204071.441 7 121938232.44907  95016797.82505  23204069.293 5  23204070.297 5
        45.250          34.000
  20606132.595 8 108286027.70708  84378738.29708  20606132.581 8  20606132.502 8
        52.500          50.250
  22533151.139 7 118412562.00507  92269524.43907  22533148.730 7  22533150.607 7
        44.750          46.500
  21874867.263 7 114953262.71507  89573969.65108  21874867.753 8  21874866.392 8
        46.500          51.250
  21675707.287 8 113906676.16408  88758465.97307  21675704.528 7  21675707.024 7
        49.250          43.500
 20  9  1  0 16  0.0000000  0 11G24G10G22G20G11G01G21G32G12G25G31
  24621215.698 6 129385419.06606 100819831.45605  24621216.402 5  24621215.426 5
        36.750          33.750
  20659777.476 8 108567899.01108  84598377.34508  20659777.638 8  20659777.146 8
        50.750          50.000
  25506373.524 5 134036894.44005 104444319.01102  25506368.924 2  25506372.693 2
        34.500          16.500
  22597623.007 7 118751333.62307  92533512.21005  22597620.936 5  22597621.742 5
        44.250          33.750
  24645920.314 5 129515194.61905 100920901.01702  24645917.754 2  24645919.715 2
        34.000          12.750
  24026904.185 6 126262241.10406  98386177.04204  24026906.603 4  24026903.922 4
        39.000          26.250
  23214641.480 7 121993777.64707  95060079.76905  23214639.623 5  23214640.345 5
        44.750          34.250
  20602156.646 8 108265134.63408  84362457.98208  20602156.795 8  20602156.553 8
        52.000          50.000
  22533552.941 7 118414672.52207  92271169.00207  22533550.215 7  22533552.396 7
        44.750          46.500
  21864476.049 7 114898656.60307  89531419.45108  21864476.395 8  21864475.191 8
        46.250          51.000
  21660181.056 8 113825085.16008  88694888.57507  21660177.977 7  21660180.793 7
        48.500          43.250
 20  9  1  0 16 30.0000000  0 11G24G10G22G20G11G01G21G32G12G25G31
  24641672.127 5 129492919.01005 100903597.67405  24641672.944 5  24641671.877 5
        35.750          33.750
  20668207.511 8 108612200.61808  84632898.06908  20668207.939 8  20668207.167 8
        51.750          50.000
  25487296.626 5 133936648.26705 104366205.13202  25487292.182 2  25487295.714 2
        34.750          16.000
  22617119.352 7 118853787.83307  92613346.63305  22617117.291 5  22617118.074 5
        46.000          34.000
  24653244.479 6 129553684.98706 100950893.53302  24653242.089 2  24653243.831 2
        36.750          15.250
  24019086.343 6 126221159.59106  98354165.50404  24019088.289 4  24019086.057 4
        39.000          25.750
  23225268.338 7 122049621.06207  95103594.09405  23225265.428 5  23225267.216 5
        46.000          33.750
  20598222.617 8 108244461.10908  84346348.74208  20598222.858 8  20598222.524 8
        52.500          50.250
  22534073.363 7 118417406.35607  92273299.27307  22534070.144 7  22534072.822 7
        45.500          46.500
  21854183.599 7 114844568.70307  89489273.06208  21854184.039 8  21854182.745 8
        46.750          51.250
  21644727.660 8 113743877.17908  88631609.63907  21644724.796 7  21644727.388 7
        48.250          43.250
 20  9  1  0 17  0.0000000  0 11G24G10G22G20G11G01G21G32G12G25G31
  24662131.876 5 129600433.56805 100987375.26105  24662132.522 5  24662131.671 5
        35.750          34.000
  20676734.253 8 108657008.99808  84667813.68008  20676734.719 8  20676733.909 8
        52.000          50.000
  25468231.321 5 133836457.99005 104288134.84102  25468227.191 2  25468230.360 2
        33.000          15.500
  22636663.327 7 118956490.91207  92693374.96205  22636661.305 5  22636662.067 5
        44.250          33.500
  24660649.157 6 129592596.74406 100981214.35702  24660646.761 2  24660648.496 2
        36.000          13.750
  24011373.211 6 126180627.28306  98322581.92504  24011374.547 4  24011372.925 4
        39.000          24.750
  23235951.048 7 122105760.28107  95147338.91805  23235947.759 5  23235949.935 5
        45.250          33.250
  20594330.445 8 108224007.50808  84330410.87408  20594330.668 8  20594330.356 8
        52.000          50.000
  22534711.621 7 118420763.47307  92275915.22107  22534709.161 7  22534711.076 7
        45.250          46.750
  21843989.748 7 114791001.49307  89447532.39808  21843990.663 8  21843988.903 8
        46.750          51.500
  21629347.536 8 113663052.90208  88568629.70607  21629344.874 7  21629347.259 7
        48.250          43.250
 20  9  1  0 17 30.0000000  0 11G24G10G22G20G11G01G21G32G12G25G31
  24682593.001 5 129707960.92705 101071162.82905  24682594.108 5  24682592.809 5
        35.500          33.500
  20685357.244 8 108702323.63608  84703123.77908  20685357.653 8  20685356.905 8
        52.000          50.250
  25449176.040 5 133736325.64805 104210109.71302  25449172.556 2  25449175.057 2
        34.250          16.250
  22656253.921 7 119059440.74707  92773595.59505  22656251.568 5  22656252.674 5
        45.000          33.500
  24668133.934 5 129631927.83905 101011861.91802  24668131.099 2  24668133.322 2
        35.500          15.000
  24003765.185 6 126140645.42606  98291427.25504  24003766.033 4  24003764.913 4
        40.500          24.750
  23246689.952 7 122162192.97207  95191312.42305  23246686.750 5  23246688.844 5
        45.000          33.000
  20590480.101 8 108203774.17008  84314644.63708  20590480.454 8  20590480.012 8
        52.250          50.250
  22535469.453 7 118424744.85607  92279017.60507  22535466.896 7  22535468.908 7
        45.250          47.000
  21833895.737 7 114737957.51307  89406199.44708  21833896.856 8  21833894.897 8
        46.750          52.000
  21614040.403 8 113582614.13008  88505950.16907  21614037.575 7  21614040.108 7
        48.500          43.500
 20  9  1  0 18  0.0000000  0 11G24G10G22G20G11G01G21G32G12G25G31
  24703057.244 5 129815499.73105 101154959.31405  24703058.189 5  24703057.084 5
        35.750          32.750
  20694076.873 8 108748143.92608  84738827.89308  20694076.893 8  20694076.534 8
        51.750          49.750
  25430133.171 6 133636253.13906 104132131.17903  25430129.629 3  25430132.139 3
        36.250          18.500
  22675891.396 7 119162635.28707  92854006.88905  22675888.918 5  22675890.176 5
        43.500          32.500
  24675697.484 5 129671675.48805 101042834.12402  24675694.812 2  24675696.823 2
        33.250          14.250
  23996261.900 6 126101215.16806  98260702.36303  23996261.782 3  23996261.610 3
        37.750          23.000
  23257484.297 7 122218916.53607  95235512.58705  23257481.452 5  23257483.175 5
        44.750          33.250
  20586671.788 8 108183761.47908  84299050.33408  20586672.214 8  20586671.690 8
        51.750          49.750
  22536346.101 7 118429350.57007  92282606.48607  22536343.571 7  22536345.569 7
        45.500          47.000
  21823901.748 7 114685439.25107  89365276.15208  21823903.446 8  21823900.917 8
        46.500          51.750
  21598806.986 8 113502562.54408  88443572.34407  21598804.457 7  21598806.700 7
        48.500          43.750
 20  9  1  0 18 30.0000000  0 11G24G10G22G20G11G01G21G32G12G25G31
  24723522.698 5 129923048.14705 101238763.29105  24723523.970 5  24723522.515 5
        35.750          33.000
  20702892.097 8 108794469.27108  84774925.55608  20702892.290 8  20702891.762 8
        51.750          50.000
  25411101.672 6 133536242.34106 104054200.71603  25411098.372 3  25411100.559 3
        37.500          19.750
  22695574.549 7 119266072.62107  92934607.37105  22695572.652 5  22695573.311 5
        44.750          33.250
  24683339.914 5 129711837.38905 101074129.07902  24683337.312 2  24683339.190 2
        33.500          14.250
  23988863.756 6 126062337.62006  98230408.18504  23988864.297 4  23988863.452 4
        39.500          25.000
  23268333.139 7 122275928.98307  95279937.83705  23268331.062 5  23268332.026 5
        45.250          33.500
  20582905.608 8 108163969.77708  84283628.23108  20582905.923 8  20582905.488 8
        52.000          50.000
  22537341.344 7 118434580.42407  92286681.71107  22537339.294 7  22537340.817 7
        45.750          47.250
  21814008.656 7 114633449.17207  89324764.42108  21814009.632 8  21814007.811 8
        46.500          51.500
  21583647.383 8 113422899.05708  88381496.93107  21583645.079 7  21583647.097 7
        48.750          43.500
 20  9  1  0 19  0.0000000  0 11G24G10G22G20G11G01G21G32G12G25G31
  24743990.365 6 130030604.23306 101322573.24105  24743991.731 5  24743990.191 5
        37.000          32.750
  20711803.619 8 108841299.07508  84811416.30508  20711803.652 8  20711803.280 8
        51.500          49.750
  25392082.753 6 133436295.23706 103976319.89103  25392079.568 3  25392081.609 3
        36.000          19.500
  22715303.788 7 119369750.02407  93015394.92705  22715302.072 5  22715302.536 5
        44.250          33.000
  24691060.149 5 129752411.25605 101105745.08702  24691058.024 2  24691059.434 2
        34.000          12.250
  23981571.669 6 126024013.92506  98200545.60204  23981572.163 4  23981571.419 4
        41.000          27.000
  23279236.998 7 122333227.79607  95324586.24105  23279234.081 5  23279235.885 5
        44.000          32.750
  20579181.763 8 108144399.45508  84268378.63508  20579181.737 8  20579181.634 8
        51.250          50.000
  22538455.022 7 118440434.76107  92291243.54207  22538452.938 7  22538454.477 7
        45.500          47.000
  21804216.441 7 114581989.70907  89284666.15708  21804216.730 8  21804215.605 8
        46.750          51.500
  21568562.148 8 113343625.23008  88319725.13807  21568559.323 7  21568561.858 7
        48.750          43.500
 20  9  1  0 19 30.0000000  0 11G24G10G22G20G11G01G21G32G12G25G31
  24764457.917 6 130138166.03806 101406387.66405  24764459.546 5  24764457.676 5
        37.750          32.750
  20720810.887 8 108888632.73608  84848299.66508  20720810.971 8  20720810.552 8
        52.000          50.000
  25373075.570 5 133336413.83905 103898490.26803  25373072.574 3  25373074.394 3
        35.750          20.000
  22735078.308 7 119473665.59107  93096368.05805  22735076.817 5  22735077.065 5
        45.000          33.750
  24698860.116 5 129793394.73905 101137680.31002  24698856.941 2  24698859.365 2
        32.750          13.500
  23974383.875 6 125986245.20806  98171115.45904  23974385.456 4  23974383.621 4
        40.000          26.250
  23290194.355 7 122390810.49407  95369455.84505  23290192.029 5  23290193.220 5
        44.250          32.250
  20575499.964 8 108125050.86708  84253301.81708  20575499.785 8  20575499.826 8
        51.500          49.750
  22539688.824 7 118446914.68807  92296292.85607  22539685.903 7  22539688.310 7
        45.750          47.250
  21794525.603 7 114531063.29707  89244983.25908  21794525.624 8  21794524.772 8
        46.500          51.500
  21553551.164 8 113264742.21808  88258257.87107  21553548.265 7  21553550.860 7
        49.000          44.000
 20  9  1  0 20  0.0000000  0 11G24G10G22G20G11G01G21G32G12G25G31
  24784927.524 6 130245731.98306 101490205.31205  24784928.541 5  24784927.198 5
        36.500          32.000
  20729914.074 8 108936469.59708  84885575.13408  20729913.992 8  20729913.744 8
        52.000          49.500
  25354081.366 6 133236600.13106 103820713.42503  25354078.526 3  25354080.141 3
        37.250          21.000
  22754897.206 7 119577817.07907  93177525.02405  22754896.094 5  22754895.950 5
        43.500          32.250
  24706736.330 5 129834785.16805 101169932.55301  24706733.141 1  24706735.539 1
        33.250          11.250
  23967303.090 6 125949032.53106  98142118.58004  23967303.846 4  23967302.840 4
        40.250          26.250
  23301205.506 7 122448674.54407  95414544.68805  23301202.563 5  23301204.375 5
        45.250          32.250
  20571860.133 8 108105924.41408  84238398.08908  20571860.059 8  20571859.995 8
        51.750          49.750
  22541040.717 7 118454019.71407  92301829.24507  22541038.095 7  22541040.217 7
        45.500          47.000
  21784936.411 7 114480672.34207  89205717.59908  21784936.417 8  21784935.571 8
        46.000          51.000
  21538614.996 8 113186251.49708  88197096.32507  21538612.339 7  21538614.692 7
        49.750          44.500
 20  9  1  0 20 30.0000000  0 11G24G10G22G20G11G01G21G32G12G25G31
  24805396.431 6 130353300.35906 101574024.83005  24805397.934 5  24805396.078 5
        36.000          32.000
  20739112.720 8 108984808.96108  84923242.16308  20739112.705 8  20739112.390 8
        51.500          50.000
  25335100.674 6 133136856.00806 103742990.78503  25335097.606 3  25335099.422 3
        37.000          21.750
  22774761.717 7 119682202.61007  93258864.36805  22774759.449 5  22774760.474 5
        44.000          32.250
  24714689.991 5 129876580.42705 101202500.32801  24714686.364 1  24714689.178 1
        30.250           8.750
  23960327.969 6 125912376.96606  98113555.78604  23960328.379 4  23960327.719 4
        39.500          26.500
  23312270.027 7 122506817.76607  95459851.07305  23312266.587 5  23312268.892 5
        44.250          32.250
  20568262.862 8 108087020.47808  84223667.75408  20568262.755 8  20568262.710 8
        51.000          50.000
  22542511.483 7 118461749.90107  92307852.76807  22542509.201 7  22542510.974 7
        45.500          47.250
  21775449.470 7 114430819.22307  89166871.03208  21775449.695 8  21775448.616 8
        46.000          51.250
  21523753.287 8 113108154.07008  88136241.20307  21523751.232 7  21523752.997 7
        49.500          45.000
 20  9  1  0 21  0.0000000  0 11G24G10G22G20G11G01G21G32G12G25G31
  24825866.488 5 130460869.54005 101657844.98805  24825867.399 5  24825866.117 5
        34.750          31.500
  20748406.814 8 109033650.15008  84961300.22108  20748407.036 8  20748406.479 8
        51.000          49.750
  25316134.047 6 133037183.52306 103665323.93803  25316130.597 3  25316132.737 3
        36.500          20.250
  22794669.723 7 119786819.98007  93340384.35605  22794667.931 5  22794668.476 5
        44.000          33.000
  24722719.729 5 129918777.64105 101235381.24801  24722716.231 1  24722719.010 1
        31.750           8.000
  23953458.444 6 125876279.52406  98085427.92704  23953459.872 4  23953458.158 4
        40.500          28.000
  23323386.753 7 122565237.65007  95505373.03805  23323384.078 5  23323385.604 5
        44.250          32.750
  20564707.915 8 108068339.44708  84209111.11108  20564707.936 8  20564707.763 8
        51.500          50.000
  22544101.768 7 118470105.42007  92314363.57707  22544099.131 7  22544101.250 7
        44.500          47.000
  21766065.442 7 114381506.29707  89128445.39708  21766065.727 8  21766064.571 8
        45.750          51.250
  21508967.002 8 113030451.54108  88075693.80607  21508964.994 7  21508966.712 7
        48.750          44.500
 20  9  1  0 21 30.0000000  0 11G24G10G22G20G11G01G21G32G12G25G31
  24846336.387 5 130568437.25605 101741664.01905  24846336.600 5  24846336.016 5
        34.750          31.000
  20757796.491 8 109082992.48708  84999748.78508  20757796.647 8  20757796.156 8
        51.250          49.750
  25297181.695 6 132937584.58306 103587714.41003  25297176.807 3  25297180.372 3
        37.750          20.500
  22814621.424 7 119891666.99407  93422083.29005  22814619.452 5  22814620.181 5
        43.750          31.750
  24730825.854 5 129961374.36205 101268573.43801  24730822.103 1  24730825.054 1
        30.250           5.000
  23946695.602 6 125840741.23306  98057735.77604  23946697.071 4  23946695.321 4
        39.750          26.750
  23334556.092 7 122623931.75207  95551108.66605  23334554.138 5  23334554.952 5
        43.000          32.250
  20561195.414 8 108049881.67208  84194728.43508  20561195.351 8  20561195.254 8
        51.500          49.750
  22545810.802 7 118479086.57407  92321361.88207  22545809.089 7  22545810.270 7
        44.750          47.000
  21756784.740 7 114332735.95507  89090442.54908  21756784.848 8  21756783.882 8
        46.250          51.000
  21494255.943 8 112953144.90208  88015454.89907  21494253.459 7  21494255.630 7
        48.500          44.250
 20  9  1  0 22  0.0000000  0 11G24G10G22G20G11G01G21G32G12G25G31
  24866805.776 5 130676001.96405 101825480.67605  24866805.497 5  24866805.414 5
        34.500          31.000
  20767281.284 8 109132835.23108  85038587.27608  20767281.491 8  20767280.954 8
        51.500          50.000
  25278242.710 6 132838061.06506 103510163.62603  25278238.323 3  25278241.387 3
        39.250          22.750
  22834616.214 7 119996741.23607  93503959.30305  22834614.133 5  22834614.945 5
        44.250          33.000
  24739005.428 5 130004368.32605 101302075.20301  24739003.482 1  24739004.610 1
        31.500           9.250
  23940039.562 6 125805763.07606  98030480.07804  23940041.361 4  23940039.276 4
        40.500          27.500
  23345777.011 7 122682897.62607  95597056.06405  23345774.364 5  23345775.862 5
        44.250          32.250
  20557725.736 8 108031647.56408  84180520.03708  20557725.488 8  20557725.584 8
        51.500          50.250
  22547639.061 7 118488693.50807  92328847.81907  22547636.279 7  22547638.507 7
        44.500          46.750
  21747607.733 7 114284510.48907  89052864.27908  21747607.987 8  21747606.888 8
        46.750          51.500
  21479620.490 8 112876235.72308  87955525.73307  21479618.151 7  21479620.177 7
        49.500          44.750
 20  9  1  0 22 30.0000000  0 11G24G10G22G20G11G01G21G32G12G25G31
  24887272.850 5 130783562.34105 101909293.97705  24887273.366 5  24887272.457 5
        35.500          31.000
  20776861.082 8 109183177.63308  85077815.11008  20776861.473 8  20776860.752 8
        51.500          49.750
  25259318.827 6 132738615.40006 103432673.50603  25259314.479 3  25259317.473 3
        39.000          22.750
  22854654.737 7 120102040.70707  93586010.79505  22854652.471 5  22854653.517 5
        42.750          31.750
  24747263.367 5 130047756.92905 101335884.45101  24747260.056 1  24747262.741 1
        31.750           7.250
  23933489.894 6 125771346.02406  98003661.61104  23933491.355 4  23933489.595 4
        40.750          26.250
  23357049.372 7 122742133.18107  95643213.61205  23357046.779 5  23357048.246 5
        44.250          32.500
  20554298.459 8 108013637.52508  84166486.24008  20554298.387 8  20554298.330 8
        52.000          50.000
  22549586.070 7 118498925.85807  92336821.09807  22549583.255 7  22549585.516 7
        44.750          46.750
  21738534.889 7 114236832.20107  89015712.38908  21738535.477 8  21738534.018 8
        47.000          51.750
  21465061.135 8 112799725.20408  87895907.22007  21465058.472 7  21465060.822 7
        49.000          44.250
 20  9  1  0 23  0.0000000  0 11G24G10G22G20G11G01G21G32G12G25G31
  24907739.417 5 130891116.08605 101993102.09605  24907740.622 5  24907739.015 5
        34.750          30.750
  20786535.669 8 109234018.93008  85117431.69508  20786536.043 8  20786535.334 8
        51.500          49.750
  25240410.541 6 132639249.44306 103355245.51303  25240405.807 3  25240409.155 3
        38.250          22.250
  22874734.548 7 120207563.15507  93668236.03805  22874732.789 5  22874733.301 5
        43.000          31.750
  24755594.285 5 130091537.62505 101369999.35201  24755591.431 1  24755593.704 1
        34.250          10.000
  23927047.360 6 125737490.98506  97977281.08604  23927048.614 4  23927047.039 4
        40.000          26.250
  23368371.664 7 122801635.79207  95689579.26005  23368369.715 5  23368370.529 5
        44.250          32.250
  20550913.879 8 107995851.96208  84152627.36508  20550913.803 8  20550913.754 8
        52.000          50.000
  22551652.199 7 118509784.18707  92345282.14007  22551649.623 7  22551651.614 7
        44.500          46.500
  21729566.584 7 114189703.38007  88978988.65108  21729567.343 8  21729565.717 8
        47.250          52.250
  21450577.866 8 112723614.29708  87836600.06707  21450574.838 7  21450577.540 7
        49.000          44.500
 20  9  1  0 23 30.0000000  0 11G24G10G22G20G11G01G21G32G12G25G31
  24928205.171 6 130998661.68106 102076903.86605  24928205.879 5  24928204.782 5
        36.000          32.000
  20796305.465 8 109285358.35408  85157436.43208  20796305.402 8  20796305.135 8
        51.250          49.750
  25221517.282 6 132539965.15706 103277881.15003  25221512.674 3  25221515.865 3
        37.750          21.750
  22894857.157 7 120313306.53207  93750633.43905  22894854.912 5  22894855.946 5
        43.250          31.250
  24763999.882 5 130135708.12505 101404417.82901  24763996.995 1  24763999.198 1
        33.500          10.500
  23920712.317 6 125704198.96206  97951339.24204  23920712.960 4  23920712.009 4
        40.000          26.000
  23379745.260 7 122861402.86707  95736150.97705  23379743.376 5  23379744.134 5
        43.750          32.250
  20547572.109 8 107978291.30108  84138943.74108  20547572.164 8  20547571.984 8
        51.750          50.000
  22553837.490 7 118521268.12707  92354230.67607  22553834.525 7  22553836.896 7
        45.000          46.500
  21720702.932 7 114143126.29607  88942694.84008  21720704.064 8  21720702.065 8
        47.000          52.250
  21436170.398 8 112647904.35308  87777605.34207  21436167.900 7  21436170.072 7
        49.000          45.000
 20  9  1  0 24  0.0000000  0 11G24G10G22G20G11G01G21G32G12G25G31
  24948668.365 6 131106198.12106 102160698.49605  24948669.374 5  24948667.941 5
        36.500          32.000
  20806169.720 8 109337195.10908  85197828.70408  20806169.672 8  20806169.403 8
        51.500          49.750
  25202640.089 6 132440764.58206 103200582.03103  25202635.093 3  25202638.672 3
        36.500          21.500
  22915020.816 7 120419268.56907  93833201.22605  22915019.260 5  22915019.596 5
        42.750          32.250
  24772479.239 5 130180265.75305 101439138.10901  24772475.831 1  24772478.618 1
        32.250           6.750
  23914484.243 6 125671470.76406  97925836.76104  23914485.166 4  23914483.971 4
        39.000          26.000
  23391168.472 7 122921431.91507  95782926.83405  23391166.006 5  23391167.359 5
        44.250          32.000
  20544273.401 8 107960955.89008  84125435.63508  20544273.466 8  20544273.281 8
        51.750          50.250
  22556141.913 7 118533377.69207  92363666.71807  22556138.756 7  22556141.319 7
        45.500          46.500
  21711944.905 7 114097103.16707  88906832.68008  21711945.868 8  21711944.029 8
        47.000          52.250
  21421839.730 8 112572596.92908  87718924.27607  21421837.634 7  21421839.404 7
        49.250          45.000
 20  9  1  0 24 30.0000000  0 11G24G10G22G20G11G01G21G32G12G25G31
  24969130.190 6 131213723.19806 102244484.29405  24969130.741 5  24969129.770 5
        36.000          31.750
  20816128.418 8 109389528.35008  85238607.84508  20816128.374 8  20816128.110 8
        51.500          50.000
  25183778.910 6 132341649.78406 103123349.77203  25183774.151 3  25183777.533 3
        37.000          21.000
  22935225.758 7 120525447.33107  93915937.88205  22935224.514 5  22935224.569 5
        43.500          32.000
  24781031.673 4 130225207.82204 101474157.82701  24781028.176 1  24781031.061 1
        29.000           9.750
  23908363.746 6 125639307.26406  97900774.34004  23908364.736 4  23908363.465 4
        39.750          26.250
  23402640.850 7 122981720.58107  95829904.97905  23402639.135 5  23402639.710 5
        43.250          32.500
  20541017.360 8 107943846.17608  84112103.39008  20541017.601 8  20541017.244 8
        51.750          50.250
  22558564.867 7 118546112.68407  92373590.10307  22558562.604 7  22558564.286 7
        45.250          47.000
  21703293.168 7 114051636.23007  88871403.91708  21703293.801 8  21703292.279 8
        47.500          52.750
  21407586.211 8 112497692.72208  87660557.39107  21407583.693 7  21407585.890 7
        48.750          45.000
 20  9  1  0 25  0.0000000  0 11G24G10G22G20G11G01G21G32G12G25G31
  24989589.395 6 131321235.15806 102328259.86305  24989589.595 5  24989589.020 5
        37.000          32.250
  20826181.373 8 109442357.25608  85279773.22008  20826181.391 8  20826181.074 8
        52.000          50.000
  25164934.245 6 132242622.88706 103046185.98103  25164929.911 3  25164932.908 3
        37.500          21.500
  22955471.854 7 120631840.40307  93998841.54205  22955470.085 5  22955470.661 5
        42.750          31.250
  24789655.086 5 130270531.80205 101509475.18001  24789652.925 1  24789654.483 1
        31.000           9.250
  23902350.824 6 125607709.33706  97876152.59404  23902352.022 4  23902350.547 4
        40.500          26.750
  23414162.961 7 123042266.50007  95877083.58205  23414160.919 5  23414161.848 5
        44.750          33.250
  20537804.725 8 107926962.58208  84098947.34608  20537804.754 8  20537804.605 8
        51.750          50.500
  22561107.570 7 118559473.11507  92384000.84207  22561105.151 7  22561106.994 7
        45.000          47.000
  21694747.175 7 114006727.66207  88836410.24808  21694747.972 8  21694746.304 8
        47.500          53.000
  21393409.536 8 112423193.06108  87602505.73507  21393406.637 7  21393409.206 7
        49.250          45.000
 20  9  1  0 25 30.0000000  0 11G24G10G22G20G11G01G21G32G12G25G31
  25010044.932 6 131428732.18206 102412023.78705  25010045.908 5  25010044.535 5
        36.250          31.250
  20836328.384 8 109495680.97008  85321324.15308  20836328.580 8  20836328.080 8
        52.000          49.750
  25146106.991 5 132143685.78605 102969092.16203  25146102.556 3  25146105.663 3
        35.500          19.750
  22975758.275 7 120738445.50507  94081910.42205  22975756.911 5  22975757.095 5
        43.250          31.250
  24798353.507 5 130316235.20805 101545088.22301  24798350.217 1  24798352.801 1
        32.750           9.000
  23896445.924 6 125576677.77506  97851972.15504  23896446.748 4  23896445.652 4
        40.000          26.500
  23425733.086 7 123103067.23207  95924460.73205  23425730.442 5  23425731.973 5
        43.500          32.250
  20534635.108 8 107910305.50408  84085967.81508  20534635.018 8  20534634.979 8
        51.750          50.250
  22563768.954 7 118573458.74407  92394898.75307  22563766.710 7  22563768.396 7
        45.250          47.250
  21686308.081 7 113962379.64107  88801853.36308  21686308.799 8  21686307.227 8
        47.250          52.750
  21379309.816 8 112349099.15008  87544770.25007  21379307.097 7  21379309.477 7
        49.250          45.250
 20  9  1  0 26  0.0000000  0 11G24G10G22G20G11G01G21G32G12G25G31
  25030497.541 5 131536213.56105 102495775.55605  25030498.269 5  25030497.148 5
        35.750          31.000
  20846569.526 8 109549498.61908  85363259.97908  20846569.642 8  20846569.227 8
        51.750          49.500
  25127297.925 5 132044840.57405 102892069.97003  25127292.953 3  25127296.593 3
        35.500          20.000
  22996084.293 7 120845260.46807  94165142.81505  22996082.967 5  22996083.073 5
        43.500          31.250
  24807122.311 5 130362315.39905 101580994.85201  24807118.895 1  24807121.663 1
        30.500           8.000
  23890648.489 6 125546213.42206  97828233.71804  23890649.773 4  23890648.199 4
        40.500          27.000
  23437350.843 7 123164120.06007  95972034.34805  23437347.181 5  23437349.735 5
        43.000          31.250
  20531508.381 8 107893875.34308  84073165.09008  20531508.553 8  20531508.256 8
        52.000          50.250
  22566549.624 7 118588069.75407  92406283.96407  22566547.066 7  22566549.088 7
        44.500          47.000
  21677976.003 7 113918594.33507  88767734.96308  21677976.919 8  21677975.163 8
        47.000          52.750
  21365287.345 8 112275411.98008  87487351.71707  21365285.126 7  21365287.006 7
        49.500          45.500
 20  9  1  0 26 30.0000000  0 11G24G10G22G20G11G01G21G32G12G25G31
  25050947.043 5 131643677.07605 102579513.37705  25050947.979 5  25050946.578 5
        35.500          30.000
  20856904.661 8 109603809.32308  85405580.00108  20856904.675 8  20856904.357 8
        52.000          49.250
  25108506.262 6 131946089.28506 102815120.95103  25108501.585 3  25108504.908 3
        37.500          21.500
  23016450.266 7 120952283.24507  94248537.14505  23016448.641 5  23016449.068 5
        42.500          30.500
  24815961.913 4 130408769.95704 101617193.16301  24815959.011 1  24815961.413 1
        29.000           4.750
  23884959.883 6 125516317.00406  97804937.83404  23884960.831 4  23884959.593 4
        39.750          25.500
  23449016.090 7 123225422.78507  96019802.69405  23449013.215 5  23449014.977 5
        43.750          31.250
  20528425.273 8 107877672.57408  84060539.55108  20528425.226 8  20528425.153 8
        52.000          50.250
  22569448.951 7 118603305.71007  92418156.14207  22569446.239 7  22569448.419 7
        45.250          46.750
  21669751.604 7 113875373.85907  88734056.69108  21669752.407 8  21669750.764 8
        47.500          52.750
  21351342.920 8 112202132.89808  87430251.16907  21351340.099 7  21351342.581 7
        49.750          45.000
 20  9  1  0 27  0.0000000  0 11G24G10G22G20G11G01G21G32G12G25G31
  25071393.009 5 131751120.72805 102663235.72304  25071393.744 4  25071392.562 4
        34.000          29.250
  20867333.281 8 109658612.15308  85448283.49508  20867333.371 8  20867332.982 8
        51.250          49.500
  25089732.156 6 131847434.06506 102738246.79603  25089728.721 3  25089730.842 3
        38.000          23.500
  23036854.881 7 121059511.57307  94332091.64905  23036853.388 5  23036853.670 5
        43.000          30.500
  24824871.474 4
        26.000
  23879378.854 6 125486989.29106  97782085.06104  23879379.026 4  23879378.582 4
        40.250          25.750
  23460728.754 7 123286972.35107  96067763.35005  23460726.813 5  23460727.637 5
        43.750          32.250
  20525385.172 8 107861697.63708  84048091.54708  20525385.386 8  20525385.047 8
        52.000          50.500
  22572466.569 7 118619166.33507  92430515.08607  22572464.539 7  22572466.033 7
        44.750          46.750
  21661634.733 7 113832720.33007  88700820.19708  21661635.325 8  21661633.888 8
        47.000          52.500
  21337476.218 8 112129263.12408  87373469.55107  21337473.141 7  21337475.879 7
        49.000          44.750
 20  9  1  0 27 30.0000000  0 11G24G10G22G20G11G01G21G32G12G25G31
  25091834.769 5 131858543.21105 102746941.56404  25091835.717 4  25091834.309 4
        33.500          29.000
  20877855.448 8 109713906.17608  85491369.73808  20877855.421 8  20877855.153 8
        51.250          49.000
  25070977.404 6 131748877.27206 102661449.35204  25070973.672 4  25070976.117 4
        39.000          24.000
  23057298.817 7 121166943.00907  94415804.41304  23057296.819 4  23057297.539 4
        42.250          29.500
  24833854.619 5
        30.000
  23873906.182 6 125458231.01706  97759676.02004  23873906.981 4  23873905.905 4
        40.500          26.000
  23472487.777 7 123348766.70907  96115914.77705  23472485.513 5  23472486.673 5
        44.750          32.500
  20522388.619 8 107845950.89308  84035821.35208  20522388.903 8  20522388.499 8
        52.250          50.250
  22575603.935 7 118635651.76707  92443360.88207  22575602.067 7  22575603.403 7
        45.000          46.750
  21653626.370 7 113790635.85307  88668027.11508  21653626.654 8  21653625.530 8
        47.000          52.250
  21323687.683 8 112056803.35908  87317007.41407  21323684.544 7  21323687.339 7
        50.000          45.000
 20  9  1  0 28  0.0000000  0 11G24G10G22G20G11G01G21G32G12G25G31
  25112272.583 5 131965943.04405 102830629.75104  25112273.232 4  25112272.177 4
        32.250          29.000
  20888470.699 8 109769690.44608  85534837.99008  20888470.888 8  20888470.404 8
        51.250          49.250
  25052241.440 6 131650420.60706 102584729.89703  25052237.385 3  25052240.148 3
        38.250          23.000
  23077780.871 6 121274575.28506  94499673.68505  23077778.782 5  23077779.633 5
        41.500          30.000
  24842904.768 5
        31.500
  23868541.913 6 125430042.88006  97737711.23204  23868542.970 4  23868541.654 4
        38.750          25.250
  23484293.003 7 123410803.27107  96164254.92005  23484291.088 5  23484291.877 5
        43.750          32.250
  20519435.776 8 107830432.84808  84023729.36908  20519435.973 8  20519435.651 8
        52.250          50.500
  22578859.838 7 118652761.23907  92456692.95207  22578857.636 7  22578859.288 7
        44.250          46.500
  21645726.608 7 113749122.41207  88635679.00008  21645726.737 8  21645725.759 8
        46.750          52.500
  21309976.981 8 111984754.80008  87260865.70607  21309974.169 7  21309976.642 7
        50.000          45.500
 20  9  1  0 28 30.0000000  0 11G24G10G22G20G11G01G21G32G12G25G31
  25132705.276 5 132073318.38405 102914298.82405  25132706.124 5  25132704.910 5
        34.250          30.250
  20899179.100 8 109825964.01808  85578687.51908  20899179.431 8  20899178.801 8
        51.250          49.000
  25033525.329 6 131552066.59406 102508090.43103  25033520.904 3  25033524.055 3
        37.250          22.500
  23098300.110 7 121382406.59107  94583698.05004  23098298.168 4  23098298.885 4
        42.000          29.750
  24852023.913 5
        30.500
  23863286.610 6 125402425.45006  97716191.19604  23863287.333 4  23863286.360 4
        39.250          25.000
  23496143.809 7 123473079.50407  96212781.82405  23496141.644 5  23496142.674 5
        43.250          31.000
  20516526.280 8 107815143.93708  84011815.93608  20516526.485 8  20516526.151 8
        52.250          50.250
  22582234.917 7 118670494.43507  92470511.04807  22582231.784 7  22582234.336 7
        43.250          45.750
  21637935.768 7 113708182.09807  88603777.47608  21637936.366 8  21637934.928 8
        47.250          52.500
  21296345.441 8 111913118.93308  87205045.58907  21296342.634 7  21296345.106 7
        49.750          45.500
 20  9  1  0 29  0.0000000  0 11G24G10G22G20G11G01G21G32G12G25G31
  25153133.233 5 132180667.89405 102997947.79205  25153134.329 5  25153132.903 5
        35.250          31.500
  20909980.754 8 109882725.87508  85622917.53008  20909980.890 8  20909980.459 8
        51.250          49.000
  25014828.666 6 131453816.78306 102431532.20703  25014825.555 3  25014827.410 3
        37.500          23.750
  23118857.552 7 121490434.59907  94667875.66805  23118855.447 5  23118856.368 5
        42.750          30.250
  24861212.910 4
        29.500
  23858140.587 6 125375379.51806  97695116.44304  23858140.796 4  23858140.346 4
        38.000          24.750
  23508039.622 7 123535592.73907  96261493.41605  23508037.237 5  23508038.482 5
        42.500          31.500
  20513660.612 8 107800084.59008  84000081.38508  20513660.792 8  20513660.483 8
        51.750          50.500
  22585727.183 7 118688851.43107  92484815.20507  22585724.904 7  22585726.557 7
        44.500          46.500
  21630254.727 7 113667816.92307  88572324.11408  21630255.209 8  21630253.891 8
        47.250          52.750
  21282792.308 8 111841896.52008  87149547.63907  21282789.638 7  21282791.973 7
        49.500          45.750
 20  9  1  0 29 30.0000000  0 11G24G10G22G20G11G01G21G32G12G25G31
  25173556.422 5 132287989.73905 103081575.20505  25173557.039 5  25173556.065 5
        35.750          32.250
  20920874.708 8 109939975.02008  85667527.24408  20920874.912 8  20920874.404 8
        51.500          48.750
  24996152.984 6 131355673.56506 102355057.04303  24996149.372 3  24996151.759 3
        37.750          22.250
  23139451.216 7 121598656.81907  94752204.64205  23139449.862 5  23139450.005 5
        43.250          30.000
  24870470.921 5
        31.250
  23853102.101 6 125348905.62406  97674487.43904  23853103.589 4  23853101.856 4
        39.250          26.500
  23519980.071 7 123598340.32107  96310387.60105  23519977.355 5  23519978.931 5
        43.000          30.750
  20510838.729 8 107785255.25908  83988526.07808  20510838.948 8  20510838.604 8
        52.250          50.500
  22589339.543 7 118707831.71207  92499605.05007  22589336.374 7  22589338.944 7
        44.250          46.000
  21622683.532 7 113628028.86607  88541320.45508  21622683.912 8  21622682.696 8
        47.000          52.500
  21269317.610 8 111771088.68508  87094372.72707  21269315.025 7  21269317.275 7
        50.000          45.500
 20  9  1  0 30  0.0000000  0 11G24G10G22G20G11G01G21G32G12G25G31
  25193972.806 5 132395282.50105 103165179.97805  25193974.114 5  25193972.426 5
        35.750          32.500
  20931861.529 8 109997710.44008  85712515.87708  20931861.604 8  20931861.221 8
        50.750          48.750
  24977497.769 6 131257638.99206 102278666.47003  24977492.940 3  24977496.562 3
        38.500          22.000
  23160081.726 7 121707071.13107  94836683.30004  23160079.787 4  23160080.510 4
        42.000          29.000
  24879793.150 4
        27.500
  23848172.908 6 125323004.39406  97654304.66004  23848173.893 4  23848172.667 4
        40.250          27.000
  23531964.744 7 123661320.04607  96359462.69105  23531961.719 5  23531963.591 5
        42.750          30.750
  20508060.593 8 107770656.40208  83977150.35108  20508060.827 8  20508060.468 8
        52.000          50.500
  22593069.860 7 118727435.09607  92514880.42907  22593067.103 7  22593069.257 7
        44.250          46.500
  21615222.000 7 113588819.92507  88510768.05008  21615222.379 8  21615221.151 8
        46.750          52.500
  21255922.514 8 111700696.44808  87039521.65307  21255919.685 7  21255922.179 7
        49.250          45.500
 20  9  1  0 30 30.0000000  0 11G24G10G22G20G11G01G21G32G12G25G31
  25214384.491 6 132502545.13106 103248761.25505  25214385.376 5  25214384.094 5
        36.000          32.750
  20942940.581 8 110055931.09408  85757882.61108  20942940.729 8  20942940.277 8
        51.250          49.000
  24958863.255 6 131159715.19206 102202362.20503  24958858.378 3  24958862.062 3
        39.000          22.750
  23180748.953 7 121815675.58107  94921310.10605  23180746.379 5  23180747.733 5
        43.500          30.000
  24889185.136 5
        30.250
  23843353.591 6 125297676.40106  97634568.57804  23843355.005 4  23843353.314 4
        40.250          27.500
  23543993.439 7 123724529.47507  96408716.75905  23543990.889 5  23543992.281 5
        42.500          31.250
  20505326.268 8 107756288.42208  83965954.52808  20505326.805 8  20505326.148 8
        52.000          50.750
  22596918.203 7 118747660.39407  92530640.41007  22596916.047 7  22596917.577 7
        44.000          46.250
  21607871.318 7 113550191.98607  88480668.37708  21607871.573 8  21607870.447 8
        47.000          52.750
  21242606.515 8 111630720.94308  86984995.30407  21242603.926 7  21242606.198 7
        49.750          46.000
 20  9  1  0 31  0.0000000  0 12G24G10G22G20G11G01G26G21G32G12G25G31
  25234790.113 6 132609775.53206 103332317.41205  25234790.937 5  25234789.742 5
        36.000          33.250
  20954111.719 8 110114635.92708  85803626.62808  20954112.054 8  20954111.402 8
        51.250          49.250
  24940250.521 6 131061904.37706 102126146.03403  24940246.063 3  24940249.319 3
        37.750          23.250
  23201451.557 7 121924467.85907  95006083.29204  23201448.967 4  23201450.310 4
        42.000          29.250
  24898642.399 4
        25.250
  23838643.125 6 125272922.21106  97615279.58404  23838644.204 4  23838642.853 4
        39.500          27.250
  25578496.007 4
        26.750
  23556065.027 7 123787965.90207  96458147.71605  23556061.994 5  23556063.892 5
        44.000          31.250
  20502636.470 8 107742151.83008  83954939.01208  20502636.744 8  20502636.350 8
        52.250          50.750
  22600885.608 7 118768508.09907  92546885.38807  22600883.405 7  22600884.991 7
        44.250          46.500
  21600631.481 7 113512147.00107  88451022.95008  21600631.855 8  21600630.614 8
        47.000          52.750
  21229370.075 8 111561162.84808  86930794.21107  21229367.646 7  21229369.762 7
        49.500          46.250
 20  9  1  0 31 30.0000000  0 12G24G10G22G20G11G01G26G21G32G12G25G31
  25255188.620 6 132716972.06806 103415847.18405  25255189.241 5  25255188.272 5
        36.500          32.750
  20965374.695 8 110173823.83108  85849747.06108  20965375.288 8  20965374.382 8
        52.000          49.000
  24921659.393 6 130964208.55506 102050019.44003  24921655.015 3  24921658.177 3
        38.750          21.750
  23222188.525 7 122033445.21807  95091000.68704  23222187.244 4  23222187.296 4
        42.500          29.250
  24908167.040 4
        29.500
  23834041.785 6 125248742.31506  97596438.12904  23834043.052 4  23834041.490 4
        40.250          26.750
  25557526.121 4 134305704.58014
        29.500
  23568179.180 7 123851626.91907  96507753.67005  23568176.429 5  23568178.049 5
        43.500          30.500
  20499990.288 8 107728247.07908  83944104.15108  20499990.639 8  20499990.172 8
        52.750          50.750
  22604971.146 7 118789977.55107  92563614.84707  22604969.341 7  22604970.525 7
        44.750          47.000
  21593502.882 8 113474686.84208  88421833.23208  21593503.328 8  21593502.019 8
        48.000          53.000
  21216213.145 8 111492023.29908  86876919.25507  21216210.675 7  21216212.832 7
        50.250          46.000
 20  9  1  0 32  0.0000000  0 12G24G10G22G20G11G01G26G21G32G12G25G31
  25275580.829 6 132824133.62506 103499349.68505  25275581.700 5  25275580.503 5
        36.750          32.500
  20976729.816 8 110233493.76208  85896243.10408  20976729.811 8  20976729.503 8
        50.750          49.000
  24903090.728 6 130866629.74506 101973983.99303  24903085.386 3  24903089.539 3
        39.000          21.750
  23242961.635 6 122142605.71306  95176060.78004  23242959.943 4  23242960.428 4
        41.250          29.250
  24917758.701 5
        31.750
  23829549.599 6 125225137.25306  97578044.57004  23829550.668 4  23829549.304 4
        40.000          26.750
  25536528.175 5 134195365.06505 104567838.80413  25536533.875 3  25536527.643 3
        33.250          19.500
  23580335.783 7 123915509.65507  96557532.38705  23580332.674 5  23580334.675 5
        42.500          30.750
  20497388.648 8 107714574.64508  83933450.31408  20497388.848 8  20497388.546 8
        52.000          50.750
  22609174.843 7 118812068.11007  92580828.27007  22609173.163 7  22609174.235 7
        43.750          46.750
  21586486.337 7 113437813.40707  88393100.70608  21586486.915 8  21586485.497 8
        47.000          53.250
  21203136.381 8 111423303.38108  86823371.28307  21203133.665 7  21203136.077 7
        49.500          46.250
 20  9  1  0 32 30.0000000  0 12G24G10G22G20G11G01G26G21G32G12G25G31
  25295965.512 5 132931258.74905 103582823.80505  25295966.865 5  25295965.182 5
        35.500          32.500
  20988175.926 8 110293644.55708  85943113.84508  20988176.074 8  20988175.618 8
        51.500          48.750
  24884544.434 6 130769170.14306 101898041.46003  24884540.217 3  24884543.241 3
        39.000          23.000
  23263768.737 7 122251947.18507  95261261.87704  23263766.863 4  23263767.521 4
        42.750          29.250
  24927414.406 5
        31.000
  23825167.781 6 125202107.48806  97560099.28804  23825168.312 4  23825167.482 4
        40.500          27.750
  25515506.372 5 134084889.65705 104481754.42702  25515511.079 2  25515505.925 2
        32.500          13.750
  23592533.395 7 123979611.57707  96607481.91005  23592531.359 5  23592532.282 5
        42.750          30.500
  20494831.067 8 107701134.94108  83922977.82108  20494831.246 8  20494830.974 8
        52.250          50.500
  22613496.356 7 118834779.03607  92598525.10807  22613494.231 7  22613495.744 7
        44.500          46.250
  21579581.505 7 113401528.51307  88364826.78408  21579582.041 8  21579580.665 8
        47.000          52.750
  21190139.242 8 111355003.90008  86770150.92007  21190136.756 7  21190138.947 7
        50.000          46.250
 20  9  1  0 33  0.0000000  0 12G24G10G22G20G11G01G26G21G32G12G25G31
  25316344.036 5 133038345.30005 103666267.89705  25316344.792 5  25316343.710 5
        35.750          31.750
  20999713.558 8 110354275.11708  85990358.42708  20999713.625 8  20999713.245 8
        51.500          48.500
  24866022.466 6 130671832.00206 101822193.61004  24866018.663 4  24866021.264 4
        41.500          26.250
  23284609.679 7 122361467.54307  95346602.39404  23284607.781 4  23284608.445 4
        43.250          29.750
  24937134.515 5
        31.750
  23820894.527 7 125179653.42707  97542602.64304  23820895.937 4  23820894.232 4
        42.250          28.250
  25494456.879 5 133974280.56505 104395565.92002  25494462.297 2  25494456.419 2
        30.250          13.250
  23604773.285 7 124043930.29807  96657600.34705  23604771.491 5  23604772.159 5
        43.750          32.000
  20492318.073 8 107687928.48408  83912687.07808  20492317.979 8  20492317.980 8
        52.250          50.250
  22617936.203 7 118858109.76007  92616704.89907  22617933.465 7  22617935.582 7
        44.250          46.000
  21572789.329 7 113365834.00007  88337012.89808  21572789.709 8  21572788.489 8
        47.250          52.750
  21177222.909 8 111287126.02608  86717259.08607  21177219.817 7  21177222.614 7
        49.750          46.000
 20  9  1  0 33 30.0000000  0 12G24G10G22G20G11G01G26G21G32G12G25G31
  25336714.069 5 133145392.73305 103749681.51105  25336715.563 5  25336713.721 5
        35.250          32.000
  21011342.227 8 110415384.29208  86037975.95808  21011342.182 8  21011341.914 8
        51.000          48.750
  24847522.683 6 130574617.48006 101746442.02604  24847518.903 4  24847521.476 4
        39.750          24.500
  23305483.826 7 122471164.21207  95432080.30204  23305482.107 4  23305482.597 4
        42.000          29.000
  24946917.549 4
        28.250
  23816731.599 6 125157775.59206  97525554.98304  23816732.937 4  23816731.309 4
        40.500          28.500
  25473383.059 5 133863539.17505 104309274.16102  25473388.282 2  25473382.684 2
        32.250          13.250
  23617053.364 7 124108463.17607  96707885.65905  23617052.011 5  23617052.247 5
        43.500          32.000
  20489849.183 8 107674955.75808  83902578.46508  20489849.228 8  20489849.085 8
        52.000          50.500
  22622493.473 7 118882060.05807  92635367.47507  22622490.514 7  22622492.874 7
        44.750          46.250
  21566109.272 7 113330731.65407  88309660.44608  21566110.115 8  21566108.432 8
        47.000          53.000
  21164386.435 8 111219670.71808  86664696.53207  21164383.510 7  21164386.149 7
        49.500          46.000
 20  9  1  0 34  0.0000000  0 12G24G10G22G20G11G01G26G21G32G12G25G31
  25357076.809 5 133252398.65905 103833062.75404  25357077.785 4  25357076.474 4
        35.250          29.750
  21023061.753 8 110476970.90608  86085965.51908  21023061.787 8  21023061.449 8
        51.750          48.750
  24829047.447 6 130477528.85306 101670788.57504  24829043.147 4  24829046.209 4
        39.250          24.000
  23326391.964 7 122581035.06207  95517693.91304  23326389.934 4  23326390.748 4
        42.000          28.500
  24956764.155 4
        28.500
  23812677.790 6 125136474.26306  97508956.53104  23812679.236 4  23812677.509 4
        41.000          28.000
  25452284.557 5 133752668.28305 104222881.50902  25452289.808 2  25452284.329 2
        35.250          15.750
  23629374.536 7 124173207.68707  96758335.88005  23629371.988 5  23629373.410 5
        43.250          31.000
  20487425.244 8 107662217.19808  83892652.31908  20487425.112 8  20487425.142 8
        52.000          50.250
  22627168.722 7 118906628.91507  92654512.05207  22627165.743 7  22627168.123 7
        45.000          46.000
  21559542.608 7 113296223.24607  88282770.79208  21559543.381 8  21559541.759 8
        47.500          53.000
  21151630.675 8 111152638.78608  86612463.88307  21151627.688 7  21151630.380 7
        49.750          46.000
 20  9  1  0 34 30.0000000  0 12G24G10G22G20G11G01G26G21G32G12G25G31
  25377431.003 6 133359362.36606 103916411.12304  25377432.084 4  25377430.673 4
        36.250          29.750
  21034872.034 8 110539033.77908  86134326.19208  21034872.026 8  21034871.735 8
        51.000          48.500
  24810596.355 6 130380567.83506 101595234.58704  24810592.566 4  24810595.059 4
        40.500          26.250
  23347332.284 7 122691077.69907  95603441.39804  23347330.596 4  23347331.050 4
        42.500          29.000
  24966673.517 4
        25.500
  23808734.072 6 125115749.89106  97492807.67104  23808735.502 4  23808733.786 4
        41.000          27.750
  25431163.151 5 133641669.80105 104136389.45302  25431167.204 2  25431162.950 2
        33.000          13.250
  23641734.193 7 124238161.11907  96808948.92004  23641731.468 4  23641733.071 4
        42.250          29.250
  20485045.904 8 107649713.32008  83882909.04008  20485045.618 8  20485045.784 8
        52.000          50.000
  22631961.995 7 118931815.75607  92674138.17407  22631959.202 7  22631961.396 7
        44.250          46.000
  21553089.357 7 113262310.53607  88256345.31908  21553090.021 8  21553088.503 8
        47.000          53.000
  21138955.647 8 111086031.07208  86560561.78807  21138952.690 7  21138955.352 7
        49.500          46.000
 20  9  1  0 35  0.0000000  0 12G24G10G22G20G11G01G26G21G32G12G25G31
  25397777.411 5 133466281.48805 103999724.72604  25397778.454 4  25397777.036 4
        34.250          28.250
  21046772.508 8 110601571.70108  86183057.03408  21046772.825 8  21046772.213 8
        51.250          48.750
  24792169.969 6 130283736.99506 101519782.01504  24792165.832 4  24792168.668 4
        40.750          25.750
  23368304.681 7 122801290.16207  95689321.19804  23368303.248 4  23368303.407 4
        42.000          28.000
  24976648.182 4
        28.750
  23804900.251 6 125095602.80906  97477108.64804  23804901.654 4  23804899.965 4
        40.500          28.250
  25410015.983 5 133530547.10905 104049800.63202  25410021.348 2  25410015.630 2
        33.500          17.000
  23654133.537 7 124303321.02407  96859722.85604  23654130.128 4  23654132.433 4
        42.750          29.750
  20482711.374 8 107637444.61908  83873349.01508  20482710.908 8  20482711.254 8
        51.750          50.500
  22636872.468 7 118957620.40607  92694245.70207  22636870.461 7  22636871.887 7
        44.500          46.750
  21546749.426 7 113228995.20807  88230385.33708  21546750.195 8  21546748.577 8
        47.250          53.250
  21126361.496 8 111019848.46808  86508990.93807  21126358.361 7  21126361.206 7
        49.500          46.250
 20  9  1  0 35 30.0000000  0 12G24G10G22G20G11G01G26G21G32G12G25G31
  25418115.784 5 133573155.20705 104083002.95604  25418115.916 4  25418115.436 4
        31.250          25.250
  21058763.436 8 110664583.47008  86232157.09908  21058763.914 8  21058763.146 8
        51.250          49.000
  24773769.253 6 130187038.48906 101444432.51204  24773764.184 4  24773767.921 4
        40.500          25.750
  23389309.944 6 122911670.15706  95775331.55704  23389307.788 4  23389308.670 4
        41.500          27.750
  24986682.195 4
        27.250
  23801175.875 6 125076033.32706  97461859.70704  23801177.186 4  23801175.580 4
        41.000          28.250
  25388845.267 5 133419301.35405 103963115.95702  25388851.632 2  25388844.928 2
        32.250          15.250
  23666572.087 6 124368684.67706  96910655.54204  23666568.805 4  23666570.961 4
        40.750          29.000
  20480421.412 8 107625411.57808  83863972.62308  20480421.138 8  20480421.292 8
        52.000          50.250
  22641900.093 7 118984042.01107  92714833.97507  22641898.313 7  22641899.512 7
        44.250          46.250
  21540523.633 7 113196278.95707  88204892.16908  21540524.207 8  21540522.793 8
        47.250          53.000
  21113848.511 8 110954092.08808  86457752.22007  21113845.585 7  21113848.216 7
        49.000          46.000
 20  9  1  0 36  0.0000000  0 12G24G10G22G20G11G01G26G21G32G12G25G31
  25438443.563 5 133679982.83905 104166245.28703  25438443.921 3  25438443.206 3
        32.250          23.000
  21070844.272 8 110728067.83708  86281625.42108  21070844.651 8  21070843.977 8
        50.750          49.000
  24755393.531 6 130090474.42206 101369187.79104  24755389.589 4  24755392.181 4
        40.250          27.250
  23410346.126 6 123022214.81806  95861470.21904  23410343.870 4  23410344.874 4
        41.000          28.250
  24996779.311 4
        29.500
  23797562.566 6 125057041.75306  97447061.09104  23797563.945 4  23797562.285 4
        40.000          28.250
  25367654.335 5 133307934.88705 103876337.20302  25367659.481 2  25367654.040 2
        32.750          16.000
  23679048.693 6 124434249.54106  96961745.01705  23679046.649 5  23679047.602 5
        41.500          30.250
  20478176.586 8 107613614.68708  83854780.25208  20478176.267 8  20478176.470 8
        51.750          50.250
  22647045.286 7 119011079.75307  92735902.35807  22647043.496 7  22647044.710 7
        44.000          46.250
  21534412.473 7 113164163.49607  88179867.14808  21534412.635 8  21534411.651 8
        47.750          53.250
  21101416.882 8 110888763.02408  86406846.47407  21101414.144 7  21101416.592 7
        49.250          46.250
 20  9  1  0 36 30.0000000  0 12G24G10G22G20G11G01G26G21G32G12G25G31
  25458762.250 5 133786762.15205 104249449.96203  25458763.895 3  25458761.839 3
        31.250          22.750
  21083014.408 8 110792023.60708  86331461.07208  21083014.861 8  21083014.118 8
        50.750          48.500
  24737043.774 6 129994046.91706 101294049.53104  24737040.666 4  24737042.406 4
        38.750          26.500
  23431412.723 7 123132922.23107  95947735.69904  23431411.101 4  23431411.503 4
        42.250          29.250
  25006937.129 4
        26.250
  23794058.390 6 125038628.37006  97432713.01804  23794059.696 4  23794058.113 4
        40.500          28.000
  25346439.299 5 133196450.36305 103789466.45602  25346444.042 2  25346439.058 2
        33.000          17.500
  23691562.738 7 124500013.36707  97012989.53105  23691561.423 5  23691561.616 5
        42.250          30.250
  20475977.065 8 107602054.40808  83845772.24908  20475976.448 8  20475976.945 8
        51.750          50.000
  22652307.804 7 119038732.71907  92757450.12707  22652305.116 7  22652307.214 7
        43.250          45.750
  21528415.589 7 113132650.43807  88155311.52908  21528415.822 8  21528414.776 8
        47.250          53.000
  21089066.422 8 110823861.74508  86356274.06507  21089063.393 7  21089066.127 7
        49.250          46.250
 20  9  1  0 37  0.0000000  0 12G24G10G22G20G11G01G26G21G32G12G25G31
  25479073.242 4 133893492.31204 104332616.32203  25479074.108 3  25479072.871 3
        29.750          21.000
  21095274.215 8 110856449.42608  86381663.00008  21095274.369 8  21095273.925 8
        51.500          48.750
  24718720.960 6 129897758.61606 101219019.71704  24718716.807 4  24718719.583 4
        37.750          24.500
  23452509.793 6 123243790.76606  96034126.74204  23452508.453 4  23452508.550 4
        41.750          28.250
  25017154.125 4
        27.000
  23790664.194 6 125020793.38506  97418815.63004  23790665.542 4  23790663.922 4
        41.000          27.250
  25325202.573 5 133084849.40905 103702504.95002  25325206.594 2  25325202.386 2
        33.750          16.500
  23704115.083 7 124565973.29407  97064386.82505  23704113.715 5  23704113.943 5
        43.000          31.500
  20473822.113 8 107590731.26908  83836949.03108  20473821.792 8  20473821.984 8
        51.750          50.500
  22657686.788 7 119067000.40007  92779476.90207  22657683.754 7  22657686.189 7
        44.750          46.250
  21522533.881 7 113101741.38507  88131226.56608  21522534.248 8  21522533.068 8
        47.750          53.500
  21076797.428 8 110759388.64808  86306035.30107  21076794.387 7  21076797.133 7
        50.250          46.750
 20  9  1  0 37 30.0000000  0 12G24G10G22G20G11G01G26G21G32G12G25G31
  25499373.489 5 134000170.91105 104415742.52703  25499373.772 3  25499373.154 3
        31.250          21.500
  21107623.374 8 110921344.03708  86432230.21708  21107623.130 8  21107623.070 8
        51.250          48.250
  24700424.726 6 129801611.03306 101144099.54804  24700419.294 4  24700423.309 4
        39.750          24.250
  23473638.043 6 123354817.45706  96120641.00904  23473635.770 4  23473636.823 4
        41.250          27.000
  25027431.769 4
        27.000
  23787380.758 6 125003537.03906  97405369.13504  23787381.332 4  23787380.486 4
        41.250          27.750
  25303943.399 6 132973134.52206 103615454.65502  25303947.521 2  25303943.243 2
        36.250          17.250
  23716703.317 7 124632126.42507  97115934.68804  23716701.409 4  23716702.177 4
        42.750          29.750
  20471712.557 8 107579645.76308  83828310.97808  20471712.345 8  20471712.419 8
        52.250          50.250
  22663182.995 7 119095881.98207  92801982.03307  22663179.678 7  22663182.374 7
        44.000          45.500
  21516767.136 7 113071437.95707  88107613.51808  21516767.782 8  21516766.309 8
        47.750          53.000
  21064610.352 8 110695345.06608  86256131.21907  21064607.405 7  21064610.053 7
        49.500          46.500
 20  9  1  0 38  0.0000000  0 12G24G10G22G20G11G01G26G21G32G12G25G31
  25519664.406 4 134106797.89304 104498828.50403  25519664.569 3  25519664.031 3
        28.250          18.500
  21120061.236 8 110986706.13308  86483161.71508  21120061.118 8  21120060.941 8
        51.250          48.250
  24682155.330 6 129705606.93206 101069291.17104  24682151.155 4  24682153.922 4
        40.750          26.500
  23494795.163 6 123466000.11306  96207276.82504  23494793.306 4  23494793.920 4
        41.250          27.750
  25037767.777 4
        24.250
  23784207.530 6 124986859.54206  97392373.69604  23784208.036 4  23784207.280 4
        40.250          27.250
  25282662.877 6 132861308.40806 103528317.65303  25282666.917 3  25282662.676 3
        36.000          18.500
  23729328.592 7 124698470.43307  97167631.30404  23729325.439 4  23729327.457 4
        43.000          29.250
  20469648.199 8 107568798.39708  83819858.48808  20469648.248 8  20469648.061 8
        51.500          50.000
  22668795.046 7 119125375.82607  92824964.26107  22668792.011 7  22668794.438 7
        44.250          45.250
  21511116.137 7 113041741.68907  88084473.58608  21511116.904 8  21511115.306 8
        47.250          52.750
  21052505.302 8 110631731.80508  86206562.45907  21052502.226 7  21052504.998 7
        50.000          46.250
 20  9  1  0 38 30.0000000  0 12G24G10G22G20G11G01G26G21G32G12G25G31
  25539942.391 4 134213370.74804 104581872.28202  25539945.237 2  25539942.101 2
        26.250          17.000
  21132588.238 8 111052534.39108  86534456.45008  21132588.373 8  21132587.948 8
        50.500          48.500
  24663914.220 6 129609748.34106 100994596.17504  24663910.213 4  24663912.816 4
        41.250          27.750
  23515982.112 6 123577336.57506  96294032.47504  23515980.471 4  23515980.874 4
        39.750          27.500
  25048164.586 4
        28.250
  23781143.568 6 124970761.08306  97379829.43804  23781144.720 4  23781143.314 4
        40.500          28.500
  25261361.660 5 132749372.89605 103441095.44503  25261366.383 3  25261361.370 3
        34.250          18.000
  23741988.849 6 124765002.61706  97219474.53504  23741986.310 4  23741987.718 4
        41.750          29.000
  20467629.661 8 107558189.68508  83811591.96508  20467629.521 8  20467629.509 8
        51.750          50.250
  22674524.389 7 119155482.47107  92848423.99207  22674521.872 7  22674523.777 7
        44.000          46.250
  21505581.172 7 113012654.14107  88061807.97908  21505581.648 8  21505580.341 8
        47.000          53.000
  21040481.852 8 110568549.66608  86157329.63507  21040479.057 7  21040481.548 7
        50.000          46.500
 20  9  1  0 39  0.0000000  0 12G24G10G22G20G11G01G26G21G32G12G25G31
  25560212.930 4 134319889.16904 104664873.70002  25560214.583 2  25560212.635 2
        27.250          14.000
  21145203.187 8 111118827.49308  86586113.39708  21145203.549 8  21145202.879 8
        50.750          48.000
  24645700.633 6 129514036.93406 100920015.88704  24645696.874 4  24645699.234 4
        41.250          27.750
  23537196.903 6 123688824.27206  96380905.97104  23537196.106 4  23537195.696 4
        41.000          27.500
  25058618.900 5
        30.250
  23778190.448 6 124955241.73506  97367736.44404  23778191.678 4  23778190.176 4
        40.750          28.000
  25240041.596 5 132637330.64105 103353790.02502  25240045.629 2  25240041.328 2
        35.250          17.000
  23754684.812 7 124831720.25607  97271462.27304  23754682.633 4  23754683.677 4
        42.250          29.750
  20465656.368 8 107547820.11608  83803511.78808  20465656.256 8  20465656.212 8
        51.500          50.250
  22680369.592 7 119186200.43807  92872360.06807  22680367.571 7  22680368.980 7
        44.000          45.750
  21500162.035 7 112984176.80607  88039617.86408  21500162.533 8  21500161.204 8
        47.500          52.750
  21028541.004 8 110505799.49908  86108433.41307  21028538.072 7  21028540.705 7
        49.750          46.500
 20  9  1  0 39 30.0000000  0 12G24G10G22G20G11G01G26G21G32G12G25G31
  25580470.575 4 134426350.77904 104747830.80302  25580473.609 2  25580470.356 2
        24.250          12.000
  21157906.602 8 111185584.06008  86638131.49007  21157906.638 7  21157906.289 7
        51.000          47.750
  24627515.341 6 129418475.32606 100845552.30004  24627511.617 4  24627513.973 4
        40.250          25.750
  23558441.134 6 123800461.12706  96467895.68504  23558440.387 4  23558439.941 4
        40.500          27.250
  25069127.499 4
        28.000
  23775346.738 6 124940301.66606  97356094.83304  23775348.429 4  23775346.452 4
        40.750          27.250
  25218700.114 6 132525183.99906 103266403.26003  25218704.394 3  25218699.895 3
        36.750          19.750
  23767415.797 7 124898620.88807  97323592.58404  23767414.299 4  23767414.653 4
        42.750          29.750
  20463728.404 8 107537690.24108  83795618.38408  20463728.558 8  20463728.248 8
        52.000          50.250
  22686331.207 7 119217528.63107  92896771.65607  22686329.313 7  22686330.590 7
        45.250          46.750
  21494859.331 7 112956311.15007  88017904.37708  21494859.587 8  21494858.486 8
        47.250          52.750
  21016682.557 8 110443482.00508  86059874.34107  21016679.624 7  21016682.253 7
        50.250          46.500
 20  9  1  0 40  0.0000000  0 12G24G10G22G20G11G01G26G21G32G12G25G31
  25600722.045 4 134532755.40104 104830743.52001  25600721.747 1  25600721.648 1
        25.500          10.750
  21170697.970 8 111252802.73708  86690509.66908  21170697.960 8  21170697.662 8
        51.000          48.000
  24609359.991 6 129323065.73706 100771207.21304  24609356.520 4  24609358.668 4
        39.750          27.250
  23579712.583 6 123912244.91806  96554999.90504  23579711.949 4  23579711.363 4
        41.750          27.500
  25079695.835 4
        26.250
  23772614.364 6 124925940.96006  97344904.67304  23772615.807 4  23772614.092 4
        40.750          28.250
  25197340.199 6 132412935.22706 103178936.94403  25197343.909 3  25197339.967 3
        38.250          22.750
  23780180.575 7 124965701.66907  97375863.30304  23780178.694 4  23780179.395 4
        42.500          29.500
  20461846.720 8 107527800.53208  83787912.12208  20461846.640 8  20461846.560 8
        52.000          50.500
  22692408.934 7 119249465.85107  92921657.80407  22692406.655 7  22692408.335 7
        43.500          45.500
  21489673.378 7 112929058.67907  87996668.69908  21489673.247 8  21489672.533 8
        47.250          52.750
  21004906.069 8 110381597.65208  86011652.78307  21004903.311 7  21004905.774 7
        50.250          46.750
 20  9  1  0 40 30.0000000  0 12G24G10G22G20G11G01G26G21G32G12G25G31
  25620959.379 4 134639100.52504 104913609.79302  25620958.441 2  25620958.870 2
        24.000          13.250
  21183576.651 8 111320482.12808  86743246.84907  21183577.020 7  21183576.343 7
        51.000          47.750
  24591233.781 6 129227810.45206 100696982.35504  24591230.320 4  24591232.516 4
        41.500          27.750
  23601012.018 6 124024173.29606  96642216.79404  23601011.061 4  23601010.749 4
        40.000          26.750
  25090323.236 4
        28.500
  23769992.387 6 124912159.67406  97334166.00304  23769993.522 4  23769992.124 4
        41.000          27.500
  25175960.585 6 132300586.67606 103091392.88003  25175964.353 3  25175960.286 3
        37.000          20.750
  23792979.998 7 125032960.28107  97428272.58704  23792977.108 4  23792978.836 4
        42.250          28.000
  20460010.555 8 107518151.53508  83780393.43008  20460010.466 8  20460010.395 8
        51.750          50.000
  22698601.966 7 119282011.70407  92947018.21707  22698599.548 7  22698601.390 7
        44.750          45.500
  21484604.526 7 112902420.78707  87975911.91408  21484604.475 8  21484603.663 8
        47.250          52.500
  20993212.539 8 110320147.35708  85963769.44907  20993209.652 7  20993212.240 7
        50.250          46.500
 20  9  1  0 41  0.0000000  0 12G24G10G22G20G11G01G26G21G32G12G25G31
  25641184.547 3
        22.500
  21196543.067 8 111388620.83608  86796341.93208  21196543.554 8  21196542.763 8
        51.250          48.250
  24573136.494 6 129132711.72806 100622879.44804  24573131.794 4  24573135.242 4
        40.000          24.250
  23622338.735 6 124136243.96106  96729544.54604  23622337.226 4  23622337.528 4
        40.000          27.250
  25101001.815 4
        24.000
  23767479.614 6 124898957.79106  97323878.81604  23767480.591 4  23767479.333 4
        41.000          28.250
  25154562.468 6 132188140.83706 103003772.99303  25154567.138 3  25154562.164 3
        36.250          21.500
  23805812.130 6 125100394.00806  97480818.31104  23805809.046 4  23805810.954 4
        40.500          27.500
  20458220.480 8 107508743.77908  83773062.71808  20458220.302 8  20458220.328 8
        51.500          50.500
  22704910.841 7 119315165.10507  92972852.04107  22704908.900 7  22704910.251 7
        44.500          46.750
  21479652.551 7 112876398.90807  87955635.14108  21479652.802 8  21479651.680 8
        47.500          53.250
  20981601.956 8 110259132.08708  85916225.09107  20981599.155 7  20981601.666 7
        50.250          47.000
 20  9  1  0 41 30.0000000  0 12G24G10G22G20G11G01G26G21G32G12G25G31
  25661398.709 4
        27.250
  21209596.674 8 111457217.43808  86849793.81407  21209597.075 7  21209596.361 7
        51.000          47.750
  24555070.562 6 129037771.66906 100548900.14204  24555065.728 4  24555069.319 4
        41.500          27.000
  23643691.778 6 124248454.70706  96816981.45504  23643690.722 4  23643690.620 4
        39.250          27.250
  25111740.542 3
        20.250
  23765078.319 6 124886335.42206  97314043.21004  23765078.977 4  23765078.042 4
        41.500          29.250
  25133145.886 6 132075600.03006 102916079.10903  25133151.093 3  25133145.542 3
        36.000          21.000
  23818676.813 6 125168000.27406  97533498.48604  23818673.962 4  23818675.629 4
        41.500          28.500
  20456476.070 8 107499577.75808  83765920.37008  20456476.145 8  20456475.914 8
        51.750          50.250
  22711334.794 7 119348924.96107  92999158.41807  22711332.820 7  22711334.177 7
        43.250          44.750
  21474817.685 7 112850994.37707  87935839.41508  21474818.611 8  21474816.805 8
        47.500          53.000
  20970073.605 8 110198552.32108  85869020.08607  20970070.780 7  20970073.315 7
        50.250          46.750
 20  9  1  0 42  0.0000000  0 12G24G10G22G20G11G01G26G21G32G12G25G31
  25681599.027 4
        24.000
  21222736.846 8 111526270.46208  86903601.35507  21222737.148 7  21222736.529 7
        50.750          47.750
  24537033.811 6 128942992.52906 100475046.32004  24537031.344 4  24537032.546 4
        40.000          27.250
  23665071.110 6 124360803.00506  96904525.54204  23665069.876 4  23665069.984 4
        40.500          26.500
  25122533.282 4
        27.750
  23762785.453 6 124874292.47106  97304659.09804  23762787.002 4  23762785.194 4
        41.500          28.750
  25111712.542 5 131962966.72405 102828313.14503  25111717.144 3  25111712.252 3
        35.000          23.000
  23831574.549 7 125235776.52807  97586311.10904  23831572.071 4  23831573.373 4
        42.750          29.750
  20454777.814 8 107490654.05508  83758966.84208  20454777.854 8  20454777.662 8
        51.500          50.000
  22717874.619 7 119383290.13407  93025936.47907  22717872.304 7  22717873.980 7
        44.250          45.500
  21470101.606 7 112826208.56607  87916525.81208  21470101.939 8  21470100.743 8
        47.500          52.750
  20958628.967 8 110138408.85808  85822155.06407  20958625.743 7  20958628.668 7
        50.000          46.500
 20  9  1  0 42 30.0000000  0 12G24G10G22G20G11G01G26G21G32G12G25G31
  25701770.110 3
        21.750
  21235964.045 8 111595778.48508  86957763.43808  21235964.042 8  21235963.746 8
        50.750          48.000
  24519029.713 6 128848376.61106 100401319.65004  24519025.582 4  24519028.430 4
        41.750          27.000
  23686475.145 6 124473286.74406  96992175.18404  23686474.321 4  23686473.974 4
        41.000          26.250
  25133377.820 3
        23.250
  23760604.730 6 124862828.97206  97295726.50304  23760605.360 4  23760604.480 4
        40.500          28.000
  25090262.231 5 131850243.29905 102740477.01703  25090266.753 3  25090261.927 3
        35.000          20.750
  23844504.079 7 125303719.68907  97639253.78805  23844502.144 5  23844502.890 5
        42.750          30.500
  20453125.854 8 107481973.13408  83752202.49708  20453125.809 8  20453125.698 8
        52.250          50.500
  22724528.989 7 119418259.40107  93053185.25807  22724527.206 7  22724528.372 7
        45.000          46.750
  21465502.881 7 112802042.75207  87897695.31908  21465503.233 8  21465502.014 8
        47.750          53.250
  20947267.155 8 110078702.17308  85775630.38207  20947264.061 7  20947266.847 7
        50.000          47.000
 20  9  1  0 43  0.0000000  0 12G24G10G22G20G11G01G26G21G32G12G25G31
  25721966.658 3
        19.250
  21249277.284 8 111665740.03408  87012278.92207  21249277.328 7  21249276.976 7
        50.250          47.750
  24501056.077 6 128753926.06806 100327721.80704  24501051.806 4  24501054.799 4
        39.250          26.000
  23707906.666 6 124585904.02506  97079928.89004  23707904.157 4  23707905.522 4
        39.000          26.000
  25144277.320 4
        27.500
  23758533.975 6 124851944.85206  97287245.36504  23758534.476 4  23758533.725 4
        40.250          28.250
  25068794.225 5 131737432.26905 102652572.59203  25068798.936 3  25068793.836 3
        35.250          19.250
  23857464.164 7 125371827.35007  97692324.66305  23857462.610 5  23857462.997 5
        42.750          30.000
  20451520.330 8 107473535.58808  83745627.79108  20451520.058 8  20451520.170 8
        52.000          50.500
  22731298.109 7 119453832.37107  93080904.44707  22731295.869 7  22731297.524 7
        44.000          45.500
  21461022.429 7 112778498.31907  87879349.01808  21461022.779 8  21461021.562 8
        47.500          53.500
  20935988.433 8 110019432.92008  85729446.56107  20935985.645 7  20935988.112 7
        50.000          47.250
 20  9  1  0 43 30.0000000  0 11G10G22G20G11G01G26G21G32G12G25G31
  21262676.527 8 111736153.62008  87067146.63507  21262676.844 7  21262676.232 7
        50.500          47.500
  24483115.420 6 128659643.13006 100254254.61604  24483110.744 4  24483114.146 4
        40.500          26.750
  23729361.192 6 124698652.15406  97167784.55004  23729359.471 4  23729360.066 4
        41.000          25.750
  25155229.218 4
        25.250
  23756573.030 6 124841639.97206  97279215.57504  23756573.522 4  23756572.785 4
        41.500          28.000
  25047311.043 5 131624535.90805 102564601.63903  25047313.885 3  25047310.565 3
        34.000          18.500
  23870455.063 6 125440096.83606  97745521.65304  23870453.308 4  23870453.923 4
        40.750          28.250
  20449961.063 8 107465341.92208  83739243.12508  20449960.857 8  20449960.907 8
        52.000          50.250
  22738182.738 7 119490007.64507  93109092.98507  22738178.877 7  22738182.162 7
        45.500          45.750
  21456660.673 7 112755576.45407  87861487.83708  21456661.137 8  21456659.824 8
        47.500          53.500
  20924793.147 8 109960601.92308  85683604.24107  20924790.491 7  20924792.826 7
        50.500          47.250
 20  9  1  0 44  0.0000000  0 11G10G22G20G11G01G26G21G32G12G25G31
  21276161.496 8 111807017.72308  87122365.40207  21276161.800 7  21276161.210 7
        51.000          47.500
  24465205.611 6 128565530.10706 100180919.79404  24465201.354 4  24465204.315 4
        40.250          26.500
  23750841.044 6 124811528.64906  97255740.22004  23750839.550 4  23750839.913 4
        40.250          26.250
  25166229.423 3
        23.250
  23754721.782 6 124831914.28206  97271637.13304  23754722.717 4  23754721.532 4
        41.500          28.750
  25025811.139 5 131511556.71305 102476566.17103  25025815.088 3  25025810.692 3
        34.500          19.750
  23883477.383 6 125508525.61506  97798842.74504  23883474.852 4  23883476.270 4
        41.750          28.250
  20448448.602 8 107457392.67708  83733048.91408  20448448.022 8  20448448.442 8
        51.750          50.250
  22745180.637 7 119526783.77107  93137749.71807  22745177.065 7  22745180.056 7
        43.250          44.750
  21452417.473 7 112733278.41807  87844112.75408  21452417.786 8  21452416.637 8
        47.500          53.250
  20913681.476 8 109902209.87908  85638103.96607  20913678.885 7  20913681.150 7
        50.250          47.250
 20  9  1  0 44 30.0000000  0 11G10G22G20G11G01G26G21G32G12G25G31
  21289732.056 8 111878330.85108  87177934.06107  21289732.272 7  21289731.775 7
        50.750          47.750
  24447329.601 6 128471589.14006 100107719.03404  24447324.424 4  24447328.314 4
        41.250          27.250
  23772344.962 6 124924531.38406  97343794.26404  23772343.225 4  23772343.858 4
        40.250          25.250
  25177290.585 3
        20.500
  23752981.634 6 124822767.56606  97264509.81304  23752982.639 4  23752981.406 4
        41.000          28.750
  25004296.173 5 131398497.29305 102388468.16803  25004300.757 3  25004295.744 3
        35.250          21.750
  23896528.495 7 125577110.99407  97852285.85404  23896526.843 4  23896527.315 4
        42.000          29.250
  20446982.329 8 107449688.39508  83727045.58508  20446981.938 8  20446982.169 8
        52.000          50.250
  22752293.031 7 119564159.35507  93166873.54307  22752290.366 7  22752292.428 7
        43.000          44.500
  21448293.093 7 112711605.41407  87827224.71108  21448293.443 8  21448292.248 8
        47.750          53.250
  20902653.768 8 109844257.18908  85592946.04307  20902650.920 7  20902653.447 7
        50.000          47.500
 20  9  1  0 45  0.0000000  0 11G10G22G20G11G01G26G21G32G12G25G31
  21303387.417 8 111950091.45208  87233851.39607  21303387.963 7  21303387.131 7
        51.000          47.500
  24429486.705 7 128377822.52607 100034654.15204  24429481.922 4  24429485.436 4
        42.000          28.500
  23793872.327 6 125037658.01306  97431944.85904  23793870.734 4  23793871.223 4
        38.750          24.500
  25188403.430 4
        29.000
  23751351.039 6 124814199.73006  97257833.55804  23751352.138 4  23751350.807 4
        41.750          29.000
  24982767.399 5 131285359.87705 102300309.38803  24982770.910 3  24982766.988 3
        35.250          20.250
  23909608.927 7 125645850.28207  97905848.89704  23909607.551 4  23909607.760 4
        42.250          29.750
  20445562.974 8 107442229.64508  83721233.58208  20445562.583 8  20445562.814 8
        52.250          50.000
  22759519.368 7 119602133.80907  93196464.01507  22759516.651 7  22759518.760 7
        44.250          45.500
  21444288.296 7 112690558.65107  87810824.64908  21444288.399 8  21444287.465 8
        47.500          53.250
  20891709.323 8 109786744.61908  85548131.06607  20891706.481 7  20891709.002 7
        50.500          47.250
 20  9  1  0 45 30.0000000  0 11G10G22G20G11G01G26G21G32G12G25G31
  21317128.005 8 112022298.00008  87290116.22007  21317128.124 7  21317127.715 7
        50.500          47.000
  24411676.698 6 128284232.72806  99961727.02704  24411672.777 4  24411675.420 4
        41.000          27.250
  23815422.441 6 125150906.36706  97520190.29104  23815420.874 4  23815421.368 4
        40.000          24.750
  25199563.169 4
        27.000
  23749830.539 6 124806210.52806  97251608.20204  23749831.451 4  23749830.316 4
        41.250          28.500
  24961223.759 6 131172147.11806 102212091.89103  24961227.164 3  24961223.366 3
        36.500          20.500
  23922718.447 7 125714740.77807  97959529.75705  23922717.360 5  23922717.298 5
        42.000          30.000
  20444190.389 8 107435016.94508  83715613.30108  20444190.130 8  20444190.229 8
        51.750          50.000
  22766858.949 7 119640705.78507  93226520.11307  22766855.939 7  22766858.359 7
        44.250          45.000
  21440402.499 7 112670139.25007  87794913.44208  21440403.006 8  21440401.668 8
        47.500          53.500
  20880849.060 8 109729672.95008  85503659.64107  20880845.773 7  20880848.756 7
        50.250          47.000
 20  9  1  0 46  0.0000000  0 11G10G22G20G11G01G26G21G32G12G25G31
  21330952.869 8 112094948.90608  87346727.30607  21330952.753 7  21330952.548 7
        50.250          46.750
  24393901.467 6 128190822.45006  99888939.81004  24393898.229 4  24393900.162 4
        41.000          28.500
  23836995.876 6 125264274.15706  97608528.79204  23836994.194 4  23836994.808 4
        40.500          25.250
  25210773.250 4
        25.500
  23748420.769 6 124798799.74206  97245833.54604  23748421.701 4  23748420.550 4
        41.000          28.750
  24939665.302 6 131058861.45706 102123817.55803  24939669.320 3  24939664.882 3
        36.500          22.000
  23935856.092 6 125783779.87606  98013326.40304  23935854.066 4  23935854.948 4
        40.500          27.500
  20442864.774 8 107428050.84508  83710185.17808  20442864.553 8  20442864.631 8
        52.250          50.250
  22774312.400 7 119679873.90007  93257040.72207  22774309.995 7  22774311.815 7
        44.500          45.750
  21436636.636 7 112650348.34307  87779491.97108  21436637.055 8  21436635.814 8
        47.500          53.500
  20870072.516 8 109673042.28208  85459531.85607  20870069.073 7  20870072.217 7
        50.000          46.750
 20  9  1  0 46 30.0000000  0 11G10G22G20G11G01G26G21G32G12G25G31
  21344862.349 8 112168042.58608  87403683.40407  21344862.343 7  21344862.028 7
        50.500          46.750
  24376160.684 6 128097592.82506  99816293.35704  24376156.535 4  24376159.370 4
        41.000          27.500
  23858591.844 6 125377759.00606  97696958.52903  23858588.701 3  23858590.780 3
        39.500          23.500
  25222038.327 5
        30.750
  23747120.229 6 124791967.14706  97240509.45004  23747121.666 4  23747119.997 4
        41.000          28.250
  24918094.643 5 130945505.28105 102035488.30003  24918098.494 3  24918094.219 3
        35.250          21.000
  23949022.164 6 125852964.65006  98067236.58604  23949019.421 4  23949020.988 4
        41.500          28.250
  20441586.300 8 107421331.90908  83704949.64708  20441585.969 8  20441586.162 8
        52.000          50.000
  22781879.436 7 119719636.89307  93288024.86907  22781877.295 7  22781878.855 7
        45.000          46.000
  21432990.101 7 112631187.03207  87764561.09208  21432990.701 8  21432989.288 8
        47.500          53.250
  20859380.032 8 109616853.38908  85415748.31307  20859376.891 7  20859379.724 7
        50.250          47.000
 20  9  1  0 47  0.0000000  0 11G10G22G20G11G01G26G21G32G12G25G31
  21358855.633 8 112241577.47008  87460983.29807  21358855.731 7  21358855.307 7
        50.500          47.000
  24358454.670 7 128004546.82907  99743789.97104  24358449.585 4  24358453.347 4
        42.500          29.000
  23880208.464 6 125491358.69806  97785477.74003  23880206.421 3  23880207.387 3
        40.000          23.500
  25233343.487 4
        25.000
  23745929.689 6 124785712.45606  97235635.66504  23745930.761 4  23745929.430 4
        41.000          28.500
  24896512.133 5 130832081.18105 101947106.08103  24896514.097 3  24896511.798 3
        35.250          21.000
  23962214.189 7 125922292.91507  98121258.57504  23962212.631 4  23962213.031 4
        42.750          29.000
  20440354.695 8 107414860.70008  83699907.15108  20440354.529 8  20440354.561 8
        52.250          50.500
  22789558.971 7 119759993.97707  93319471.95807  22789556.721 7  22789558.381 7
        43.750          44.750
  21429463.776 7 112612656.37807  87750121.63308  21429464.107 8  21429462.967 8
        47.250          53.250
  20848771.720 8 109561106.78408  85372309.40807  20848768.911 7  20848771.412 7
        50.750          47.500
 20  9  1  0 47 30.0000000  0 11G10G22G20G11G01G26G21G32G12G25G31
  21372932.262 8 112315551.91208  87518625.70407  21372932.793 7  21372931.936 7
        50.500          47.000
  24340783.801 7 127911686.93807  99671431.61604  24340779.078 4  24340782.469 4
        42.500          29.750
  23901847.166 6 125605070.91506  97874084.64303  23901845.533 3  23901846.049 3
        39.750          23.250
  25244703.180 4
        24.250
  23744849.783 6 124780035.40806  97231211.98204  23744849.925 4  23744849.533 4
        41.250          29.000
  24874914.744 6 130718591.57206 101858672.86003  24874917.479 3  24874914.467 3
        37.250          21.750
  23975434.115 6 125991762.00506  98175390.29604  23975431.762 4  23975432.944 4
        41.500          29.000
  20439170.691 8 107408637.76508  83695058.11308  20439170.381 8  20439170.562 8
        52.000          50.250
  22797351.143 7 119800943.02107  93351380.30107  22797349.199 7  22797350.544 7
        44.500          45.500
  21426057.726 7 112594757.45207  87736174.42808  21426058.104 8  21426056.908 8
        47.250          53.250
  20838247.877 8 109505802.96108  85329215.53507  20838244.929 7  20838247.573 7
        50.500          47.500
 20  9  1  0 48  0.0000000  0 11G10G22G20G11G01G26G21G32G12G25G31
  21387092.430 8 112389964.30508  87576609.36807  21387093.187 7  21387092.109 7
        51.000          47.250
  24323148.523 6 127819015.16606  99599219.86104  24323144.653 4  24323147.155 4
        40.000          27.750
  23923506.836 6 125718893.11906  97962777.23803  23923505.178 3  23923505.634 3
        39.750          23.500
  25256112.261 4
        27.000
  23743879.562 7 124774935.67607  97227238.16504  23743880.169 4  23743879.308 4
        42.000          28.500
  24853306.326 6 130605039.04706 101770190.57403  24853308.641 3  24853306.018 3
        37.000          22.000
  23988680.219 6 126061368.85206  98229629.36304  23988677.732 4  23988679.066 4
        41.750          28.250
  20438033.713 8 107402663.65908  83690402.96708  20438033.600 8  20438033.584 8
        52.250          50.250
  22805256.071 7 119842483.22807  93383749.29007  22805254.066 7  22805255.477 7
        44.000          45.000
  21422772.088 7 112577491.21407  87722720.22808  21422772.615 8  21422771.266 8
        47.500          53.250
  20827808.231 8 109450942.59208  85286467.20707  20827805.242 7  20827807.914 7
        50.500          47.250
 20  9  1  0 48 30.0000000  0 11G10G22G20G11G01G26G21G32G12G25G31
  21401335.838 8 112464812.98708  87634932.99407  21401336.499 7  21401335.525 7
        50.250          46.750
  24305550.783 6 127726533.51806  99527156.24104  24305545.523 4  24305549.402 4
        41.250          27.000
  23945186.842 6 125832823.26406  98051553.94703  23945184.946 3  23945185.595 3
        39.000          22.750
  25267567.726 3
        23.250
  23743018.505 6 124770412.85606  97223713.87104  23743019.672 4  23743018.260 4
        41.500          28.250
  24831685.520 6 130491426.07006 101681661.19303  24831688.927 3  24831685.212 3
        37.000          22.250
  24001951.182 6 126131110.80206  98283973.68304  24001949.432 4  24001950.024 4
        41.000          28.000
  20436944.364 8 107396938.95008  83685942.15508  20436944.331 8  20436944.230 8
        52.250          50.000
  22813272.953 7 119884612.86707  93416577.57907  22813270.330 7  22813272.350 7
        44.250          44.500
  21419606.912 7 112560858.67407  87709759.82508  21419607.632 8  21419606.094 8
        47.750          53.000
  20817453.110 8 109396525.86908  85244064.57407  20817450.225 7  20817452.789 7
        50.250          47.000
 20  9  1  0 49  0.0000000  0 11G10G22G20G11G01G26G21G32G12G25G31
  21415661.743 8 112540096.34008  87693595.32907  21415662.152 7  21415661.430 7
        50.250          46.750
  24287988.419 7 127634244.83507  99455242.98505  24287984.795 5  24287987.042 5
        42.750          31.250
  23966888.205 6 125946858.82406  98140412.79704  23966886.065 4  23966886.998 4
        39.500          25.250
  25279070.519 4
        27.750
  23742267.383 6 124766466.61306  97220638.87404  23742268.936 4  23742267.124 4
        40.500          28.500
  24810054.335 6 130377755.12306 101593086.64003  24810058.106 3  24810053.991 3
        36.500          21.750
  24015248.038 7 126200985.49707  98338421.45704  24015246.034 4  24015246.898 4
        42.250          29.000
  20435902.440 8 107391464.19308  83681676.11308  20435902.635 8  20435902.311 8
        52.250          50.500
  22821402.124 7 119927330.86607  93449864.34407  22821398.676 7  22821401.507 7
        44.500          44.750
  21416562.818 8 112544860.79208  87697293.95308  21416563.190 8  21416562.005 8
        48.000          53.500
  20807182.500 8 109342553.52508  85202008.21107  20807179.575 7  20807182.174 7
        50.750          47.750
 20  9  1  0 49 30.0000000  0 11G10G22G20G11G01G26G21G32G12G25G31
  21430070.403 8 112615812.63908  87752595.02307  21430070.350 7  21430070.095 7
        50.500          46.750
  24270463.576 6 127542151.02206  99383481.61204  24270460.310 4  24270462.195 4
        41.250          29.000
  23988607.468 6 126060997.69106  98229352.12004  23988606.552 4  23988606.288 4
        40.000          25.000
  25290621.185 3
        23.250
  23741626.339 6 124763096.54706  97218012.85504  23741627.509 4  23741626.067 4
        40.750          28.000
  24788413.013 6 130264028.75106 101504468.83803  24788416.034 3  24788412.620 3
        37.250          20.500
  24028569.613 6 126270990.32006  98392970.63204  24028567.508 4  24028568.451 4
        41.500          28.250
  20434908.497 8 107386239.98208  83677605.29908  20434908.446 8  20434908.372 8
        52.250          50.500
  22829642.793 7 119970635.95807  93483608.58007  22829639.367 7  22829642.159 7
        44.000          44.250
  21413639.454 8 112529498.48308  87685323.32908  21413639.425 8  21413638.645 8
        48.000          53.000
  20796996.469 8 109289026.09708  85160298.53807  20796993.670 7  20796996.130 7
        51.000          47.750
 20  9  1  0 50  0.0000000  0 11G10G22G20G11G01G26G21G32G12G25G31
  21444560.785 8 112691960.25508  87811930.81207  21444560.800 7  21444560.486 7
        50.500          46.500
  24252976.166 7 127450254.23607  99311873.71204  24252971.624 4  24252974.838 4
        42.750          29.250
  24010347.291 6 126175237.41506  98318370.04204  24010345.564 4  24010346.115 4
        39.750          25.000
  25302212.932 3
        22.500
  23741094.379 6 124760302.22506  97215835.44704  23741095.458 4  23741094.080 4
        41.250          28.250
  24766761.162 6 130150249.52806 101415809.89003  24766764.576 3  24766760.738 3
        36.500          19.500
  24041915.400 7 126341122.49807  98447619.05304  24041913.217 4  24041914.247 4
        42.000          28.500
  20433962.247 8 107381266.87608  83673730.15508  20433962.072 8  20433962.127 8
        52.000          50.250
  22837995.118 7 120014526.47007  93517808.97907  22837992.103 7  22837994.484 7
        43.000          44.250
  21410837.277 7 112514772.63307  87673848.64908  21410837.130 8  21410836.464 8
        47.500          53.000
  20786895.387 8 109235943.80508  85118935.72407  20786892.583 7  20786895.061 7
        50.250          47.750
 20  9  1  0 50 30.0000000  0 10G10G22G20G01G26G21G32G12G25G31
  21459132.796 8 112768537.44408  87871601.33507  21459132.968 7  21459132.501 7
        50.250          46.250
  24235526.211 6 127358556.97006  99240421.29904  24235522.351 4  24235524.910 4
        41.250          28.250
  24032104.779 6 126289575.86706  98407464.92104  24032103.276 4  24032103.639 4
        39.250          24.000
  23740672.186 6 124758083.23406  97214106.34104  23740673.225 4  23740671.887 4
        39.500          27.250
  24745100.334 6 130036420.00306 101327111.73403  24745102.981 3  24745099.843 3
        37.500          19.500
  24055284.635 6 126411379.30006  98502364.56404  24055282.492 4  24055283.500 4
        41.000          26.500
  20433063.685 8 107376545.43808  83670051.11508  20433063.522 8  20433063.565 8
        52.000          50.000
  22846458.198 7 120059000.84307  93552464.33507  22846455.780 7  22846457.590 7
        44.000          44.250
  21408156.138 8 112500684.13008  87662870.60308  21408156.232 8  21408155.320 8
        48.000          52.750
  20776879.003 8 109183307.05808  85077920.09007  20776876.243 7  20776878.664 7
        50.250          47.250
 20  9  1  0 51  0.0000000  0 10G10G22G20G01G26G21G32G12G25G31
  21473786.497 8 112845542.49608  87931605.25107  21473786.717 7  21473786.202 7
        50.500          46.500
  24218115.566 7 127267061.51607  99169126.18005  24218112.504 5  24218114.279 5
        43.500          32.000
  24053880.588 6 126404010.68306  98496634.88403  24053878.996 3  24053879.444 3
        39.250          23.500
  23740359.139 6 124756438.98106  97212825.09504  23740360.251 4  23740358.826 4
        41.250          28.500
  24723429.338 6 129922542.74706 101238376.37503  24723433.324 3  24723428.793 3
        36.750          20.000
  24068677.770 6 126481757.98006  98557205.05404  24068675.239 4  24068676.603 4
        40.000          26.500
  20432213.425 8 107372076.26108  83666568.64208  20432212.983 8  20432213.296 8
        52.000          50.000
  22855031.867 7 120104057.21407  93587573.18607  22855029.736 7  22855031.259 7
        44.000          44.500
  21405596.750 7 112487233.78207  87652389.82408  21405596.988 8  21405595.932 8
        47.250          53.250
  20766947.369 8 109131116.56708  85037252.18708  20766944.760 8  20766947.039 8
        50.750          48.000
 20  9  1  0 51 30.0000000  0 11G10G22G20G11G01G26G21G32G12G25G31
  21488521.124 8 112922973.69908  87991941.23707  21488521.326 7  21488520.834 7
        50.000          46.000
  24200743.294 7 127175770.21107  99097990.13505  24200740.407 5  24200742.025 5
        42.750          31.000
  24075674.512 6 126518539.39506  98585877.98503  24075672.835 3  24075673.359 3
        38.250          23.250
  25337273.659 4
        28.250
  23740155.710 6 124755369.04506  97211991.36604  23740156.927 4  23740155.393 4
        41.000          28.750
  24701751.208 5 129808620.21505 101149605.78103  24701754.477 3  24701750.685 3
        35.500          19.750
  24082093.198 6 126552255.88306  98612138.45004  24082091.283 4  24082092.031 4
        41.000          27.250
  20431411.212 8 107367859.87308  83663283.14508  20431410.613 8  20431411.078 8
        51.500          50.000
  22863716.863 7 120149695.15507  93623135.20807  22863713.717 7  22863716.269 7
        44.000          44.000
  21403158.565 7 112474422.42307  87642406.95708  21403159.095 8  21403157.743 8
        47.750          53.000
  20757100.675 8 109079372.54908  84996932.18207  20757098.028 7  20757100.349 7
        50.750          47.750
 20  9  1  0 52  0.0000000  0 10G10G22G20G01G26G21G32G12G25G31
  21503336.406 8 113000829.27808  88052607.90807  21503336.428 7  21503336.116 7
        50.500          45.750
  24183411.147 6 127084685.24106  99027014.81804  24183405.604 4  24183409.900 4
        41.750          28.500
  24097486.429 6 126633159.96806  98675192.68403  24097485.083 3  24097485.276 3
        37.250          22.000
  23740061.776 6 124754872.93406  97211604.78104  23740062.647 4  23740061.463 4
        41.000          28.000
  24680063.496 6 129694654.96306 101060801.85103  24680066.602 3  24680062.969 3
        36.000          18.750
  24095530.370 7 126622870.46807  98667162.76004  24095528.312 4  24095529.212 4
        42.250          26.750
  20430656.681 8 107363896.89708  83660195.11408  20430656.555 8  20430656.534 8
        51.750          50.000
  22872511.674 7 120195912.44607  93659148.70207  22872507.690 7  22872511.080 7
        43.000          42.750
  21400842.529 7 112462250.81307  87632922.59208  21400842.934 8  21400841.698 8
        47.500          53.000
  20747339.497 8 109028075.55008  84956960.50507  20747336.445 7  20747339.162 7
        50.500          47.750
 20  9  1  0 52 30.0000000  0 10G10G22G20G01G26G21G32G12G25G31
  21518232.066 8 113079107.51108  88113603.92407  21518232.436 7  21518231.771 7
        50.500          46.250
  24166117.628 6 126993809.01506  98956202.18604  24166113.312 4  24166116.372 4
        41.250          29.500
  24119314.600 6 126747870.12406  98764577.17803  24119313.693 3  24119313.375 3
        38.750          21.500
  23740076.374 6 124754950.04406  97211664.85804  23740077.104 4  23740076.061 4
        41.250          28.250
  24658370.066 6 129580649.65906 100971966.69903  24658372.619 3  24658369.481 3
        37.750          22.750
  24108989.572 6 126693599.15506  98722275.99904  24108986.881 4  24108988.405 4
        41.250          27.000
  20429951.073 8 107360187.90008  83657304.99108  20429950.803 8  20429950.926 8
        52.000          50.250
  22881416.512 7 120242707.99807  93695612.77807  22881413.088 7  22881415.918 7
        43.500          43.750
  21398648.336 7 112450719.73907  87623937.34308  21398648.418 8  21398647.505 8
        47.750          53.250
  20737662.789 8 108977225.73708  84917337.28408  20737660.082 8  20737662.459 8
        50.750          48.000
 20  9  1  0 53  0.0000000  0 10G10G22G20G01G26G21G32G12G25G31
  21533208.351 8 113157806.57408  88174927.85607  21533208.374 7  21533208.056 7
        50.500          45.750
  24148864.579 7 126903143.90107  98885554.08805  24148860.866 5  24148863.323 5
        43.000          30.250
  24141159.900 6 126862667.28506  98854029.48203  24141159.309 3  24141158.617 3
        40.250          23.000
  23740199.811 6 124755599.78106  97212171.13404  23740201.031 4  23740199.516 4
        40.750          28.500
  24636668.061 6 129466606.80406 100883102.32403  24636671.138 3  24636667.453 3
        36.500          22.750
  24122469.861 6 126764438.89206  98777475.77004  24122467.892 4  24122468.726 4
        41.000          26.250
  20429293.643 8 107356733.45508  83654613.21608  20429293.546 8  20429293.483 8
        51.750          50.000
  22890430.722 7 120290079.66207  93732525.75507  22890428.438 7  22890430.114 7
        43.000          44.000
  21396575.788 8 112439829.89308  87615451.75808  21396576.371 8  21396574.957 8
        48.250          53.250
  20728071.727 8 108926823.45608  84878062.79007  20728068.917 7  20728071.392 7
        50.000          47.750
 20  9  1  0 53 30.0000000  0 10G10G22G20G01G26G21G32G12G25G31
  21548264.148 8 113236924.73308  88236578.35707  21548264.381 7  21548263.867 7
        50.250          46.250
  24131651.603 6 126812692.01406  98815072.10105  24131647.257 5  24131650.329 5
        41.250          30.000
  24163021.276 6 126977549.11906  98943547.76104  24163020.696 4  24163019.980 4
        39.000          24.000
  23740432.710 6 124756821.66506  97213123.24104  23740433.130 4  23740432.420 4
        39.750          27.500
  24614959.392 6 129352528.96806 100794210.67204  24614962.264 4  24614958.793 4
        38.000          24.000
  24135971.353 6 126835387.29006  98832760.19204  24135969.237 4  24135970.245 4
        40.250          26.000
  20428684.751 8 107353534.17108  83652120.27008  20428684.856 8  20428684.591 8
        51.750          50.500
  22899554.471 7 120338025.87407  93769886.43307  22899552.270 7  22899553.841 7
        44.250          44.250
  21394625.775 8 112429581.95608  87607466.36208  21394626.207 8  21394624.957 8
        48.000          53.750
  20718565.828 8 108876869.33608  84839137.51908  20718562.842 8  20718565.480 8
        50.250          48.000
 20  9  1  0 54  0.0000000  0 10G10G22G20G01G26G21G32G12G25G31
  21563398.888 8 113316460.15508  88298553.99707  21563399.482 7  21563398.593 7
        50.250          46.000
  24114480.667 7 126722455.83607  98744758.23005  24114476.553 5  24114479.375 5
        43.500          32.250
  24184899.048 6 127092513.41606  99033130.31103  24184897.171 3  24184897.779 3
        39.000          23.250
  23740774.083 7 124758614.87507  97214520.54104  23740774.333 4  23740773.779 4
        42.250          27.500
  24593244.407 6 129238418.71806 100705293.76104  24593247.922 4  24593243.799 4
        38.500          25.000
  24149492.138 6 126906441.63706  98888127.18904  24149489.733 4  24149491.007 4
        41.500          25.500
  20428124.716 8 107350590.62208  83649826.59908  20428124.740 8  20428124.556 8
        52.000          50.500
  22908787.844 7 120386545.44707  93807693.90607  22908785.035 7  22908787.205 7
        44.250          44.250
  21392798.119 7 112419976.61507  87599981.69108  21392798.472 8  21392797.292 8
        47.750          53.500
  20709145.276 8 108827363.51308  84800561.57008  20709142.139 8  20709144.910 8
        50.250          48.000
 20  9  1  0 54 30.0000000  0 10G10G22G20G01G26G21G32G12G25G31
  21578613.320 8 113396411.02508  88360853.36007  21578613.717 7  21578613.016 7
        49.750          45.500
  24097350.195 7 126632437.50107  98674614.10305  24097346.558 5  24097348.863 5
        42.000          30.000
  24206789.949 6 127207557.90806  99122775.33503  24206789.211 3  24206788.644 3
        37.500          21.250
  23741223.600 7 124760978.82107  97216362.58604  23741223.825 4  23741223.283 4
        42.500          28.000
  24571524.281 6 129124278.68206 100616353.63904  24571527.945 4  24571523.655 4
        38.250          24.500
  24163033.050 6 126977599.01606  98943574.48104  24163031.054 4  24163031.915 4
        40.500          25.500
  20427613.311 8 107347903.37708  83647732.63808  20427613.339 8  20427613.151 8
        52.000          50.250
  22918129.374 7 120435636.57407  93845946.73007  22918127.081 7  22918128.731 7
        43.500          43.500
  21391092.404 8 112411014.49008  87592998.22608  21391092.879 8  21391091.582 8
        48.250          53.250
  20699809.917 8 108778306.34208  84762335.21208  20699806.742 8  20699809.551 8
        50.750          48.000
 20  9  1  0 55  0.0000000  0 11G10G22G20G11G01G26G21G32G12G25G31
  21593906.091 8 113476775.53808  88423475.04107  21593906.693 7  21593905.787 7
        50.500          45.500
  24080262.580 7 126542639.25507  98604641.47804  24080258.038 4  24080261.212 4
        42.500          29.750
  24228698.016 6 127322680.69606  99212481.38503  24228695.806 3  24228696.671 3
        39.250          21.000
  25420575.087 4
        29.500
  23741781.962 7 124763912.86707  97218648.83504  23741783.024 4  23741781.672 4
        42.250          28.750
  24549799.160 6 129010111.48406 100527392.37604  24549802.402 4  24549798.517 4
        39.000          24.000
  24176592.880 6 127048857.37806  98999100.43104  24176590.597 4  24176591.740 4
        40.750          24.000
  20427150.669 8 107345473.06208  83645838.89208  20427150.781 8  20427150.504 8
        52.750          50.000
  22927579.624 7 120485297.35907  93884643.43807  22927577.283 7  22927578.985 7
        44.750          44.250
  21389509.348 8 112402696.20208  87586516.45308  21389510.090 8  21389508.535 8
        48.000          53.000
  20690559.774 8 108729698.10408  84724458.67307  20690556.686 7  20690559.399 7
        51.250          47.750
 20  9  1  0 55 30.0000000  0 11G10G22G20G11G01G26G21G32G12G25G31
  21609277.502 8 113557551.81508  88486417.57907  21609277.645 7  21609277.194 7
        50.750          45.750
  24063217.132 7 126453063.78207  98534842.42705  24063212.597 5  24063215.800 5
        43.000          31.000
  24250619.242 6 127437878.85106  99302246.16103  24250617.891 3  24250617.946 3
        38.750          22.500
  25432639.766 5
        31.000
  23742448.294 6 124767416.25206  97221378.73104  23742449.846 4  23742448.004 4
        41.250          28.250
  24528068.925 6 128895919.64606 100438411.87303  24528071.389 3  24528068.308 3
        38.500          22.750
  24190171.705 6 127120213.23206  99054702.36404  24190168.956 4  24190170.579 4
        41.000          24.750
  20426737.495 8 107343300.23508  83644145.78108  20426737.191 8  20426737.330 8
        52.250          50.000
  22937137.679 7 120535526.33007  93923782.90007  22937135.010 7  22937137.036 7
        44.000          43.750
  21388049.267 8 112395022.32208  87580536.81608  21388049.703 8  21388048.458 8
        48.000          53.000
  20681395.440 8 108681539.03608  84686932.13408  20681392.444 8  20681395.069 8
        50.750          48.000
 20  9  1  0 56  0.0000000  0 11G10G22G20G11G01G26G21G32G12G25G31
  21624726.617 8 113638738.02808  88549679.55007  21624726.833 7  21624726.300 7
        49.750          45.250
  24046213.862 7 126363713.20507  98465218.61605  24046209.391 5  24046212.543 5
        42.500          30.500
  24272555.789 6 127553150.29006  99392067.99804  24272554.222 4  24272554.546 4
        39.500          24.000
  25444738.421 3
        23.250
  23743223.261 6 124771488.28906  97224551.73904  23743224.501 4  23743222.989 4
        40.250          28.250
  24506335.315 6 128781705.85406 100349414.25603  24506336.880 3  24506334.712 3
        39.000          23.750
  24203767.719 6 127191664.18906  99110378.40404  24203766.677 4  24203766.602 4
        40.500          25.500
  20426373.049 8 107341385.51308  83642653.79108  20426372.830 8  20426372.880 8
        52.000          50.000
  22946803.990 7 120586321.84507  93963363.82507  22946800.972 7  22946803.324 7
        43.000          43.250
  21386711.589 7 112387993.33407  87575059.68908  21386712.093 8  21386710.776 8
        47.250          53.000
  20672316.686 8 108633829.40808  84649755.81408  20672313.758 8  20672316.329 8
        50.500          48.000
 20  9  1  0 56 30.0000000  0 11G10G22G20G11G01G26G21G32G12G25G31
  21640253.630 8 113720332.27608  88613259.46807  21640253.800 7  21640253.309 7
        50.000          45.250
  24029254.554 7 126274589.77807  98395771.82705  24029250.159 5  24029253.258 5
        44.000          32.000
  24294504.105 6 127668492.87706  99481945.32803  24294502.578 3  24294502.938 3
        39.750          23.250
  25456881.143 4
        29.500
  23744106.393 7 124776128.14107  97228167.21204  23744107.714 4  23744106.121 4
        42.000          28.750
  24484596.331 6 128667472.59206 100260401.47303  24484598.673 3  24484595.781 3
        38.000          22.250
  24217382.337 6 127263207.91006  99166126.69704  24217381.551 4  24217381.233 4
        41.000          26.000
  20426057.895 8 107339729.47908  83641363.37708  20426057.679 8  20426057.726 8
        52.000          50.250
  22956577.551 7 120637681.89407  94003384.65407  22956574.884 7  22956576.881 7
        42.750          43.500
  21385496.936 8 112381609.81708  87570085.53408  21385497.475 8  21385496.123 8
        48.000          53.250
  20663323.381 8 108586569.43708  84612929.87208  20663320.467 8  20663323.019 8
        50.750          48.250
 20  9  1  0 57  0.0000000  0 11G10G22G20G11G01G26G21G32G12G25G31
  21655857.452 8 113802332.69308  88677155.88007  21655857.751 7  21655857.126 7
        50.000          45.250
  24012338.384 7 126185696.02607  98326503.97605  24012333.595 5  24012337.079 5
        44.000          31.500
  24316466.297 6 127783904.01506  99571876.07003  24316464.326 3  24316465.157 3
        39.750          23.750
  25469061.740 4
        25.250
  23745096.947 6 124781335.15506  97232224.62904  23745098.406 4  23745096.661 4
        41.500          29.000
  24462855.570 6 128553222.57106 100171375.64503  24462858.158 3  24462855.061 3
        37.750          23.750
  24231013.717 6 127334841.64106  99221945.14804  24231012.837 4  24231012.613 4
        39.750          25.500
  20425792.277 8 107338332.71708  83640274.99408  20425791.895 8  20425792.112 8
        51.750          50.000
  22966458.388 7 120689605.12807  94043844.31607  22966456.003 7  22966457.713 7
        43.250          43.750
  21384405.224 7 112375872.23107  87565614.69508  21384405.514 8  21384404.411 8
        47.750          53.250
  20654415.805 8 108539759.53208  84576454.62808  20654412.766 8  20654415.452 8
        50.500          48.250
 20  9  1  0 57 30.0000000  0 11G10G22G20G11G01G26G21G32G12G25G31
  21671538.765 8 113884737.38908  88741367.31807  21671539.101 7  21671538.430 7
        49.750          45.250
  23995466.224 7 126097034.27707  98257416.92405  23995462.557 5  23995464.887 5
        43.000          32.000
  24338440.160 6 127899381.56506  99661858.57003  24338438.903 3  24338438.971 3
        38.750          22.750
  25481279.063 3
        19.500
  23746195.762 6 124787108.41106  97236723.25404  23746197.880 4  23746195.485 4
        40.750          29.500
  24441111.469 6 128438958.36206 100082338.76003  24441114.531 3  24441111.018 3
        38.000          23.500
  24244662.251 6 127406562.46306  99277831.46804  24244660.931 4  24244661.151 4
        41.250          26.250
  20425575.773 8 107337195.86808  83639389.13808  20425575.580 8  20425575.599 8
        51.750          50.250
  22976445.623 7 120742089.54307  94084741.26407  22976443.461 7  22976444.966 7
        44.000          44.500
  21383436.220 8 112370781.04508  87561647.54608  21383436.795 8  21383435.402 8
        48.000          53.500
  20645593.679 8 108493399.73008  84540330.11608  20645590.912 8  20645593.331 8
        50.500          48.250
 20  9  1  0 58  0.0000000  0 10G10G22G20G01G26G21G32G12G25G31
  21687296.396 8 113967544.46008  88805892.28807  21687297.170 7  21687296.066 7
        50.000          45.250
  23978639.439 7 126008606.92507  98188512.53405  23978635.595 5  23978638.107 5
        43.500          31.750
  24360426.706 6 128014923.36006  99751891.11503  24360426.095 3  24360425.472 3
        38.000          20.750
  23747401.889 6 124793447.13406  97241662.50404  23747404.091 4  23747401.612 4
        40.750          29.000
  24419365.733 6 128324682.67506  99993292.93204  24419368.651 4  24419365.215 4
        38.750          24.750
  24258326.326 6 127478368.12206  99333783.89304  24258325.297 4  24258325.177 4
        39.000          24.750
  20425409.005 8 107336319.48908  83638706.24808  20425408.802 8  20425408.831 8
        52.000          49.750
  22986539.145 7 120795133.54107  94126074.23907  22986537.376 7  22986538.497 7
        43.500          43.500
  21382590.455 8 112366336.66608  87558184.40408  21382591.140 8  21382589.624 8
        48.250          53.000
  20636857.480 8 108447490.24608  84504556.50308  20636854.654 8  20636857.132 8
        50.500          48.000
 20  9  1  0 58 30.0000000  0 10G10G22G20G01G26G21G32G12G25G31
  21703130.366 8 114050751.97708  88870729.29707  21703130.846 7  21703130.022 7
        49.250          45.000
  23961857.327 7 125920416.05307  98119792.39205  23961852.683 5  23961855.977 5
        43.250          31.250
  24382426.847 6 128130526.82806  99841971.71703  24382424.774 3  24382425.676 3
        38.750          21.500
  23748715.672 6 124800350.44806  97247041.71204  23748717.179 4  23748715.368 4
        41.000          29.000
  24397617.587 6 128210398.10506  99904240.17503  24397620.485 3  24397617.055 3
        36.750          23.750
  24272006.653 6 127550255.43706  99389799.96304  24272005.202 4  24272005.518 4
        40.250          25.000
  20425291.660 8 107335704.20308  83638226.80308  20425291.601 8  20425291.486 8
        51.750          50.000
  22996739.942 7 120848735.20107  94167841.76207  22996737.080 7  22996739.312 7
        44.000          43.750
  21381867.770 7 112362539.52707  87555225.60608  21381868.741 8  21381866.934 8
        47.750          53.250
  20628206.975 8 108402031.28508  84469133.95408  20628203.983 8  20628206.627 8
        50.250          48.250
 20  9  1  0 59  0.0000000  0 10G10G22G20G01G26G21G32G12G25G31
  21719040.018 8 114134358.00808  88935876.83007  21719040.566 7  21719039.665 7
        49.750          44.750
  23945120.430 7 125832464.12407  98051258.43105  23945116.643 5  23945119.062 5
        44.500          33.000
  24404436.047 6 128246189.71606  99932098.63103  24404434.038 3  24404434.845 3
        39.250          21.250
  23750136.616 7 124807817.46807  97252860.16904  23750137.845 4  23750136.330 4
        42.000          29.750
  24375868.670 6 128096107.21206  99815182.48604  24375871.604 4  24375868.165 4
        37.500          24.000
  24285700.524 6 127622221.57406  99445877.43604  24285699.444 4  24285699.393 4
        41.000          25.750
  20425223.946 8 107335350.59808  83637951.26708  20425224.312 8  20425223.777 8
        51.500          50.000
  23007045.602 7 120902892.43707  94210042.23207  23007042.109 7  23007044.976 7
        43.250          43.250
  21381268.374 7 112359389.92907  87552771.38008  21381269.235 8  21381267.538 8
        47.750          53.250
  20619641.925 8 108357023.08708  84434062.64108  20619639.310 8  20619641.577 8
        50.750          48.500
 20  9  1  0 59 30.0000000  0 10G10G22G20G01G26G21G32G12G25G31
  21735025.037 8 114218360.60708  89001333.38307  21735025.418 7  21735024.684 7
        49.500          44.750
  23928429.653 6 125744753.23406  97982912.31805  23928426.088 5  23928428.263 5
        41.750          31.250
  24426457.077 6 128361910.15206 100022270.37503  24426456.211 3  24426455.852 3
        37.250          20.750
  23751664.729 7 124815847.26207  97259117.16304  23751665.606 4  23751664.430 4
        42.250          29.750
  24354118.211 6 127981812.66106  99726121.95903  24354121.887 3  24354117.630 3
        36.250          23.250
  24299410.251 6 127694264.33306  99502014.60404  24299408.593 4  24299409.080 4
        40.250          25.750
  20425207.195 8 107335259.30208  83637880.13008  20425206.944 8  20425207.030 8
        52.250          50.000
  23017456.361 7 120957603.18907  94252673.98707  23017453.428 7  23017455.718 7
        42.750          42.750
  21380792.393 7 112356888.27207  87550822.04808  21380792.918 8  21380791.553 8
        47.750          53.000
  20611163.103 8 108312465.90508  84399342.77008  20611160.385 8  20611162.750 8
        50.750          48.500
 20  9  1  1  0  0.0000000  0 10G10G22G20G01G26G21G32G12G25G31
  21751085.438 8 114302757.80808  89067097.41907  21751085.376 7  21751085.094 7
        49.500          44.500
  23911785.747 7 125657286.10907  97914756.13505  23911780.746 5  23911784.375 5
        42.250          31.000
  24448488.160 6 128477685.57806 100112484.98503  24448487.033 3  24448486.949 3
        36.500          19.750
  23753299.389 6 124824438.92806  97265811.95804  23753300.972 4  23753299.085 4
        40.500          29.000
  24332369.560 6 127867517.09206  99637060.62304  24332371.834 4  24332368.997 4
        37.500          24.000
  24313133.161 6 127766381.27706  99558209.58304  24313132.052 4  24313132.012 4
        40.250          26.000
  20425239.814 8 107335430.88908  83638013.83308  20425239.614 8  20425239.649 8
        52.250          50.500
  23027972.992 7 121012866.38707  94295736.21107  23027970.201 7  23027972.380 7
        43.250          44.250
  21380439.999 7 112355034.82407  87549377.81008  21380440.075 8  21380439.159 8
        47.500          53.250
  20602770.035 8 108268359.88008  84364974.45908  20602767.454 8  20602769.687 8
        50.750          49.000
 20  9  1  1  0 30.0000000  0 10G10G22G20G01G26G21G32G12G25G31
  21767220.353 8 114387547.63908  89133167.39907  21767220.609 7  21767220.009 7
        49.750          44.500
  23895187.812 7 125570064.78007  97846791.47705  23895183.215 5  23895186.435 5
        44.250          32.750
  24470529.412 6 128593513.36506 100202740.39303  24470528.331 3  24470528.174 3
        38.500          20.500
  23755040.935 6 124833591.49406  97272943.81104  23755042.951 4  23755040.645 4
        41.500          29.250
  24310620.537 6 127753223.20106  99548000.58504  24310622.756 4  24310619.996 4
        39.000          26.000
  24326870.660 6 127838569.23606  99614459.90404  24326868.944 4  24326869.565 4
        39.750          25.500
  20425322.606 8 107335865.99008  83638352.87608  20425322.473 8  20425322.437 8
        52.500          50.250
  23038593.521 7 121068679.67607  94339227.08107  23038591.123 7  23038592.918 7
        43.750          44.000
  21380210.689 7 112353829.85407  87548438.88308  21380211.003 8  21380209.840 8
        47.750          53.250
  20594462.899 8 108224705.13708  84330957.78908  20594460.158 8  20594462.555 8
        50.750          48.750
 20  9  1  1  1  0.0000000  0 10G10G22G20G01G26G21G32G12G25G31
  21783429.681 8 114472728.09508  89199541.76007  21783430.067 7  21783429.342 7
        49.000          44.250
  23878637.344 7 125483091.68207  97779020.24205  23878633.257 5  23878635.972 5
        42.500          32.750
  24492580.521 6 128709391.52706 100293035.06203  24492579.561 3  24492579.314 3
        37.000          19.500
  23756889.343 6 124843303.96706  97280511.97104  23756890.979 4  23756889.057 4
        40.500          28.750
  24288871.656 6 127638933.61606  99458943.86204  24288873.902 4  24288871.169 4
        39.000          27.000
  24340620.301 6 127910825.22006  99670763.22704  24340619.121 4  24340619.219 4
        40.500          26.750
  20425455.513 8 107336565.20808  83638897.72408  20425455.607 8  20425455.339 8
        52.000          50.250
  23049319.139 7 121125041.43207  94383145.32907  23049315.787 7  23049318.527 7
        43.250          43.250
  21380104.311 7 112353273.64307  87548005.48108  21380105.218 8  21380103.480 8
        47.500          53.250
  20586241.588 8 108181501.68708  84297292.77108  20586238.646 8  20586241.244 8
        50.250          48.750
 20  9  1  1  1 30.0000000  0 10G10G22G20G01G26G21G32G12G25G31
  21799712.825 8 114558297.19708  89266218.96507  21799713.489 7  21799712.499 7
        50.250          45.000
  23862134.634 7 125396369.34707  97711444.43305  23862131.297 5  23862133.262 5
        44.000          33.250
  24514639.675 6 128825317.78406 100383367.15202  24514639.971 2  24514638.415 2
        36.000          16.250
  23758844.289 6 124853575.36806  97288515.66404  23758845.427 4  23758844.003 4
        41.250          29.000
  24267125.049 6 127524651.05306  99369892.61704  24267126.403 4  24267124.584 4
        40.250          27.250
  24354383.174 6 127983147.10606  99727117.87904  24354381.196 4  24354382.115 4
        41.000          25.750
  20425639.131 8 107337529.15708  83639648.85908  20425639.104 8  20425638.962 8
        52.250          50.250
  23060148.090 7 121181949.54007  94427489.32907  23060144.510 7  23060147.491 7
        42.750          42.750
  21380122.156 8 112353366.38908  87548077.75908  21380122.899 8  21380121.329 8
        48.000          53.250
  20578106.117 8 108138749.59008  84263979.45908  20578103.048 8  20578105.769 8
        51.000          48.500
 20  9  1  1  2  0.0000000  0 10G10G22G20G01G26G21G32G12G25G31
  21816069.657 8 114644252.96408  89333197.45807  21816070.291 7  21816069.327 7
        49.750          44.500
  23845680.086 7 125309899.83307  97644065.60305  23845675.905 5  23845678.749 5
        43.500          32.000
  24536708.929 6 128941289.61606 100473734.84502  24536708.300 2  24536707.780 2
        36.250          16.000
  23760904.654 6 124864404.66606  97296954.06404  23760905.723 4  23760904.373 4
        41.000          28.500
  24245378.736 6 127410378.09106  99280848.85904  24245380.893 4  24245378.263 4
        38.000          24.500
  24368157.339 6 128055532.28306  99783521.87904  24368155.144 4  24368156.280 4
        40.500          24.250
  20425872.998 8 107338758.43008  83640606.73608  20425873.060 8  20425872.829 8
        52.000          50.500
  23071080.668 7 121239402.01207  94472257.49407  23071077.926 7  23071080.060 7
        43.000          43.500
  21380263.671 7 112354108.28007  87548655.86508  21380263.943 8  21380262.862 8
        47.500          53.250
  20570056.638 8 108096448.83908  84231017.84108  20570053.296 8  20570056.290 8
        50.250          48.500
 20  9  1  1  2 30.0000000  0 10G10G22G20G01G26G21G32G12G25G31
  21832499.594 8 114730593.33808  89400475.65507  21832500.088 7  21832499.273 7
        49.750          44.500
  23829274.094 7 125223685.65307  97576885.72705  23829269.482 5  23829272.771 5
        42.750          32.500
  24558786.222 5 129057304.86105 100564136.34902  24558784.906 2  24558785.073 2
        34.750          14.500
  23763071.230 6 124875790.73706  97305826.32604  23763072.394 4  23763070.926 4
        41.250          27.750
  24223635.220 6 127296117.40306  99191814.61103  24223637.217 3  24223634.715 3
        38.000          23.500
  24381943.303 6 128127977.90606  99839973.00104  24381941.514 4  24381942.239 4
        40.500          25.500
  20426157.423 8 107340253.65908  83641771.84708  20426157.495 8  20426157.254 8
        51.750          50.250
  23082116.749 7 121297396.69307  94517448.15507  23082114.741 7  23082116.164 7
        43.500          44.250
  21380528.276 7 112355499.48207  87549739.92708  21380528.753 8  21380527.463 8
        47.500          53.250
  20562092.722 8 108054599.81408  84198408.21508  20562089.649 8  20562092.369 8
        50.500          48.750
 20  9  1  1  3  0.0000000  0 10G10G22G20G01G26G21G32G12G25G31
  21849002.444 8 114817316.30608  89468051.97707  21849003.018 7  21849002.109 7
        49.500          44.250
  23812917.000 7 125137729.05807  97509906.59805  23812913.395 5  23812915.677 5
        44.250          33.250
  24580870.590 5 129173361.32605 100654569.93002  24580869.776 2  24580869.338 2
        34.250          13.000
  23765343.609 6 124887732.64106  97315131.70604  23765344.506 4  23765343.305 4
        41.000          28.000
  24201894.864 6 127181871.68006  99102792.06603  24201897.458 3  24201894.350 3
        38.250          23.000
  24395740.856 6 128200481.42806  99896469.22604  24395739.113 4  24395739.792 4
        40.250          25.500
  20426492.947 8 107342015.43308  83643144.66308  20426492.684 8  20426492.778 8
        51.750          50.000
  23093255.353 7 121355931.72107  94563059.87307  23093253.727 7  23093254.759 7
        43.000          42.750
  21380916.544 7 112357540.10807  87551330.03008  21380916.912 8  21380915.722 8
        47.250          53.000
  20554215.057 8 108013202.54608  84166150.60608  20554212.045 8  20554214.704 8
        50.500          48.500
 20  9  1  1  3 30.0000000  0 10G10G22G20G01G26G21G32G12G25G31
  21865578.112 8 114904419.82108  89535924.82607  21865578.352 7  21865577.777 7
        49.000          44.000
  23796609.206 7 125052032.26407  97443129.86705  23796604.444 5  23796607.869 5
        44.750          32.250
  24602963.811 5 129289456.74005 100745033.88002  24602962.011 2  24602962.416 2
        35.000          15.000
  23767721.868 6 124900229.10606  97324869.21004  23767722.153 4  23767721.551 4
        41.500          28.500
  24180158.536 6 127067643.64106  99013783.24404  24180159.855 4  24180158.049 4
        40.250          26.000
  24409547.864 6 128273040.46306  99953008.69004  24409546.638 4  24409546.818 4
        38.750          24.750
  20426878.981 8 107344044.40108  83644725.67708  20426878.768 8  20426878.807 8
        51.750          50.500
  23104497.299 7 121415005.37307  94609091.28707  23104495.002 7  23104496.691 7
        44.250          44.250
  21381428.724 7 112360230.23107  87553426.23708  21381428.886 8  21381427.902 8
        47.500          53.500
  20546423.453 8 107972257.07908  84134245.05408  20546420.587 8  20546423.096 8
        50.500          49.000
 20  9  1  1  4  0.0000000  0 11G03G10G22G20G01G26G21G32G12G25G31
  25340978.187 5
        30.500
  21882225.213 8 114991901.80708  89604092.58807  21882225.904 7  21882224.874 7
        49.250          44.250
  23780351.220 7 124966597.49607  97376557.32105  23780346.363 5  23780349.883 5
        44.000          32.500
  24625062.366 5 129405588.96805 100835526.56302  24625060.770 2  24625060.985 2
        35.250          15.000
  23770205.297 6 124913279.09206  97335038.02204  23770205.920 4  23770204.984 4
        41.250          28.250
  24158425.482 6 126953435.97306  98924790.33004  24158427.143 4  24158425.000 4
        41.000          27.500
  24423365.781 6 128345651.94406 100009589.01004  24423363.116 4  24423364.811 4
        40.250          24.000
  20427316.062 8 107346341.13808  83646515.34408  20427315.856 8  20427315.893 8
        52.000          50.250
  23115840.533 7 121474615.37307  94655540.65207  23115838.243 7  23115839.930 7
        44.250          44.500
  21382063.976 7 112363570.01207  87556028.67108  21382064.286 8  21382063.163 8
        47.750          53.000
  20538717.844 8 107931763.22808  84102691.41908  20538714.976 8  20538717.487 8
        50.500          48.750
 20  9  1  1  4 30.0000000  0 11G03G10G22G20G01G26G21G32G12G25G31
  25320610.764 4
        29.750
  21898944.184 8 115079760.22808  89672553.67707  21898944.800 7  21898943.854 7
        48.750          44.000
  23764143.704 7 124881427.04907  97310190.76605  23764140.049 5  23764142.363 5
        44.250          32.750
  24647168.043 5 129521755.28405 100926045.74702  24647166.347 2  24647166.675 2
        35.500          17.750
  23772794.055 6 124926881.43106  97345637.24704  23772794.502 4  23772793.747 4
        41.500          27.750
  24136696.472 6 126839251.38506  98835815.37904  24136698.617 4  24136696.012 4
        41.250          29.000
  24437192.301 6 128418313.19406 100066208.09804  24437191.103 4  24437191.295 4
        40.750          25.000
  20427804.019 8 107348906.28508  83648514.16508  20427804.045 8  20427803.845 8
        52.250          50.250
  23127284.568 7 121534759.61007  94702406.29007  23127283.110 7  23127283.974 7
        43.250          43.000
  21382823.224 7 112367559.39407  87559137.28908  21382823.550 8  21382822.420 8
        47.750          53.000
  20531097.983 8 107891721.24108  84071489.88708  20531095.170 8  20531097.635 8
        50.750          49.000
 20  9  1  1  5  0.0000000  0 11G03G10G22G20G01G26G21G32G12G25G31
  25300260.656 5
        30.000
  21915734.471 8 115167992.96408  89741306.44707  21915734.629 7  21915734.150 7
        49.000          43.500
  23747987.185 7 124796523.57407  97244032.24305  23747983.379 5  23747985.853 5
        43.500          32.250
  24669280.207 5 129637953.41305 101016589.76902  24669277.998 2  24669278.897 2
        34.500          17.000
  23775487.339 7 124941034.91007  97356665.91804  23775487.930 4  23775487.022 4
        42.250          28.250
  24114973.039 6 126725092.49706  98746860.44804  24114974.763 4  24114972.637 4
        40.000          28.000
  24451028.807 6 128491021.66306 100122864.02803  24451026.299 3  24451027.783 3
        39.250          22.000
  20428343.380 8 107351740.46108  83650722.61908  20428343.462 8  20428343.206 8
        52.500          50.000
  23138832.038 7 121595436.04707  94749686.63307  23138829.457 7  23138831.484 7
        43.250          42.750
  21383705.863 7 112372198.41007  87562752.11508  21383706.163 8  21383705.050 8
        47.500          52.750
  20523564.213 8 107852130.84108  84040640.23108  20523561.340 8  20523563.865 8
        50.500          48.750
 20  9  1  1  5 30.0000000  0 11G03G10G22G20G01G26G21G32G12G25G31
  25279926.923 4
        29.000
  21932595.148 8 115256597.96308  89810349.28207  21932595.861 7  21932594.818 7
        49.000          43.500
  23731882.199 7 124711889.44207  97178083.59305  23731877.704 5  23731880.862 5
        44.750          33.250
  24691396.898 5 129754181.61105 101107157.16502  24691396.096 2  24691395.570 2
        34.500          14.250
  23778284.888 6 124955738.36306  97368123.15204  23778285.409 4  23778284.567 4
        41.250          28.250
  24093253.709 6 126610962.00906  98657927.65604  24093256.464 4  24093253.320 4
        38.250          25.750
  24464872.714 6 128563774.61006 100179554.57903  24464870.447 3  24464871.650 3
        39.750          22.750
  20428934.153 8 107354844.26508  83653141.16908  20428934.091 8  20428933.984 8
        52.250          50.000
  23150479.395 7 121656642.73607  94797380.16207  23150476.867 7  23150478.859 7
        43.750          43.500
  21384712.276 7 112377487.01307  87566873.11308  21384712.591 8  21384711.454 8
        47.750          53.000
  20516116.216 8 107812992.14708  84010142.55208  20516113.544 8  20516115.877 8
        50.250          48.750
 20  9  1  1  6  0.0000000  0 11G03G10G22G20G01G26G21G32G12G25G31
  25259610.025 4
        27.750
  21949526.821 8 115345573.14108  89879680.57407  21949527.226 7  21949526.504 7
        49.750          43.500
  23715828.557 7 124627527.14407  97112346.75405  23715824.529 5  23715827.225 5
        43.500          33.500
  24713519.234 5 129870437.43305 101197746.15102  24713519.006 2  24713517.830 2
        35.750          14.000
  23781186.945 7 124970990.58107  97380007.98804  23781188.690 4  23781186.646 4
        42.250          29.000
  24071542.109 6 126496862.60906  98569019.10504  24071544.254 4  24071541.680 4
        38.500          26.250
  24478724.907 6 128636569.21706 100236277.60203  24478722.746 3  24478723.839 3
        39.000          21.750
  20429575.942 8 107358218.33308  83655770.31508  20429576.199 8  20429575.764 8
        52.250          50.000
  23162227.282 7 121718377.71107  94845485.34507  23162224.713 7  23162226.741 7
        43.250          43.000
  21385842.243 8 112383425.24108  87571500.31408  21385842.499 8  21385841.425 8
        48.250          52.750
  20508754.528 8 107774305.21008  83979996.89708  20508751.697 8  20508754.180 8
        50.500          48.250
 20  9  1  1  6 30.0000000  0 11G03G10G22G20G01G26G21G32G12G25G31
  25239313.438 4
        26.000
  21966528.326 8 115434916.34408  89949298.63807  21966528.671 7  21966528.027 7
        49.500          44.000
  23699827.293 7 124543438.61807  97046823.28205  23699823.029 5  23699825.970 5
        43.500          32.250
  24735646.662 5 129986718.33105 101288354.64202  24735646.500 2  24735645.254 2
        35.250          14.500
  23784193.930 6 124986790.25506  97392319.42304  23784194.967 4  23784193.640 4
        41.750          28.500
  24049835.778 6 126382797.09206  98480136.93404  24049838.077 4  24049835.322 4
        40.750          27.750
  24492585.841 6 128709403.33306 100293031.43303  24492583.251 3  24492584.786 3
        38.750          22.750
  20430269.479 8 107361863.28008  83658610.53708  20430269.814 8  20430269.305 8
        52.750          50.500
  23174074.665 7 121780638.50007  94894000.25407  23174072.304 7  23174074.115 7
        43.250          43.000
  21387095.978 8 112390012.94208  87576633.59408  21387096.311 8  21387095.142 8
        48.000          53.500
  20501478.720 8 107736069.83208  83950203.10208  20501475.621 8  20501478.376 8
        50.500          48.750
 20  9  1  1  7  0.0000000  0 11G03G10G22G20G01G26G21G32G12G25G31
  25219035.215 4
        26.500
  21983599.799 8 115524625.45008  90019201.82707  21983599.698 7  21983599.504 7
        49.000          43.500
  23683877.955 7 124459626.26407  96981514.96705  23683872.667 5  23683876.645 5
        45.000          33.000
  24757779.854 5 130103022.09605 101378980.96102  24757778.871 2  24757778.468 2
        34.500          15.250
  23787304.875 7 125003136.16607  97405056.49204  23787305.213 4  23787304.576 4
        42.000          28.500
  24028136.797 6 126268768.13206  98391283.24304  24028139.037 4  24028136.310 4
        39.500          28.000
  24506452.027 6 128782274.23906 100349813.90503  24506450.728 3  24506450.972 3
        38.750          22.250
  20431014.957 8 107365779.73108  83661662.32108  20431015.024 8  20431014.779 8
        52.500          50.750
  23186022.197 7 121843423.10807  94942923.32207  23186019.827 7  23186021.656 7
        43.500          43.000
  21388472.994 7 112397249.99607  87582272.86408  21388473.392 8  21388472.145 8
        47.500          53.250
  20494288.667 8 107698286.14608  83920761.27408  20494285.614 8  20494288.328 8
        50.500          49.000
 20  9  1  1  7 30.0000000  0 11G03G10G22G20G01G26G21G32G12G25G31
  25198776.918 4
        28.250
  22000739.414 8 115614698.34908  90089388.49207  22000739.705 7  22000739.124 7
        48.000          42.750
  23667981.881 7 124376092.63507  96916423.84105  23667976.540 5  23667980.585 5
        44.500          33.250
  24779915.923 5 130219346.50605 101469623.39002  24779914.297 2  24779914.609 2
        34.000          13.000
  23790518.824 6 125020027.01906  97418218.18504  23790519.840 4  23790518.507 4
        40.000          27.500
  24006445.259 6 126154778.41506  98302460.14404  24006447.232 4  24006444.768 4
        38.500          26.250
  24520325.164 6 128855178.95906 100406622.75903  24520323.865 3  24520324.078 3
        38.000          22.250
  20431811.852 8 107369968.28608  83664926.13508  20431812.050 8  20431811.687 8
        52.500          51.000
  23198069.140 7 121906729.18907  94992252.73907  23198066.401 7  23198068.617 7
        42.750          43.000
  21389973.656 7 112405136.29807  87588418.03808  21389974.189 8  21389972.807 8
        47.750          53.750
  20487184.372 8 107660953.98908  83891671.29508  20487181.588 8  20487184.024 8
        50.750          49.250
 20  9  1  1  8  0.0000000  0 11G03G10G22G20G01G26G21G32G12G25G31
  25178537.648 5
        30.750
  22017948.596 8 115705132.84708  90159856.92707  22017948.529 7  22017948.283 7
        49.000          42.500
  23652139.655 7 124292839.89607  96851551.61005  23652134.923 5  23652138.390 5
        44.500          33.250
  24802054.366 5 130335689.22405 101560280.06701  24802053.520 1  24802052.994 1
        34.000          11.500
  23793836.783 6 125037461.49006  97431803.49004  23793836.751 4  23793836.470 4
        40.750          27.500
  23984761.072 6 126040830.70206  98213669.79104  23984763.641 4  23984760.576 4
        40.000          26.250
  24534203.769 6 128928114.87606 100463455.88703  24534202.659 3  24534202.638 3
        39.250          21.000
  20432660.765 8 107374429.56008  83668402.45408  20432660.939 8  20432660.618 8
        52.750          50.750
  23210214.645 7 121970554.96507  95041987.12807  23210211.851 7  23210214.136 7
        44.500          43.000
  21391598.166 8 112413671.64608  87595068.96808  21391598.358 8  21391597.317 8
        48.250          53.500
  20480166.320 8 107624073.33708  83862933.15108  20480163.211 8  20480165.972 8
        50.750          49.000
 20  9  1  1  8 30.0000000  0 11G03G10G22G20G01G26G21G32G12G25G31
  25158318.008 5
        32.500
  22035226.288 8 115795926.83008  90230605.47307  22035226.562 7  22035225.980 7
        49.250          43.500
  23636350.526 7 124209870.04707  96786899.82205  23636346.518 5  23636349.279 5
        45.000          33.750
  24824194.518 4 130452048.23904 101650949.42401  24824195.702 1  24824192.882 1
        29.000           5.250
  23797257.086 6 125055438.24106  97445811.34104  23797258.218 4  23797256.751 4
        40.500          27.250
  23963086.853 6 125926927.74406  98124914.28604  23963088.331 4  23963086.321 4
        40.500          27.500
  24548089.008 6 129001079.38606 100520311.29903  24548087.356 3  24548087.846 3
        40.000          22.500
  20433561.702 8 107379164.18408  83672091.77308  20433561.810 8  20433561.559 8
        52.500          50.250
  23222458.616 7 122034897.70407  95092124.34207  23222456.137 7  23222458.080 7
        43.250          42.750
  21393345.519 7 112422855.86007  87602225.51108  21393345.980 8  21393344.661 8
        47.500          53.250
  20473234.112 8 107587644.08108  83834546.72208  20473230.912 8  20473233.768 8
        50.250          48.750
 20  9  1  1  9  0.0000000  0 11G03G10G22G20G01G26G21G32G12G25G31
  25138119.002 5 132101714.29915
        34.500
  22052571.697 8 115887078.14308  90301632.45907  22052572.513 7  22052571.384 7
        49.250          43.750
  23620616.740 7 124127185.97807  96722470.70605  23620611.889 5  23620615.457 5
        44.000          32.750
  24846343.023 5 130568420.99805 101741629.51701  24846340.407 1  24846341.172 1
        30.500           4.000
  23800780.947 6 125073955.84706  97460240.66004  23800782.084 4  23800780.617 4
        41.250          28.250
  23941421.218 6 125813072.14206  98036195.64904  23941422.372 4  23941420.718 4
        40.500          28.500
  24561978.538 6 129074069.90206 100577186.97203  24561977.673 3  24561977.407 3
        38.000          22.750
  20434515.001 8 107384172.77808  83675994.57408  20434514.811 8  20434514.849 8
        52.250          50.250
  23234800.920 7 122099755.89307  95142663.18107  23234798.460 7  23234800.362 7
        42.750          42.750
  21395216.785 8 112432688.73508  87609887.50008  21395217.050 8  21395215.931 8
        48.250          53.250
  20466387.653 8 107551665.99008  83806511.85208  20466384.688 8  20466387.314 8
        50.250          49.000
 20  9  1  1  9 30.0000000  0 11G03G10G22G20G01G26G21G32G12G25G31
  25117940.663 5 131995677.76705 102853778.02613  25117942.498 3  25117940.328 3
        34.250          23.250
  22069984.792 8 115978584.58508  90372936.16407  22069985.459 7  22069984.484 7
        49.500          43.250
  23604937.036 7 124044789.82707  96658265.94405  23604932.583 5  23604935.771 5
        44.250          33.750
  24868490.893 5 130684805.32205 101832318.64001  24868487.544 1  24868489.346 1
        31.500           8.500
  23804407.726 6 125093013.01806  97475090.39404  23804409.183 4  23804407.391 4
        41.750          29.250
  23919764.192 6 125699266.71906  97947516.13704  23919766.362 4  23919763.692 4
        41.250          28.750
  24575872.319 6 129147083.81606 100634080.90403  24575871.152 3  24575871.166 3
        38.250          21.500
  20435520.280 8 107389455.99008  83680111.36408  20435520.117 8  20435520.115 8
        52.250          50.250
  23247240.640 7 122165127.04207  95193601.73307  23247238.071 7  23247240.046 7
        43.250          42.500
  21397211.313 7 112443169.98307  87618054.71408  21397211.676 8  21397210.464 8
        47.750          53.500
  20459627.125 8 107516138.78808  83778828.31808  20459624.056 8  20459626.786 8
        50.250          48.750
 20  9  1  1 10  0.0000000  0 11G03G10G22G20G01G26G21G32G12G25G31
  25097784.352 5 131889753.79005 102771239.84304  25097785.206 4  25097784.365 4
        32.750          24.000
  22087465.343 8 116070443.99708  90444514.91307  22087465.411 7  22087465.044 7
        48.000          42.750
  23589312.357 7 123962683.81707  96594287.25605  23589307.705 5  23589311.110 5
        45.000          33.500
  24890638.831 5 130801198.91905 101923015.01501  24890636.627 1  24890637.468 1
        33.250           7.250
  23808136.109 6 125112608.27506  97490359.43904  23808137.407 4  23808135.783 4
        39.750          28.000
  23898117.956 6 125585514.18606  97858877.83804  23898119.930 4  23898117.442 4
        40.500          29.250
  24589770.970 6 129220118.52806 100690991.05903  24589769.675 3  24589769.844 3
        39.500          22.000
  20436577.921 8 107395014.39808  83684442.59608  20436577.892 8  20436577.756 8
        52.250          50.250
  23259777.951 7 122231008.89607  95244938.25406  23259774.685 6  23259777.321 6
        42.000          41.500
  21399329.068 7 112454299.30307  87626726.92308  21399329.526 8  21399328.223 8
        47.750          53.250
  20452952.013 8 107481062.71108  83751496.31508  20452949.171 8  20452951.665 8
        50.500          49.000
 20  9  1  1 10 30.0000000  0 11G03G10G22G20G01G26G21G32G12G25G31
  25077649.862 5 131783944.78705 102688791.31204  25077651.234 4  25077649.893 4
        33.500          26.750
  22105011.804 8 116162654.14908  90516366.96807  22105012.385 7  22105011.523 7
        48.500          42.750
  23573743.760 7 123880870.49107  96530536.63805  23573739.541 5  23573742.513 5
        44.000          34.250
  24912788.547 5 130917599.64605 102013716.92201  24912787.055 1  24912787.134 1
        32.750           3.750
  23811967.517 6 125132740.20606  97506046.65204  23811968.296 4  23811967.196 4
        40.500          28.250
  23876481.675 6 125471817.27806  97770282.90504  23876484.083 4  23876481.148 4
        38.250          28.250
  24603672.991 6 129293171.41306 100747915.36204  24603671.006 4  24603671.918 4
        40.500          24.250
  20437688.115 8 107400848.63208  83688988.75408  20437688.223 8  20437687.955 8
        52.250          50.500
  23272411.389 7 122297399.12007  95296670.91006  23272407.797 6  23272410.768 6
        42.000          41.500
  21401570.081 7 112466076.40507  87635903.89008  21401570.748 8  21401569.236 8
        47.750          53.750
  20446363.391 8 107446437.60608  83724515.71608  20446360.065 8  20446363.034 8
        50.000          49.000
 20  9  1  1 11  0.0000000  0 11G03G10G22G20G01G26G21G32G12G25G31
  25057537.232 5 131678253.20305 102606434.26004  25057538.765 4  25057537.233 4
        33.250          26.000
  22122625.621 8 116255212.84108  90588490.60907  22122626.137 7  22122625.335 7
        49.000          42.750
  23558231.669 7 123799352.16107  96467015.91605  23558228.015 5  23558230.413 5
        45.500          35.250
  24934938.566 4 131034005.44604 102104423.00801  24934938.378 1  24934937.064 1
        29.750           3.500
  23815900.245 6 125153407.31006  97522150.87304  23815900.547 4  23815899.919 4
        41.250          28.250
  23854856.536 6 125358178.72306  97681733.45504  23854859.585 4  23854855.995 4
        40.000          29.000
  24617577.437 6 129366239.93106 100804851.82804  24617576.335 4  24617576.396 4
        40.500          24.250
  20438851.060 8 107406959.34708  83693750.35108  20438851.158 8  20438850.904 8
        53.000          50.500
  23285140.891 7 122364295.60207  95348798.04007  23285137.603 7  23285140.279 7
        43.000          42.000
  21403934.409 8 112478500.92808  87645585.34408  21403934.882 8  21403933.564 8
        48.500          53.500
  20439860.377 8 107412263.03108  83697886.18608  20439856.877 8  20439860.020 8
        50.500          49.000
 20  9  1  1 11 30.0000000  0 11G03G10G22G20G01G26G21G32G12G25G31
  25037447.754 5 131572681.49505 102524170.62804  25037449.008 4  25037447.665 4
        35.000          27.750
  22140304.673 8 116348117.87708  90660884.12707  22140305.431 7  22140304.392 7
        49.250          43.000
  23542775.853 7 123718130.69707  96403726.48905  23542771.516 5  23542774.610 5
        44.750          34.000
  24957090.738 4
        25.500
  23819934.222 6 125174608.14206  97538670.99604  23819936.280 4  23819933.909 4
        41.500          29.500
  23833244.107 6 125244601.27406  97593231.60604  23833246.373 4  23833243.607 4
        39.000          28.750
  24631483.774 6 129439321.43606 100861798.43203  24631481.739 3  24631482.742 3
        38.250          21.000
  20440066.646 8 107413347.12908  83698727.84908  20440066.849 8  20440066.490 8
        52.500          50.500
  23297966.962 7 122431695.91007  95401317.76306  23297963.603 6  23297966.350 6
        42.750          41.750
  21406421.739 8 112491572.52308  87655771.00608  21406422.325 8  21406420.890 8
        48.250          53.250
  20433442.655 8 107378538.67208  83671607.47708  20433439.518 8  20433442.298 8
        50.000          48.750
 20  9  1  1 12  0.0000000  0 11G03G10G22G20G01G26G21G32G12G25G31
  25017381.262 5 131467232.05805 102442002.24404  25017382.955 4  25017381.124 4
        35.000          27.500
  22158049.524 8 116441366.99808  90733545.76807  22158050.282 7  22158049.234 7
        48.750          43.250
  23527376.787 7 123637208.92607  96340670.57805  23527371.825 5  23527375.535 5
        45.250          34.500
  24979248.491 3
        22.750
  23824069.893 6 125196341.17206  97555605.82904  23824072.634 4  23824069.572 4
        40.750          29.000
  23811643.200 6 125131087.60306  97504779.45904  23811645.547 4  23811642.709 4
        41.000          28.500
  24645393.314 6 129512413.16106 100918753.01503  24645390.574 3  24645392.237 3
        39.500          20.750
  20441335.038 8 107420012.62208  83703921.74508  20441335.256 8  20441334.895 8
        52.250          50.750
  23310888.118 7 122499597.59207  95454228.17006  23310884.844 6  23310887.501 6
        42.000          41.250
  21409032.378 8 112505290.76508  87666460.55408  21409032.871 8  21409031.524 8
        48.250          53.500
  20427110.525 8 107345264.69108  83645679.71008  20427107.852 8  20427110.154 8
        50.250          49.000
 20  9  1  1 12 30.0000000  0 11G03G10G22G20G01G26G21G32G12G25G31
  24997338.104 5 131361907.34405 102359931.04603  24997340.150 3  24997337.930 3
        35.750          22.250
  22175859.605 8 116534958.00408  90806473.79907  22175859.919 7  22175859.310 7
        48.250          42.500
  23512035.249 7 123556589.11807  96277849.98105  23512031.427 5  23512033.989 5
        45.000          35.000
  25001476.412 4
        24.250
  23828307.021 6 125218604.96206  97572954.25904  23828308.803 4  23828306.708 4
        41.250          28.500
  23790055.270 6 125017640.62406  97416379.25704  23790056.562 4  23790054.747 4
        41.250          28.750
  24659303.592 6 129585512.44306 100975713.46503  24659301.076 3  24659302.533 3
        38.500          22.000
  20442656.437 8 107426956.45608  83709332.52908  20442656.478 8  20442656.312 8
        52.250          50.500
  23323904.382 7 122567998.20407  95507527.35206  23323901.004 6  23323903.788 6
        42.500          41.250
  21411765.929 8 112519655.21308  87677653.63908  21411766.285 8  21411765.080 8
        48.250          53.250
  20420864.566 8 107312440.64908  83620102.54408  20420861.666 8  20420864.195 8
        50.000          49.000
 20  9  1  1 13  0.0000000  0 11G03G10G22G20G01G26G21G32G12G25G31
  24977319.910 5 131256709.73005 102277958.89003  24977322.208 3  24977319.732 3
        35.750          22.750
  22193733.968 8 116628888.63908  90879666.47907  22193734.054 7  22193733.678 7
        48.500          42.250
  23496751.445 7 123476273.18807  96215266.16705  23496747.511 5  23496750.198 5
        45.750          35.750
  25023616.140 3
        20.500
  23832644.386 6 125241397.83906  97590714.92004  23832646.313 4  23832644.073 4
        41.250          28.500
  23768480.554 6 124904263.00506  97328033.10604  23768481.574 4  23768480.072 4
        41.000          29.500
  24673214.778 6 129658616.76306 101032677.86203  24673213.197 3  24673213.750 3
        39.000          22.000
  20444030.981 8 107434179.23008  83714960.66308  20444030.867 8  20444030.856 8
        52.500          50.500
  23337014.980 7 122636896.04507  95561213.98506  23337012.088 6  23337014.377 6
        42.250          41.750
  21414622.426 7 112534665.38407  87689349.88308  21414622.664 8  21414621.568 8
        47.750          53.250
  20414703.721 8 107280066.42208  83594875.89008  20414701.014 8  20414703.341 8
        50.250          49.000
 20  9  1  1 13 30.0000000  0 10G03G10G22G01G26G21G32G12G25G31
  24957326.386 5 131151641.84605 102196087.84103  24957328.394 3  24957326.208 3
        35.750          18.750
  22211672.153 8 116723156.62008  90953122.03807  22211672.388 7  22211671.845 7
        48.750          42.250
  23481526.226 7 123396263.75807  96152921.19905  23481522.508 5  23481524.979 5
        45.000          35.500
  23837082.277 6 125264718.24806  97608886.66204  23837083.701 4  23837081.978 4
        40.750          28.500
  23746918.622 7 124790957.45307  97239743.09204  23746920.179 4  23746918.157 4
        42.000          29.250
  24687127.058 6 129731723.37906 101089644.02503  24687125.318 3  24687125.990 3
        38.750          22.750
  20445458.445 8 107441681.57008  83720806.64408  20445458.584 8  20445458.311 8
        52.250          50.500
  23350220.339 6 122706288.66406  95615286.15607  23350217.326 7  23350219.767 7
        41.500          42.000
  21417601.208 8 112550320.83408  87701548.94508  21417601.842 8  21417600.341 8
        48.000          53.500
  20408628.744 8 107248141.89408  83569999.64108  20408625.836 8  20408628.364 8
        50.250          49.250
 20  9  1  1 14  0.0000000  0 11G03G10G22G20G01G26G21G32G12G25G31
  24937358.428 6 131046706.21506 102114319.83203  24937359.205 3  24937358.232 3
        37.750          19.750
  22229674.792 8 116817759.72208  91026838.72607  22229674.653 7  22229674.479 7
        49.250          42.000
  23466360.059 7 123316563.18407  96090816.88005  23466355.247 5  23466358.825 5
        44.750          34.250
  25067842.589 3
        21.500
  23841619.683 7 125288564.70507  97627468.30604  23841620.444 4  23841619.388 4
        42.000          27.750
  23725371.473 6 124677726.84806  97151511.49004  23725373.138 4  23725371.004 4
        41.000          28.750
  24701038.312 6 129804829.74506 101146609.99903  24701035.941 3  24701037.280 3
        39.250          21.500
  20446939.518 8 107449464.07708  83726870.93708  20446939.537 8  20446939.371 8
        52.500          50.250
  23363518.553 7 122776173.37807  95669741.76906  23363516.061 6  23363517.972 6
        43.000          41.500
  21420703.427 8 112566621.01908  87714250.39708  21420703.476 8  21420702.564 8
        48.250          53.000
  20402639.013 8 107216666.51708  83545473.38208  20402636.379 8  20402638.633 8
        50.500          49.000
 20  9  1  1 14 30.0000000  0 11G03G10G22G20G01G26G21G32G12G25G31
  24917415.847 6 130941905.23406 102032656.74903  24917416.403 3  24917415.642 3
        37.000          20.750
  22247740.798 8 116912695.67108  91100814.77107  22247740.974 7  22247740.490 7
        48.250          42.500
  23451252.469 7 123237173.63007  96028954.91605  23451248.117 5  23451251.235 5
        45.000          34.750
  25089988.742 3
        22.000
  23846257.642 6 125312935.49006  97646458.54204  23846258.670 4  23846257.365 4
        41.000          28.500
  23703838.547 6 124564573.86506  97063340.39204  23703840.773 4  23703838.074 4
        39.750          28.250
  24714948.988 6 129877933.42406 101203573.85703  24714947.396 3  24714947.902 3
        38.750          21.750
  20448474.146 8 107457527.42608  83733154.07408  20448473.840 8  20448473.999 8
        51.500          50.000
  23376910.391 7 122846547.59007  95724578.82306  23376907.623 6  23376909.801 6
        42.000          40.750
  21423927.657 8 112583565.38808  87727453.80808  21423927.820 8  21423926.794 8
        48.000          53.000
  20396734.876 8 107185640.20508  83521297.05108  20396732.407 8  20396734.496 8
        50.000          49.000
 20  9  1  1 15  0.0000000  0 11G03G10G22G20G01G26G21G32G12G25G31
  24897498.019 6 130837241.34406 101951100.50503  24897499.412 3  24897497.827 3
        37.000          20.750
  22265869.255 7 117007962.15707  91175048.37507  22265869.836 7  22265868.951 7
        47.750          42.500
  23436204.551 7 123158097.32007  95967337.02405  23436199.524 5  23436203.304 5
        45.000          34.500
  25112133.576 3
        23.750
  23850994.003 6 125337829.00606  97665856.08504  23850995.769 4  23850993.731 4
        40.000          27.250
  23682321.787 6 124451501.24506  96975231.90904  23682323.781 4  23682321.282 4
        40.750          29.000
  24728860.086 6 129951031.65306 101260533.47704  24728858.064 4  24728859.018 4
        39.500          24.000
  20450062.082 8 107465872.20808  83739656.50308  20450061.592 8  20450061.939 8
        52.000          50.000
  23390395.264 6 122917409.63006  95779796.00306  23390392.064 6  23390394.670 6
        41.750          40.750
  21427274.571 8 112601153.37908  87741158.74608  21427274.539 8  21427273.695 8
        48.250          53.250
  20390916.237 8 107155062.50108  83497470.27608  20390913.610 8  20390915.857 8
        50.500          49.250
 20  9  1  1 15 30.0000000  0 11G03G10G22G20G01G26G21G32G12G25G31
  24877607.897 6 130732717.10806 101869653.05803  24877609.147 3  24877607.754 3
        37.250          20.500
  22284060.261 8 117103556.92808  91249537.77707  22284061.036 7  22284059.962 7
        48.500          42.000
  23421217.144 7 123079336.75107  95905965.18006  23421212.814 6  23421215.901 6
        45.750          36.250
  25134274.225 4
        28.000
  23855831.154 6 125363243.61506  97685659.68804  23855831.793 4  23855830.877 4
        41.000          27.750
  23660820.846 6 124338511.74706  96887188.20605  23660822.892 5  23660820.364 5
        41.500          30.750
  24742768.147 6 130024121.89306 101317486.90503  24742766.773 3  24742767.106 3
        38.250          20.750
  20451703.510 8 107474499.02708  83746378.70208  20451703.116 8  20451703.358 8
        52.250          50.000
  23403972.043 7 122988756.52107  95835390.98306  23403969.087 6  23403971.467 6
        42.750          41.500
  21430743.512 8 112619384.36008  87755364.71308  21430743.914 8  21430742.627 8
        48.500          53.250
  20385182.867 8 107124933.38708  83473993.05308  20385180.019 8  20385182.487 8
        51.250          49.250
 20  9  1  1 16  0.0000000  0 11G03G10G22G20G01G26G21G32G12G25G31
  24857744.358 6 130628334.95506 101788316.35203  24857745.735 3  24857744.247 3
        38.000          21.000
  22302313.342 8 117199477.67308  91324281.19206  22302313.600 6  22302313.029 6
        48.500          41.750
  23406289.807 7 123000894.23007  95844841.18406  23406286.328 6  23406288.573 6
        46.000          36.000
  25156412.048 4
        28.000
  23860765.514 7 125389177.63007  97705867.99604  23860767.082 4  23860765.242 4
        42.250          29.000
  23639335.509 7 124225608.19207  96799211.46405  23639338.100 5  23639335.018 5
        42.750          31.500
  24756674.891 6 130097201.81406 101374432.29503  24756673.197 3  24756673.765 3
        39.250          21.750
  20453398.863 8 107483408.52308  83753321.17008  20453398.541 8  20453398.711 8
        52.500          50.000
  23417640.339 7 123060585.96507  95891361.97406  23417637.974 6  23417639.754 6
        43.000          41.750
  21434335.436 8 112638257.73108  87770071.25008  21434335.508 8  21434334.560 8
        48.000          53.000
  20379534.874 8 107095252.27108  83450864.91108  20379531.765 8  20379534.503 8
        51.000          49.250
 20  9  1  1 16 30.0000000  0 11G03G10G22G20G01G26G21G32G12G25G31
  24837908.682 6 130524097.45806 101707092.34603  24837910.167 3  24837908.589 3
        38.250          21.000
  22320628.056 8 117295722.05908  91399276.79706  22320628.597 6  22320627.743 6
        48.250          41.750
  23391423.768 7 122922772.04207  95783966.77605  23391419.609 5  23391422.530 5
        45.250          35.750
  25178547.474 4
        25.750
  23865798.940 6 125415629.27206  97726479.68004  23865800.484 4  23865798.668 4
        41.500          29.000
  23617868.257 7 124112793.36107  96711303.84905  23617869.872 5  23617867.779 5
        43.000          32.500
  24770578.915 6 130170268.62706 101431367.43003  24770577.699 3  24770577.748 3
        38.750          22.750
  20455148.251 8 107492601.31708  83760484.38808  20455148.000 8  20455148.099 8
        52.250          50.000
  23431400.955 6 123132895.63206  95947707.17406  23431398.073 6  23431400.365 6
        41.500          41.000
  21438048.851 8 112657772.80908  87785277.81108  21438049.195 8  21438047.971 8
        48.000          53.250
  20373971.866 8 107066018.91708  83428085.68208  20373968.794 8  20373971.495 8
        50.750          49.250
 20  9  1  1 17  0.0000000  0 11G03G10G22G20G01G26G21G32G12G25G31
  24818101.016 6 130420007.05506 101625982.94603  24818102.811 3  24818100.905 3
        39.000          23.000
  22339003.942 8 117392287.82508  91474522.82506  22339004.283 6  22339003.643 6
        48.250          41.750
  23376619.850 7 122844972.46807  95723343.75105  23376614.040 5  23376618.598 5
        45.000          35.250
  25200674.306 3
        22.750
  23870931.077 6 125442596.92806  97747493.44204  23870932.176 4  23870930.809 4
        41.000          29.000
  23596417.487 7 124000070.01007  96623467.48305  23596418.711 5  23596417.031 5
        43.000          31.750
  24784480.365 6 130243319.43506 101488290.11503  24784478.435 3  24784479.203 3
        37.750          21.500
  20456951.638 8 107502077.99808  83767868.81708  20456951.518 8  20456951.478 8
        52.250          50.250
  23445252.100 7 123205682.76807  96004424.42906  23445248.844 6  23445251.542 6
        42.000          41.000
  21441884.383 8 112677928.88408  87800983.85208  21441884.837 8  21441883.503 8
        48.500          53.500
  20368494.187 8 107037232.98208  83405655.09308  20368490.896 8  20368493.816 8
        50.750          49.500
 20  9  1  1 17 30.0000000  0 11G03G10G22G20G01G26G21G32G12G25G31
  24798321.557 6 130316066.31906 101544990.17803  24798323.957 3  24798321.441 3
        38.750          23.750
  22357440.484 7 117489172.57907  91550017.42606  22357440.393 6  22357440.180 6
        47.500          40.750
  23361875.749 7 122767497.73007  95662973.84806  23361872.156 6  23361874.493 6
        46.000          36.500
  25222924.473 3
        20.750
  23876161.015 6 125470078.72106  97768907.81204  23876162.012 4  23876160.747 4
        40.750          28.750
  23574984.562 7 123887440.89807  96535704.56405  23574985.665 5  23574984.111 5
        42.000          30.250
  24798377.620 6 130316351.86006 101545198.45303  24798375.379 3  24798376.427 3
        36.000          21.000
  20458808.863 8 107511839.21308  83775474.96208  20458809.115 8  20458808.694 8
        52.250          50.250
  23459192.806 7 123278945.21907  96061512.05206  23459190.357 6  23459192.243 6
        42.250          41.250
  21445841.537 8 112698725.26408  87817188.83408  21445842.098 8  21445840.652 8
        48.250          53.250
  20363101.390 8 107008894.12608  83383572.87308  20363098.266 8  20363101.024 8
        50.250          49.250
 20  9  1  1 18  0.0000000  0 11G03G10G22G20G01G26G21G32G12G25G31
  24778571.690 6 130212277.79306 101464116.01503  24778572.747 3  24778571.570 3
        38.000          23.000
  22375937.468 7 117586374.05807  91625758.81806  22375937.685 6  22375937.160 6
        46.750          40.750
  23347195.330 7 122690350.22307  95602858.94906  23347191.890 6  23347194.052 6
        45.500          36.250
  25244986.663 3
        23.000
  23881487.726 6 125498073.06606  97790721.58404  23881489.042 4  23881487.476 4
        41.250          28.750
  23553570.200 6 123774908.82506  96448017.25404  23553571.347 4  23553569.718 4
        41.250          29.250
  24812271.047 6 130389363.47106 101602090.57303  24812270.294 3  24812269.813 3
        37.250          21.500
  20460720.905 8 107521885.56308  83783303.29008  20460720.917 8  20460720.731 8
        52.250          50.250
  23473224.172 7 123352680.72407  96118968.27906  23473221.924 6  23473223.609 6
        42.500          41.500
  21449921.212 8 112720161.19708  87833892.16208  21449921.130 8  21449920.354 8
        48.000          53.000
  20357793.667 8 106981001.88408  83361838.67108  20357790.495 8  20357793.301 8
        50.250          49.250
 20  9  1  1 18 30.0000000  0 11G03G10G22G20G01G26G21G32G12G25G31
  24758851.404 6 130108643.98306 101383362.40103  24758852.091 3  24758851.306 3
        38.750          23.250
  22394494.020 8 117683889.86208  91701745.13206  22394494.749 6  22394493.712 6
        48.750          41.500
  23332577.837 7 122613532.12907  95543000.72206  23332573.052 6  23332576.554 6
        45.500          36.000
  25267094.566 3
        22.750
  23886912.464 7 125526578.06307  97812933.26205  23886913.447 5  23886912.219 5
        42.750          30.000
  23532174.694 6 123662476.58106  96360407.77104  23532177.101 4  23532174.171 4
        41.500          29.500
  24826160.530 6 130462351.62006 101658964.44103  24826158.903 3  24826159.252 3
        38.000          20.000
  20462686.941 8 107532217.69708  83791354.30508  20462686.977 8  20462686.763 8
        52.250          50.000
  23487344.959 7 123426886.49707  96176790.96006  23487343.058 6  23487344.378 6
        42.250          41.250
  21454121.692 8 112742235.88208  87851093.22608  21454121.719 8  21454120.852 8
        48.000          53.000
  20352570.830 8 106953556.35308  83340452.55708  20352567.810 8  20352570.464 8
        50.500          49.250
 20  9  1  1 19  0.0000000  0 10G03G10G22G01G26G21G32G12G25G31
  24739159.809 6 130005167.40406 101302731.32403  24739160.889 3  24739159.716 3
        37.750          23.250
  22413110.205 8 117781717.68708  91777974.58606  22413110.883 6  22413109.901 6
        48.000          41.500
  23318022.352 7 122537045.71107  95483400.93906  23318017.684 6  23318021.051 6
        46.250          36.500
  23892433.435 6 125555591.91506  97835541.45504  23892433.871 4  23892433.199 4
        41.750          29.250
  23510799.743 6 123550146.96806  96272878.25404  23510801.534 4  23510799.225 4
        39.750          29.250
  24840045.074 6 130535313.67306 101715817.97003  24840043.134 3  24840043.782 3
        39.500          20.250
  20464707.760 8 107542836.18708  83799628.45108  20464707.444 8  20464707.586 8
        52.250          50.000
  23501555.366 7 123501560.14707  96234978.22006  23501552.685 6  23501554.790 6
        42.000          40.500
  21458443.640 8 112764948.55108  87868791.41108  21458443.748 8  21458442.800 8
        48.000          52.750
  20347433.081 8 106926556.69308  83319413.87308  20347430.014 8  20347432.715 8
        50.250          49.250
 20  9  1  1 19 30.0000000  0 11G03G10G22G20G01G26G21G32G12G25G31
  24719498.633 6 129901850.67206 101222224.82104  24719500.542 4  24719498.513 4
        37.750          24.000
  22431784.925 7 117879855.14107  91854445.31206  22431785.586 6  22431784.630 6
        46.750          40.500
  23303531.445 7 122460893.59307  95424061.65205  23303526.461 5  23303530.135 5
        45.000          35.250
  25311241.854 3
        23.250
  23898051.253 7 125585112.77007  97858544.72605  23898051.700 5  23898051.008 5
        42.750          30.250
  23489444.709 6 123437922.71806  96185430.82605  23489445.449 5  23489444.222 5
        41.750          30.750
  24853923.697 6 130608247.00106 101772649.15603  24853921.383 3  24853922.437 3
        40.250          22.250
  20466782.914 8 107553741.67608  83808126.23708  20466782.702 8  20466782.740 8
        52.250          50.250
  23515853.539 6 123576699.05306  96293528.03206  23515850.698 6  23515852.981 6
        41.750          40.750
  21462886.900 7 112788298.36007  87886986.07708  21462887.114 8  21462886.055 8
        47.500          53.000
  20342380.130 8 106900002.59008  83298722.37208  20342376.929 8  20342379.768 8
        50.000          49.500
 20  9  1  1 20  0.0000000  0 11G03G10G22G20G01G26G21G32G12G25G31
  24699869.375 6 129798696.31806 101141844.84504  24699871.246 4  24699869.215 4
        38.250          24.750
  22450518.349 7 117978299.92107  91931155.51406  22450518.733 6  22450518.068 6
        46.500          40.000
  23289103.765 7 122385077.84807  95364984.47006  23289098.949 6  23289102.442 6
        46.250          36.250
  25333341.994 3
        22.500
  23903764.701 7 125615138.88407  97881941.69805  23903765.991 5  23903764.465 5
        42.500          30.250
  23468109.280 7 123325806.68307  96098067.71805  23468110.510 5  23468108.793 5
        42.500          31.500
  24867797.203 6 130681149.04906 101829455.89703  24867795.643 3  24867795.983 3
        39.500          23.000
  20468912.583 8 107564934.77708  83816848.13508  20468912.688 8  20468912.409 8
        52.500          50.250
  23530239.899 7 123652300.65707  96352438.37706  23530237.321 6  23530239.372 6
        42.750          41.750
  21467451.297 8 112812284.41908  87905676.51908  21467451.505 8  21467450.439 8
        48.250          53.250
  20337411.785 8 106873893.62208  83278377.73008  20337408.648 8  20337411.419 8
        50.500          49.750
 20  9  1  1 20 30.0000000  0 11G03G10G22G20G01G26G21G32G12G25G31
  24680271.116 6 129695706.89006 101061593.39103  24680272.992 3  24680270.987 3
        37.000          23.000
  22469309.737 7 118077049.58007  92008103.28106  22469310.119 6  22469309.451 6
        47.500          40.500
  23274741.042 7 122309600.21207  95306170.75706  23274736.223 6  23274739.710 6
        45.750          36.250
  25355427.513 4
        27.250
  23909574.595 7 125645668.33107  97905730.90304  23909575.340 4  23909574.354 4
        42.000          29.750
  23446795.397 7 123213801.62107  96010791.08705  23446797.375 5  23446794.932 5
        42.750          32.500
  24881663.163 6 130754017.51606 101886236.50103  24881662.117 3  24881661.952 3
        39.750          23.000
  20471097.650 8 107576416.10008  83825794.62108  20471097.500 8  20471097.481 8
        52.000          50.250
  23544714.477 6 123728362.47106  96411707.32307  23544711.664 7  23544713.972 7
        41.750          42.000
  21472136.813 7 112836905.88107  87924862.07908  21472136.773 8  21472135.964 8
        47.750          53.250
  20332527.932 8 106848229.25108  83258379.52108  20332524.804 8  20332527.566 8
        50.250          50.000
 20  9  1  1 21  0.0000000  0 11G03G10G22G20G01G26G21G32G12G25G31
  24660705.086 6 129592884.94206 100981472.44603  24660705.901 3  24660704.934 3
        36.250          22.500
  22488158.605 8 118176101.80108  92085286.80806  22488159.399 6  22488158.324 6
        48.000          41.000
  23260442.896 7 122234463.37707  95247622.60506  23260438.563 6  23260441.564 6
        46.000          37.000
  25377508.322 4
        25.750
  23915479.139 6 125676699.16406  97929910.76804  23915479.970 4  23915478.898 4
        41.750          29.000
  23425502.981 7 123101910.34507  95923603.10905  23425504.725 5  23425502.512 5
        42.250          32.500
  24895522.351 6 130826849.68706 101942988.83303  24895521.344 3  24895521.158 3
        39.000          22.250
  20473337.585 8 107588186.26208  83834966.17908  20473337.242 8  20473337.416 8
        52.000          50.000
  23559275.427 6 123804881.76006  96471332.73706  23559272.894 6  23559274.936 6
        41.500          41.000
  21476942.630 7 112862161.81107  87944542.02608  21476942.815 8  21476941.781 8
        47.750          53.000
  20327728.580 8 106823009.21808  83238727.55708  20327725.667 8  20327728.214 8
        50.750          50.000
 20  9  1  1 21 30.0000000  0 11G03G10G22G20G01G26G21G32G12G25G31
  24641171.288 6 129490233.01706 100901483.97003  24641171.685 3  24641171.168 3
        38.000          22.750
  22507064.965 7 118275454.16307  92162704.21806  22507065.549 6  22507064.679 6
        47.500          41.000
  23246210.134 7 122159669.82007  95189341.93606  23246205.344 6  23246208.797 6
        46.250          36.500
  25399582.286 3
        22.000
  23921479.282 6 125708229.51706  97954479.85405  23921480.941 5  23921479.032 5
        41.750          30.250
  23404232.270 6 122990135.62506  95836505.98505  23404235.385 5  23404231.819 5
        41.500          31.750
  24909374.595 6 130899642.93006 101999710.82103  24909372.235 3  24909373.402 3
        39.500          20.250
  20475632.296 8 107600245.87408  83844363.28108  20475632.110 8  20475632.122 8
        52.500          50.250
  23573923.323 7 123881856.46707  96531313.02606  23573920.767 6  23573922.876 6
        42.000          40.750
  21481869.156 8 112888051.27108  87964715.64008  21481869.635 8  21481868.316 8
        48.250          53.250
  20323013.800 8 106798232.86308  83219421.31408  20323010.909 8  20323013.438 8
        50.750          50.000
 20  9  1  1 22  0.0000000  0 11G03G10G22G20G01G26G21G32G12G25G31
  24621670.355 6 129387753.72406 100821630.00603  24621670.527 3  24621670.257 3
        37.750          23.750
  22526027.872 7 118375104.25207  92240353.61606  22526028.488 6  22526027.604 6
        47.000          40.500
  23232043.162 7 122085221.43507  95131330.23006  23232038.242 6  23232041.843 6
        45.500          36.500
  25421649.162 4
        24.000
  23927573.414 6 125740257.46806  97979436.68304  23927575.803 4  23927573.182 4
        41.500          29.750
  23382985.470 6 122878480.21906  95749501.83505  23382987.845 5  23382984.992 5
        41.250          30.000
  24923219.190 6 130972394.70006 102056400.49803  24923216.383 3  24923217.983 3
        40.250          21.500
  20477982.646 8 107612595.51608  83853986.38308  20477982.212 8  20477982.477 8
        52.250          50.250
  23588656.862 7 123959283.86607  96591646.07806  23588654.710 6  23588656.384 6
        42.250          41.000
  21486916.214 7 112914573.29607  87985382.15808  21486916.657 8  21486915.374 8
        47.750          53.000
  20318383.315 8 106773899.75808  83200460.46508  20318380.329 8  20318382.958 8
        51.250          50.000
 20  9  1  1 22 30.0000000  0 11G03G10G22G20G01G26G21G32G12G25G31
  24602202.670 6 129285449.65206 100741912.58503  24602202.522 3  24602202.568 3
        37.750          23.250
  22545046.834 7 118475049.71507  92318233.17906  22545047.394 6  22545046.562 6
        47.000          40.000
  23217942.157 7 122011120.77607  95073589.48806  23217937.673 6  23217940.825 6
        46.500          37.000
  25443710.184 4
        24.500
  23933762.741 6 125772781.06006  98004779.72104  23933764.985 4  23933762.496 4
        41.750          29.250
  23361761.506 7 122766947.01707  95662592.86405  23361762.761 5  23361761.024 5
        43.000          31.000
  24937054.072 6 131045102.45206 102113055.86603  24937052.746 3  24937052.803 3
        40.000          20.250
  20480387.768 8 107625235.81308  83863835.97008  20480387.694 8  20480387.603 8
        52.000          50.000
  23603476.805 7 124037161.14507  96652329.68006  23603474.436 6  23603476.349 6
        42.750          41.250
  21492083.238 7 112941726.85807  88006540.78308  21492083.743 8  21492082.375 8
        47.500          52.500
  20313837.130 8 106750009.47808  83181844.67208  20313834.053 8  20313836.773 8
        51.250          50.000
 20  9  1  1 23  0.0000000  0 11G03G10G22G20G01G26G21G32G12G25G31
  24582768.042 6 129183323.35706 100662333.68903  24582768.435 3  24582767.931 3
        38.250          22.750
  22564121.551 7 118575288.11907  92396341.00906  22564121.847 6  22564121.288 6
        47.500          40.000
  23203908.113 7 121937370.31807  95016121.62206  23203903.356 6  23203906.776 6
        45.750          36.750
  25465758.637 3
        22.250
  23940046.319 6 125805798.33306  98030507.46404  23940047.494 4  23940046.074 4
        41.000          28.750
  23340561.463 7 122655538.76307  95575781.25805  23340562.548 5  23340560.967 5
        43.000          32.750
  24950881.456 6 131117763.97506 102169675.21303  24950879.307 3  24950880.169 3
        39.500          21.000
  20482848.358 8 107638167.36508  83873912.50508  20482848.487 8  20482848.189 8
        52.250          50.250
  23618380.998 7 124115485.88407  96713361.94306  23618379.025 6  23618380.547 6
        42.250          41.250
  21497370.442 7 112969510.98307  88028190.75808  21497370.564 8  21497369.557 8
        46.750          52.250
  20309375.215 8 106726561.69208  83163573.68508  20309372.075 8  20309374.862 8
        51.250          50.000
 20  9  1  1 23 30.0000000  0 11G03G10G22G20G01G26G21G32G12G25G31
  24563367.985 6 129081377.38006 100582895.28503  24563368.323 3  24563367.811 3
        38.250          22.500
  22583251.536 8 118675817.05808  92474675.23406  22583251.958 6  22583251.250 6
        48.000          40.500
  23189940.503 7 121863971.91007  94958928.08306  23189935.774 6  23189939.166 6
        46.500          37.000
  25487812.483 3
        18.750
  23946423.008 7 125839307.36207  98056618.38504  23946423.750 4  23946422.749 4
        42.250          28.750
  23319384.984 7 122544258.24907  95489069.21505  23319387.461 5  23319384.515 5
        42.250          33.250
  24964699.300 6 131190376.61206 102226256.52603  24964697.863 3  24964698.035 3
        39.250          22.250
  20485364.955 8 107651390.81608  83884216.49508  20485364.767 8  20485364.790 8
        52.250          50.250
  23633371.152 7 124194255.17807  96774740.60706  23633368.146 6  23633370.723 6
        42.250          41.250
  21502777.661 7 112997924.62707  88050331.26408  21502777.396 8  21502776.763 8
        47.250          52.500
  20304997.515 8 106703555.89208  83145647.09208  20304994.303 8  20304997.167 8
        50.500          50.250
 20  9  1  1 24  0.0000000  0 10G03G10G22G01G26G21G32G12G25G31
  24544003.076 6 128979614.31506 100503599.45003  24544004.520 3  24544002.853 3
        37.000          22.750
  22602436.500 7 118776634.11807  92553233.96406  22602436.874 6  22602436.205 6
        47.000          40.000
  23176040.971 7 121790927.34807  94902010.26206  23176035.681 6  23176039.634 6
        46.000          36.750
  23952893.044 6 125873306.15206  98083110.94404  23952893.723 4  23952892.785 4
        41.500          29.250
  23298233.876 7 122433108.32807  95402458.93505  23298235.904 5  23298233.447 5
        42.750          32.750
  24978507.316 6 131262937.61906 102282797.58903  24978506.086 3  24978506.011 3
        39.500          22.500
  20487936.830 8 107664906.72808  83894748.37308  20487936.710 8  20487936.665 8
        52.250          50.000
  23648444.118 6 124273466.96906  96836464.07606  23648441.663 6  23648443.694 6
        41.750          40.750
  21508303.626 8 113026966.56308  88072961.34908  21508303.865 8  21508302.705 8
        48.000          52.500
  20300703.433 8 106680991.20708  83128064.23708  20300700.517 8  20300703.089 8
        50.500          50.000
 20  9  1  1 24 30.0000000  0 10G03G10G22G01G26G21G32G12G25G31
  24524673.249 6 128878036.75606 100424448.18404  24524675.248 4  24524673.039 4
        37.250          24.000
  22621675.628 7 118877736.86407  92632015.30406  22621676.258 6  22621675.333 6
        47.250          40.000
  23162208.249 7 121718239.55107  94845370.45106  23162204.059 6  23162206.921 6
        46.000          37.250
  23959455.271 6 125907792.56406  98109983.48804  23959456.442 4  23959455.012 4
        41.750          29.250
  23277108.253 7 122322091.77407  95315952.57005  23277109.902 5  23277107.820 5
        43.000          33.750
  24992305.152 6 131335444.69706 102339296.61303  24992303.121 3  24992303.838 3
        39.000          20.750
  20490564.777 8 107678715.70408  83905508.61608  20490564.553 8  20490564.625 8
        52.250          50.000
  23663601.277 7 124353117.90007  96898529.73606  23663598.577 6  23663600.817 6
        42.000          40.500
  21513949.645 7 113056635.94307  88096080.34908  21513950.018 8  21513948.733 8
        47.250          52.750
  20296493.447 8 106658867.21408  83110824.77508  20296490.377 8  20296493.112 8
        50.750          50.250
 20  9  1  1 25  0.0000000  0 10G03G10G22G01G26G21G32G12G25G31
  24505379.498 6 128776647.33306 100345443.50204  24505380.800 4  24505379.315 4
        39.250          24.250
  22640968.697 7 118979122.85907  92711017.37006  22640968.635 6  22640968.380 6
        47.500          39.000
  23148445.071 7 121645910.50207  94789010.17306  23148440.463 6  23148443.730 6
        46.000          37.000
  23966110.262 7 125942764.60807  98137234.42604  23966111.607 4  23966109.999 4
        42.250          29.500
  23256007.661 7 122211211.40807  95229552.33505  23256009.974 5  23256007.214 5
        42.000          32.500
  25006092.075 6 131407895.27306 102395751.56503  25006089.406 3  25006090.779 3
        40.000          21.750
  20493248.070 8 107692818.36108  83916497.69908  20493248.215 8  20493247.910 8
        52.750          50.000
  23678841.492 7 124433205.92307  96960935.99206  23678839.038 6  23678840.978 6
        42.750          40.250
  21519714.581 7 113086931.46507  88119687.25208  21519715.401 8  21519713.687 8
        47.750          52.750
  20292366.966 8 106637183.48108  83093928.36608  20292363.821 8  20292366.640 8
        51.250          50.000
 20  9  1  1 25 30.0000000  0 10G03G10G22G01G26G21G32G12G25G31
  24486121.927 6 128675448.67006 100266587.43104  24486122.716 4  24486121.744 4
        38.500          24.000
  22660315.631 7 119080789.64107  92790238.22806  22660315.803 6  22660315.310 6
        46.750          40.000
  23134750.043 7 121573942.34707  94732931.12006  23134745.667 6  23134748.702 6
        45.250          37.000
  23972856.755 7 125978220.23907  98164862.22205  23972858.526 5  23972856.496 5
        42.000          30.250
  23234934.746 6 122100469.99406  95143260.40305  23234936.536 5  23234934.250 5
        40.500          31.250
  25019867.449 6 131480286.65806 102452160.41503  25019864.955 3  25019866.171 3
        40.000          22.250
  20495987.734 8 107707215.27708  83927716.07908  20495987.701 8  20495987.569 8
        51.750          50.000
  23694164.548 7 124513728.30607  97023680.70406  23694162.157 6  23694164.034 6
        42.250          40.750
  21525599.061 7 113117852.02707  88143781.20108  21525599.471 8  21525598.176 8
        47.000          52.750
  20288324.483 8 106615939.57508  83077374.68208  20288321.175 8  20288324.157 8
        50.750          50.250
 20  9  1  1 26  0.0000000  0 10G03G10G22G01G26G21G32G12G25G31
  24466901.913 6 128574443.32106 100187882.00904  24466902.376 4  24466901.726 4
        39.000          25.250
  22679714.940 7 119182734.80607  92869675.99706  22679715.656 6  22679714.601 6
        46.500          39.000
  23121123.843 7 121502337.50507  94677135.16606  23121119.551 6  23121122.489 6
        45.750          37.000
  23979695.432 7 126014157.34007  98192865.16805  23979696.965 5  23979695.182 5
        42.250          30.500
  23213888.363 7 121989870.36907  95057078.92605  23213889.954 5  23213887.867 5
        42.500          32.500
  25033631.237 6 131552616.61806 102508521.42803  25033629.817 3  25033629.900 3
        39.500          21.750
  20498783.471 8 107721907.08208  83939164.23908  20498783.284 8  20498783.297 8
        52.500          50.000
  23709569.441 7 124594682.30907  97086761.74706  23709567.174 6  23709568.936 6
        43.000          41.250
  21531601.808 7 113149396.43107  88168361.25608  21531602.034 8  21531600.928 8
        47.250          52.750
  20284365.382 8 106595134.56208  83061162.99208  20284362.340 8  20284365.069 8
        51.000          50.250
 20  9  1  1 26 30.0000000  0 10G03G10G22G01G26G21G32G12G25G31
  24447718.188 6 128473633.93606 100109329.30304  24447718.610 4  24447718.005 4
        39.250          24.500
  22699166.881 7 119284955.88407  92949328.77206  22699167.407 6  22699166.533 6
        47.000          39.250
  23107567.728 7 121431097.96307  94621623.84806  23107562.951 6  23107566.369 6
        46.750          38.000
  23986624.964 6 126050573.79006  98221241.59905  23986627.461 5  23986624.728 5
        40.500          30.750
  23192869.414 7 121879415.35207  94971010.11505  23192870.493 5  23192868.914 5
        44.500          33.000
  25047382.920 6 131624882.56806 102564832.56003  25047381.295 3  25047381.570 3
        39.000          21.000
  20501635.593 8 107736894.36208  83950842.64008  20501635.334 8  20501635.415 8
        52.750          50.000
  23725056.281 7 124676065.22107  97150177.00506  23725053.526 6  23725055.767 6
        42.000          40.500
  21537722.907 7 113181563.48507  88193426.49608  21537723.100 8  21537722.031 8
        47.750          52.750
  20280489.740 8 106574768.31808  83045293.20108  20280487.000 8  20280489.436 8
        51.250          50.500
 20  9  1  1 27  0.0000000  0 10G03G10G22G01G26G21G32G12G25G31
  24428572.756 6 128373023.08006 100030931.26303  24428572.146 3  24428572.587 3
        38.500          23.250
  22718670.887 7 119387450.41707  93029194.63006  22718671.663 6  22718670.521 6
        46.750          39.500
  23094080.962 7 121360226.09907  94566399.03906  23094076.425 6  23094079.617 6
        45.250          37.750
  23993645.557 6 126087467.51606  98249989.97005  23993648.163 5  23993645.338 5
        40.750          30.750
  23171878.705 7 121769107.73607  94885056.14705  23171879.736 5  23171878.209 5
        43.250          32.500
  25061122.542 6 131697081.83206 102621091.70903  25061120.444 3  25061121.241 3
        39.250          22.000
  20504543.857 8 107752177.69508  83962751.73308  20504543.794 8  20504543.683 8
        52.500          50.250
  23740624.275 6 124757874.25206  97213924.30706  23740621.077 6  23740623.743 6
        40.750          39.750
  21543962.062 7 113214351.89907  88218975.91608  21543962.408 8  21543961.182 8
        47.000          52.500
  20276697.601 8 106554839.77108  83029764.47508  20276694.661 8  20276697.293 8
        50.750          50.250
 20  9  1  1 27 30.0000000  0 10G03G10G22G01G26G21G32G12G25G31
  24409464.833 6 128272613.38306  99952689.95903  24409465.207 3  24409464.708 3
        38.750          23.750
  22738226.768 7 119490215.92007  93109271.62706  22738227.571 6  22738226.402 6
        46.750          39.000
  23080665.126 7 121289723.99707  94511462.35206  23080660.194 6  23080663.798 6
        45.750          37.250
  24000756.713 6 126124836.36606  98279108.54704  24000759.188 4  24000756.512 4
        40.500          29.750
  23150915.843 7 121658950.32407  94799219.22505  23150917.695 5  23150915.356 5
        43.000          32.750
  25074848.248 6 131769212.73806 102677297.61603  25074847.056 3  25074846.979 3
        37.500          19.500
  20507508.668 8 107767757.68308  83974891.98508  20507508.551 8  20507508.512 8
        52.250          50.000
  23756272.529 6 124840106.92606  97278001.71906  23756269.445 6  23756271.993 6
        41.750          39.500
  21550319.710 7 113247760.48107  88245008.57908  21550319.741 8  21550318.843 8
        47.500          52.500
  20272988.705 8 106535348.51508  83014576.48708  20272985.361 8  20272988.401 8
        50.500          50.000
 20  9  1  1 28  0.0000000  0 10G03G10G22G01G26G21G32G12G25G31
  24390396.383 6 128172407.47506  99874607.49904  24390397.739 4  24390396.231 4
        39.500          25.250
  22757833.321 7 119593249.96907  93189557.89506  22757833.941 6  22757832.950 6
        47.250          39.000
  23067319.392 7 121219593.54107  94456815.25306  23067314.771 6  23067318.069 6
        47.250          38.000
  24007957.798 6 126162678.26306  98308595.73205  24007959.726 5  24007957.579 5
        41.250          30.500
  23129983.199 7 121548945.93207  94713501.57005  23129985.319 5  23129982.730 5
        42.500          33.000
  25088560.566 6 131841271.62206 102733447.39603  25088559.134 3  25088559.323 3
        38.000          20.000
  20510530.036 8 107783634.87408  83987263.82408  20510529.825 8  20510529.884 8
        52.750          50.250
  23772000.975 7 124922760.59707  97342407.18106  23771998.082 6  23772000.457 6
        42.750          40.250
  21556794.705 7 113281787.94007  88271523.48108  21556795.067 8  21556793.856 8
        47.750          52.500
  20269362.730 8 106516293.79108  82999728.66008  20269359.273 8  20269362.426 8
        51.000          50.000
 20  9  1  1 28 30.0000000  0 10G03G10G22G01G26G21G32G12G25G31
  24371367.014 6 128072407.95406  99796685.84904  24371368.083 4  24371366.845 4
        40.500          25.250
  22777490.840 7 119696550.02407  93270051.42606  22777491.485 6  22777490.474 6
        46.250          38.250
  23054044.620 7 121149837.33307  94402459.76006  23054040.303 6  23054043.275 6
        47.000          37.750
  24015248.977 6 126200990.90706  98338449.72704  24015249.924 4  24015248.767 4
        41.000          28.750
  23109079.662 7 121439097.37507  94627905.35605  23109082.276 5  23109079.211 5
        43.250          34.250
  25102258.157 6 131913256.26206 102789539.32403  25102256.957 3  25102256.905 3
        37.500          18.250
  20513608.012 8 107799809.89408  83999867.73808  20513607.853 8  20513607.865 8
        53.000          50.000
  23787808.574 7 125005832.43207  97407138.49106  23787806.399 6  23787808.038 6
        42.750          40.500
  21563387.679 7 113316432.94907  88298519.59408  21563387.987 8  21563386.825 8
        47.750          52.250
  20265819.711 8 106497675.13108  82985220.61808  20265816.380 8  20265819.407 8
        50.750          50.000
 20  9  1  1 29  0.0000000  0 10G03G10G22G01G26G21G32G12G25G31
  24352376.578 6 127972617.55206  99718927.14003  24352378.041 3  24352376.453 3
        38.000          23.750
  22797198.045 7 119800113.64207  93350750.33606  22797198.466 6  22797197.683 6
        46.250          38.000
  23040842.675 7 121080457.65807  94348397.69906  23040839.036 6  23040841.347 6
        46.000          38.000
  24022628.580 6 126239772.13006  98368668.85104  24022630.355 4  24022628.352 4
        39.750          28.500
  23088206.070 7 121329407.50307  94542432.79205  23088208.510 5  23088205.614 5
        43.500          34.750
  25115942.407 6 131985164.82506 102845571.95203  25115940.560 3  25115941.151 3
        36.000          18.000
  20516742.636 8 107816283.36608  84012704.21008  20516742.675 8  20516742.507 8
        52.500          50.250
  23803695.785 6 125089320.08906  97472193.80606  23803693.502 6  23803695.200 6
        41.250          39.750
  21570097.610 7 113351694.13207  88325995.84008  21570098.162 8  21570096.743 8
        46.500          52.500
  20262359.401 8 106479492.19908  82971052.10808  20262356.408 8  20262359.093 8
        50.500          50.250
 20  9  1  1 29 30.0000000  0 10G03G10G22G01G26G21G32G12G25G31
  24333428.669 6 127873038.79206  99641333.34103  24333428.543 3  24333428.589 3
        39.250          23.000
  22816955.491 7 119903938.31907  93431652.67206  22816956.013 6  22816955.147 6
        47.000          39.000
  23027712.139 7 121011456.55507  94294630.61806  23027707.803 6  23027710.825 6
        47.250          38.000
  24030097.367 6 126279019.79606  98399251.43704  24030098.863 4  24030097.122 4
        41.750          29.250
  23067363.645 7 121219879.03507  94457085.99005  23067365.432 5  23067363.185 5
        43.750          33.500
  25129611.374 6 132056994.91306 102901543.45103  25129610.342 3  25129610.167 3
        37.750          19.000
  20519934.546 8 107833055.81408  84025773.65408  20519934.318 8  20519934.430 8
        52.500          50.000
  23819661.946 6 125173220.56106  97537570.78906  23819659.140 6  23819661.361 6
        41.250          38.750
  21576924.398 7 113387570.20507  88353951.22408  21576925.095 8  21576923.518 8
        47.500          52.250
  20258982.210 8 106461744.02708  82957222.37008  20258979.130 8  20258981.906 8
        50.250          50.000
 20  9  1  1 30  0.0000000  0 10G03G10G22G01G26G21G32G12G25G31
  24314519.641 6 127773674.32406  99563906.52004  24314521.007 4  24314519.552 4
        39.000          24.750
  22836761.867 7 120008021.58707  93512756.50706  22836762.453 6  22836761.532 6
        46.750          38.750
  23014654.275 7 120942836.26507  94241160.26406  23014649.583 6  23014652.979 6
        47.000          38.250
  24037654.353 6 126318731.59206  98430195.68804  24037655.253 4  24037654.103 4
        41.250          28.750
  23046552.315 7 121110514.83907  94371867.17505  23046554.004 5  23046551.828 5
        44.750          34.500
  25143264.482 6 132128743.59506 102957451.50503  25143263.923 3  25143263.266 3
        36.000          18.250
  20523183.163 8 107850127.83508  84039076.52808  20523183.050 8  20523183.052 8
        52.500          50.250
  23835705.179 7 125257530.53607  97603266.88106  23835702.736 6  23835704.558 6
        42.000          39.500
  21583868.373 7 113424059.73707  88382384.62608  21583868.631 8  21583867.493 8
        47.750          52.500
  20255687.468 8 106444429.73108  82943730.72608  20255684.180 8  20255687.169 8
        50.750          50.250
 20  9  1  1 30 30.0000000  0 10G03G10G22G01G26G21G32G12G25G31
  24295652.781 6 127674526.83806  99486648.80904  24295654.083 4  24295652.688 4
        39.500          26.000
  22856616.763 7 120112360.93407  93594059.87406  22856617.731 6  22856616.433 6
        46.000          38.250
  23001668.642 7 120874598.69307  94187988.14206  23001663.902 6  23001667.332 6
        47.250          37.500
  24045298.724 6 126358905.37806  98461499.92204  24045300.341 4  24045298.492 4
        40.500          27.750
  23025772.870 7 121001317.78007  94286778.59805  23025774.316 5  23025772.397 5
        44.000          34.250
  25156901.731 6 132200408.24806 103013294.11203  25156900.712 3  25156900.623 3
        38.250          18.750
  20526489.133 8 107867500.02308  84052613.30308  20526488.952 8  20526489.022 8
        52.500          50.000
  23851826.758 7 125342248.20407  97669280.66206  23851823.883 6  23851826.137 6
        43.000          40.000
  21590928.559 8 113461161.31108  88411294.94608  21590928.634 8  21590927.692 8
        48.000          52.000
  20252474.978 8 106427549.15208  82930577.03608  20252471.721 8  20252474.683 8
        51.250          50.000
 20  9  1  1 31  0.0000000  0 10G03G10G22G01G26G21G32G12G25G31
  24276827.097 6 127575598.76806  99409562.04204  24276828.315 4  24276826.999 4
        40.500          26.250
  22876520.152 7 120216953.84507  93675560.82006  22876521.344 6  22876519.822 6
        46.500          38.250
  22988757.190 7 120806746.20807  94135116.08606  22988752.253 6  22988755.862 6
        47.500          38.500
  24053031.372 6 126399538.86606  98493162.39004  24053031.307 4  24053031.149 4
        41.250          26.750
  23005025.608 7 120892290.56507  94201822.37605  23005027.056 5  23005025.139 5
        44.250          34.250
  25170522.964 6 132271986.74006 103069069.57002  25170522.071 2  25170521.869 2
        36.750          17.250
  20529852.069 8 107885172.91708  84066384.39008  20529852.046 8  20529851.953 8
        52.750          50.000
  23868024.780 7 125427370.30807  97735609.59406  23868022.050 6  23868024.172 6
        43.500          40.250
  21598104.855 7 113498873.54307  88440681.10708  21598104.779 8  21598103.984 8
        47.500          52.000
  20249345.031 8 106411101.19208  82917760.44308  20249341.818 8  20249344.745 8
        50.750          50.250
 20  9  1  1 31 30.0000000  0 10G03G10G22G01G26G21G32G12G25G31
  24258044.079 6 127476893.14006  99332648.61404  24258045.170 4  24258043.990 4
        40.250          26.000
  22896471.371 7 120321797.81807  93757257.41406  22896471.747 6  22896471.041 6
        47.000          38.250
  22975918.785 7 120739280.80507  94082545.65806  22975914.135 6  22975917.471 6
        47.250          38.500
  24060850.934 6 126440629.72406  98525181.22004  24060851.035 4  24060850.702 4
        41.250          27.500
  22984311.044 7 120783436.07107  94117000.72605  22984312.412 5  22984310.562 5
        43.500          33.750
  25184126.641 6 132343476.71506 103124776.03402  25184125.976 2  25184125.555 2
        36.750          15.250
  20533272.417 8 107903147.10908  84080390.25708  20533272.453 8  20533272.310 8
        52.500          50.000
  23884299.053 7 125512894.41107  97802251.76206  23884296.752 6  23884298.427 6
        42.500          40.000
  21605397.008 8 113537194.89108  88470541.90008  21605397.455 8  21605396.141 8
        48.000          52.250
  20246297.118 8 106395084.94108  82905280.23908  20246294.130 8  20246296.837 8
        51.000          50.500
 20  9  1  1 32  0.0000000  0 10G03G10G22G01G26G21G32G12G25G31
  24239303.890 6 127378412.37706  99255910.40404  24239305.401 4  24239303.810 4
        40.250          26.750
  22916469.948 7 120426890.33307  93839147.67106  22916470.766 6  22916469.640 6
        46.500          38.250
  22963154.554 7 120672204.50407  94030278.41906  22963149.406 6  22963153.226 6
        47.250          38.250
  24068756.520 6 126482175.69106  98557554.69104  24068757.087 4  24068756.257 4
        41.500          26.750
  22963630.322 7 120674757.09907  94032315.86805  22963631.967 5  22963629.822 5
        43.500          34.000
  25197713.537 5 132414875.46105 103180411.41601  25197712.264 1  25197712.509 1
        33.250          11.250
  20536750.289 8 107921423.17708  84094631.35208  20536750.155 8  20536750.191 8
        52.750          50.000
  23900650.167 6 125598817.43706  97869204.76506  23900647.442 6  23900649.555 6
        41.250          39.000
  21612805.035 7 113576123.94307  88500876.23008  21612805.597 8  21612804.177 8
        47.750          52.250
  20243331.424 8 106379500.01108  82893136.14308  20243328.519 8  20243331.147 8
        51.000          50.500
 20  9  1  1 32 30.0000000  0 10G03G10G22G01G26G21G32G12G25G31
  24220606.501 6 127280159.16306  99179349.50103  24220607.991 3  24220606.430 3
        39.000          23.250
  22936515.020 7 120532228.89907  93921229.65806  22936515.914 6  22936514.721 6
        45.750          37.500
  22950465.137 7 120605519.59407  93978316.16306  22950460.206 6  22950463.809 6
        46.500          38.000
  24076748.511 6 126524174.48306  98590281.01404  24076750.099 4  24076748.252 4
        41.000          28.750
  22942983.164 7 120566256.44207  93947769.95005  22942984.800 5  22942982.650 5
        44.000          34.250
  25211282.484 5 132486181.00905 103235974.18201  25211281.232 1  25211281.492 1
        35.000          11.750
  20540285.539 8 107940001.69408  84109108.12008  20540285.442 8  20540285.437 8
        52.250          50.000
  23917076.268 6 125685136.71506  97936466.53206  23917073.496 6  23917075.669 6
        40.250          38.500
  21620328.381 7 113615659.11307  88531682.85808  21620329.075 8  21620327.514 8
        47.000          52.000
  20240447.688 8 106364345.60208  82881327.51908  20240444.846 8  20240447.407 8
        50.500          50.250
 20  9  1  1 33  0.0000000  0 11G03G10G22G29G01G26G21G32G12G25G31
  24201953.750 6 127182136.10106  99102967.87503  24201952.690 3  24201953.697 3
        39.250          22.750
  22956607.019 7 120637810.96107  94003501.38406  22956606.968 6  22956606.742 6
        45.750          37.000
  22937849.964 7 120539228.16407  93926660.52006  22937845.384 6  22937848.619 6
        47.500          39.000
  25832262.599 5 135749456.05615 105778790.98413  25832260.964 3  25832262.510 3
        31.750          18.500
  24084826.486 6 126566623.75506  98623358.37304  24084828.917 4  24084826.227 4
        41.000          28.500
  22922370.663 7 120457936.90907  93863365.17705  22922372.597 5  22922370.154 5
        44.000          35.000
  25224832.598 5 132557390.57905 103291462.16501  25224831.925 1  25224831.646 1
        32.000           9.500
  20543878.806 8 107958883.19308  84123820.97808  20543878.538 8  20543878.704 8
        52.500          50.000
  23933576.932 6 125771849.20006  98004034.71206  23933574.391 6  23933576.347 6
        41.500          38.750
  21627966.815 7 113655798.94507  88562960.65308  21627967.188 8  21627965.957 8
        47.000          52.000
  20237645.531 8 106349620.94408  82869853.76608  20237642.753 8  20237645.250 8
        50.750          50.250
 20  9  1  1 33 30.0000000  0 11G03G10G22G29G01G26G21G32G12G25G31
  24183344.918 6 127084345.91406  99026767.76004  24183345.361 4  24183344.865 4
        40.250          26.000
  22976744.360 7 120743634.01007  94085960.88806  22976744.710 6  22976744.083 6
        46.500          37.500
  22925310.728 7 120473332.25807  93875313.07806  22925306.051 6  22925309.383 6
        46.750          38.750
  25817935.744 5 135674169.87405 105720126.01802  25817934.395 2  25817935.092 2
        31.500          13.500
  24092989.956 7 126609521.14807  98656784.89404  24092990.907 4  24092989.697 4
        42.250          28.500
  22901793.067 7 120349801.32607  93779103.74005  22901794.695 5  22901792.567 5
        44.250          35.000
  25238365.042 5 132628502.13505 103346873.82801  25238364.097 1  25238363.960 1
        32.750          10.250
  20547529.562 8 107978068.27208  84138770.39508  20547529.421 8  20547529.455 8
        52.750          50.000
  23950152.414 7 125858952.54607  98071907.47006  23950149.319 6  23950151.820 6
        42.000          38.750
  21635719.666 7 113696541.92107  88594708.42508  21635720.212 8  21635718.803 8
        47.250          52.000
  20234925.230 8 106335325.57308  82858714.51308  20234922.316 8  20234924.940 8
        50.750          50.500
 20  9  1  1 34  0.0000000  0 11G03G10G22G29G01G26G21G32G12G25G31
  24164780.912 6 126986791.21106  98950751.13704  24164780.968 4  24164780.814 4
        40.250          24.750
  22996927.467 7 120849695.50707  94168606.21006  22996927.352 6  22996927.222 6
        45.500          37.250
  22912846.756 7 120407834.18407  93824275.61606  22912841.725 6  22912845.411 6
        47.500          38.750
  25803618.568 5 135598928.98005 105661496.81304  25803616.452 4  25803617.925 4
        34.250          26.750
  24101237.705 6 126652864.29206  98690558.76204  24101238.587 4  24101237.433 4
        41.500          28.000
  22881250.613 7 120241852.52607  93694987.83805  22881252.311 5  22881250.099 5
        44.250          34.750
  25251878.875 5 132699513.10905 103402207.14001  25251877.001 1  25251877.780 1
        30.500           8.750
  20551238.373 8 107997557.49308  84153956.80008  20551238.158 8  20551238.280 8
        52.250          50.250
  23966801.174 7 125946443.92607  98140082.59606  23966798.283 6  23966800.553 6
        42.000          38.750
  21643587.610 7 113737886.35307  88626924.86908  21643587.692 8  21643586.743 8
        46.750          51.750
  20232286.422 8 106321458.41108  82847908.92008  20232283.482 8  20232286.132 8
        50.750          50.500
 20  9  1  1 34 30.0000000  0 11G03G10G22G29G01G26G21G32G12G25G31
  24146262.273 6 126889474.67406  98874920.08604  24146262.088 4  24146262.139 4
        40.250          26.250
  23017154.484 7 120955992.93507  94251435.35306  23017156.078 6  23017154.216 6
        45.750          37.500
  22900458.876 7 120342735.79707  93773549.62406  22900454.615 6  22900457.522 6
        47.250          39.500
  25789308.789 4 135523735.48504 105602904.46403  25789307.331 3  25789308.105 3
        28.000          22.000
  24109569.986 6 126696650.89306  98724678.19904  24109571.143 4  24109569.727 4
        41.750          29.500
  22860745.436 7 120134093.27207  93611019.65405  22860746.935 5  22860744.927 5
        44.250          35.250
  25265372.984 4 132770420.74704 103457459.89501  25265370.327 1  25265371.853 1
        29.750           8.000
  20555004.780 8 108017351.37008  84169380.60308  20555004.839 8  20555004.687 8
        52.750          50.500
  23983523.466 6 126034320.68006  98208557.99806  23983521.069 6  23983522.823 6
        41.750          38.750
  21651569.285 7 113779830.70007  88659608.78308  21651569.404 8  21651568.418 8
        47.000          52.000
  20229729.082 8 106308019.13908  82837436.76608  20229726.072 8  20229728.792 8
        50.500          50.500
 20  9  1  1 35  0.0000000  0 11G03G10G22G29G01G26G21G32G12G25G31
  24127789.210 6 126792398.96006  98799276.72904  24127789.274 4  24127789.036 4
        40.000          26.500
  23037427.059 7 121062523.76407  94334446.37106  23037427.714 6  23037426.809 6
        45.000          36.750
  22888147.494 7 120278039.31807  93723136.81106  22888142.995 6  22888146.140 6
        47.250          39.000
  25775010.893 6 135448605.04616 105544362.12915  25775009.595 5  25775010.187 5
        36.500          30.750
  24117986.032 6 126740878.48706  98759141.25004  24117987.349 4  24117985.778 4
        41.750          28.500
  22840275.797 7 120026526.38707  93527201.35406  22840277.416 6  22840275.288 6
        44.750          36.250
  25278845.232 5 132841223.11005 103512630.55601  25278843.648 1  25278844.106 1
        30.500          11.250
  20558829.410 8 108037450.47908  84185042.24608  20558829.601 8  20558829.312 8
        52.000          50.250
  24000318.382 6 126122579.88706  98277331.41606  24000316.327 6  24000317.752 6
        39.750          38.500
  21659664.252 7 113822373.31407  88692758.87308  21659665.098 8  21659663.385 8
        47.250          52.000
  20227253.039 8 106295006.46808  82827297.03308  20227249.888 8  20227252.749 8
        50.000          50.250
 20  9  1  1 35 30.0000000  0 11G03G10G22G29G01G26G21G32G12G25G31
  24109362.566 6 126695566.76306  98723823.09604  24109362.656 4  24109362.370 4
        39.500          25.250
  23057743.408 7 121169285.41707  94417637.25206  23057743.780 6  23057743.176 6
        45.750          37.250
  22875912.898 7 120213746.70207  93673038.69206  22875907.920 6  22875911.535 6
        47.000          38.750
  25760720.673 4
        29.750
  24126485.769 7 126785544.71607  98793946.10604  24126487.237 4  24126485.524 4
        42.000          28.500
  22819843.782 7 119919154.69007  93443535.14406  22819845.231 6  22819843.295 6
        45.000          36.500
  25292297.895 5 132911917.62605 103567717.16402  25292296.346 2  25292296.809 2
        35.250          15.000
  20562712.506 8 108057855.38608  84200942.17708  20562712.472 8  20562712.408 8
        52.750          50.000
  24017186.247 6 126211218.43206  98346400.40106  24017183.730 6  24017185.635 6
        40.500          39.000
  21667873.612 7 113865512.54507  88726373.86508  21667874.049 8  21667872.749 8
        47.000          51.750
  20224857.742 8 106282419.69508  82817489.17308  20224854.798 8  20224857.452 8
        50.250          50.250
 20  9  1  1 36  0.0000000  0 11G03G10G22G29G01G26G21G32G12G25G31
  24090983.268 6 126598980.72006  98648561.26604  24090982.745 4  24090983.103 4
        40.750          26.750
  23078103.037 7 121276275.28307  94501005.97006  23078102.885 6  23078102.809 6
        44.750          36.250
  22863756.305 7 120149860.21907  93623257.04206  22863751.010 6  22863754.942 6
        47.000          39.500
  25746443.802 5
        31.750
  24135068.260 6 126830647.14406  98829090.83104  24135069.869 4  24135068.006 4
        41.000          28.750
  22799448.771 7 119811980.92807  93360023.16905  22799450.510 5  22799448.284 5
        44.000          35.500
  25305728.267 5 132982501.63605 103622717.69001  25305728.027 1  25305727.105 1
        32.500          11.000
  20566653.556 8 108078566.61908  84217080.80208  20566653.500 8  20566653.463 8
        52.500          50.250
  24034125.206 6 126300233.81606  98415763.04606  24034122.791 6  24034124.616 6
        41.250          39.500
  21676196.173 7 113909246.71307  88760452.43908  21676196.387 8  21676195.315 8
        47.000          51.750
  20222543.441 8 106270258.29008  82808012.76208  20222540.510 8  20222543.137 8
        50.250          50.500
 20  9  1  1 36 30.0000000  0 11G03G10G22G29G01G26G21G32G12G25G31
  24072650.125 6 126502643.58406  98573493.38904  24072650.331 4  24072649.973 4
        40.750          26.250
  23098504.713 7 121383490.93307  94584550.61605  23098505.544 5  23098504.463 5
        45.000          35.750
  22851675.887 7 120086382.20107  93573793.66706  22851671.494 6  22851674.519 6
        47.500          39.250
  25732175.652 6 135223500.84916 105368954.84716  25732174.009 6  25732174.950 6
        40.000          36.750
  24143733.749 6 126876183.33106  98864573.56804  24143735.234 4  24143733.513 4
        40.250          27.500
  22779092.806 7 119705007.98407  93276667.67005  22779094.141 5  22779092.319 5
        44.500          35.500
  25319139.411 5 133052972.76805 103677630.23201  25319138.056 1  25319138.235 1
        33.750          10.500
  20570653.293 8 108099584.70308  84233458.53208  20570653.094 8  20570653.186 8
        52.250          49.750
  24051135.213 7 126389623.12907  98485417.05906  24051132.982 6  24051134.663 6
        42.500          39.500
  21684631.499 7 113953574.17207  88794993.32308  21684631.442 8  21684630.632 8
        46.500          51.250
  20220309.902 8 106258521.30908  82798867.06908  20220307.006 8  20220309.598 8
        51.000          50.250
 20  9  1  1 37  0.0000000  0 11G03G10G22G29G01G26G21G32G12G25G31
  24054365.494 6 126406557.90406  98498621.46504  24054365.321 4  24054365.329 4
        40.250          25.500
  23118950.140 7 121490929.67607  94668269.10305  23118950.326 5  23118949.881 5
        45.250          35.500
  22839675.048 7 120023313.79107  93524649.47306  22839670.240 6  22839673.689 6
        47.250          39.500
  25717920.206 4 135148588.17004 105310581.30004  25717918.543 4  25717919.473 4
        29.750          25.000
  24152481.213 6 126922150.81106  98900392.39304  24152482.702 4  24152480.977 4
        40.500          28.250
  22758775.152 7 119598238.64307  93193470.84606  22758777.400 6  22758774.674 6
        45.000          37.250
  25332527.790 5 133123329.52105 103732453.71601  25332526.067 1  25332526.704 1
        31.500          11.500
  20574711.348 8 108120910.23208  84250075.83208  20574711.235 8  20574711.246 8
        52.500          49.750
  24068216.133 7 126479383.54807  98555360.25306  24068213.628 6  24068215.601 6
        42.250          39.250
  21693179.040 7 113998493.19307  88829995.15708  21693179.539 8  21693178.177 8
        46.500          51.500
  20218157.052 8 106247207.77308  82790051.33508  20218153.960 8  20218156.744 8
        50.500          50.250
 20  9  1  1 37 30.0000000  0 11G03G10G22G29G01G26G21G32G12G25G31
  24036129.620 6 126310726.40406  98423947.62104  24036130.339 4  24036129.451 4
        40.500          28.250
  23139436.928 7 121598589.05607  94752159.50906  23139437.413 6  23139436.647 6
        45.750          36.250
  22827751.287 8 119960657.48008  93475826.38306  22827746.784 6  22827749.924 6
        48.000          40.000
  25703676.833 5 135073741.06305 105252258.87504  25703674.628 4  25703676.127 4
        34.000          24.750
  24161309.807 6 126968547.14506  98936545.34204  24161310.875 4  24161309.584 4
        39.750          26.750
  22738497.379 7 119491675.66907  93110434.81306  22738498.417 6  22738496.901 6
        44.750          36.000
  25345894.575 5 133193569.30205 103787186.06002  25345892.301 2  25345893.529 2
        32.250          13.000
  20578828.062 8 108142543.67608  84266933.06408  20578827.922 8  20578827.964 8
        52.000          49.750
  24085367.582 6 126569512.14206  98625590.34806  24085364.545 6  24085367.046 6
        41.250          38.500
  21701839.512 7 114044001.99707  88865456.56508  21701839.784 8  21701838.636 8
        46.250          51.500
  20216084.684 8 106236316.86908  82781564.92808  20216081.381 8  20216084.367 8
        50.250          50.250
 20  9  1  1 38  0.0000000  0 11G03G10G22G29G01G26G21G32G12G25G31
  24017942.292 6 126215151.69506  98349473.88304  24017943.696 4  24017942.140 4
        40.250          27.250
  23159965.168 7 121706466.49707  94836219.83506  23159965.617 6  23159964.851 6
        44.750          36.000
  22815907.189 7 119898415.41207  93427326.08506  22815902.779 6  22815905.830 6
        47.750          40.000
  25689447.531 5 134998962.68505 105193989.92804  25689445.420 4  25689446.816 4
        32.500          27.250
  24170219.857 6 127015369.79606  98973030.50104  24170220.247 4  24170219.634 4
        40.250          27.000
  22718258.679 7 119385321.92607  93027561.79005  22718259.098 5  22718258.201 5
        44.000          35.250
  25359238.386 5 133263689.62905 103841825.35402  25359236.093 2  25359237.318 2
        35.000          16.250
  20583003.530 8 108164485.64208  84284030.70108  20583003.367 8  20583003.428 8
        52.000          49.750
  24102587.728 6 126660006.41106  98696105.38606  24102584.777 6  24102587.219 6
        41.250          38.250
  21710611.169 7 114090098.85707  88901376.20008  21710612.240 8  21710610.253 8
        46.250          51.750
  20214092.438 8 106225848.10908  82773407.45908  20214089.170 8  20214092.112 8
        50.500          50.500
 20  9  1  1 38 30.0000000  0 11G03G10G22G29G01G26G21G32G12G25G31
  23999804.611 6 126119836.57606  98275202.36504  23999804.640 4  23999804.459 4
        40.750          26.750
  23180534.739 7 121814559.43307  94920448.07005  23180535.220 5  23180534.426 5
        45.250          35.500
  22804142.297 8 119836589.83508  93379150.31506  22804137.475 6  22804140.965 6
        48.000          39.750
  25675230.874 6 134924255.62806 105135776.53004  25675229.219 4  25675230.190 4
        36.250          28.000
  24179210.870 6 127062616.33806  99009845.97504  24179211.688 4  24179210.665 4
        39.750          26.750
  22698060.265 7 119279180.12907  92944853.93405  22698061.150 5  22698059.787 5
        44.750          35.750
  25372557.360 6 133333687.92606 103896369.54102  25372556.345 2  25372556.171 2
        36.000          14.250
  20587237.922 8 108186736.62708  84301369.13408  20587237.640 8  20587237.815 8
        52.250          49.500
  24119877.605 6 126750863.38806  98766903.04206  24119874.543 6  24119877.127 6
        40.750          38.250
  21719494.533 7 114136781.98807  88937752.66408  21719495.767 8  21719493.612 8
        47.250          52.000
  20212180.178 8 106215800.24608  82765577.96408  20212177.145 8  20212179.848 8
        50.750          50.250
 20  9  1  1 39  0.0000000  0 11G03G10G22G29G01G26G21G32G12G25G31
  23981716.915 6 126024783.64406  98201135.20504  23981717.119 4  23981716.763 4
        41.250          27.750
  23201144.465 7 121922865.23707  95004842.19105  23201144.736 5  23201144.170 5
        44.250          34.500
  22792456.729 7 119775182.45307  93331300.41506  22792452.370 6  22792455.397 6
        47.750          39.750
  25661029.884 6 134849622.94406 105077621.15205  25661027.878 5  25661029.218 5
        37.000          30.500
  24188281.438 6 127110284.20806  99046989.79104  24188282.160 4  24188281.224 4
        39.000          26.250
  22677903.056 7 119173253.15707  92862313.47706  22677904.605 6  22677902.578 6
        45.250          36.750
  25385853.062 4 133403561.90804 103950816.88301  25385853.153 1  25385851.873 1
        27.750           7.000
  20591530.758 8 108209297.18008  84318948.78608  20591530.868 8  20591530.638 8
        52.250          49.500
  24137235.507 6 126842079.87506  98837980.83506  24137232.626 6  24137235.060 6
        41.250          38.250
  21728489.171 7 114184049.59907  88974584.57708  21728489.872 8  21728488.259 8
        47.000          51.250
  20210348.188 8 106206172.62208  82758075.92708  20210345.157 8  20210347.849 8
        50.500          50.250
 20  9  1  1 39 30.0000000  0 11G03G10G22G29G01G26G21G32G12G25G31
  23963678.857 6 125929995.56606  98127274.38304  23963678.298 4  23963678.714 4
        40.000          26.250
  23221794.527 7 122031381.34407  95089400.18106  23221795.109 6  23221794.259 6
        44.750          36.000
  22780851.420 7 119714195.21907  93283777.90406  22780846.860 6  22780850.083 6
        47.250          39.750
  25646841.750 5 134775067.37505 105019525.86705  25646841.369 5  25646841.062 5
        35.000          30.750
  24197432.045 6 127158370.88706  99084459.91704  24197432.955 4  24197431.831 4
        39.000          26.000
  22657787.136 7 119067543.76307  92779942.57606  22657788.939 6  22657786.654 6
        44.000          36.500
  25399128.848 4 133473309.68604 104005165.81101  25399125.309 1  25399127.731 1
        28.000           8.250
  20595882.916 8 108232167.76908  84336770.02408  20595883.080 8  20595882.796 8
        52.250          49.750
  24154660.819 6 126933653.27706  98909336.75806  24154658.136 6  24154660.363 6
        41.250          38.000
  21737594.725 7 114231899.80607  89011870.45908  21737594.968 8  21737593.831 8
        47.000          51.500
  20208595.865 8 106196964.16308  82750900.51608  20208592.867 8  20208595.521 8
        50.500          50.250
 20  9  1  1 40  0.0000000  0 11G03G10G22G29G01G26G21G32G12G25G31
  23945692.404 6 125835475.04206  98053622.07304  23945692.216 4  23945692.266 4
        40.750          27.500
  23242483.984 7 122140105.26407  95174120.09306  23242484.788 6  23242483.707 6
        45.500          36.250
  22769326.246 8 119653630.12308  93236584.31706  22769321.498 6  22769324.909 6
        48.000          40.000
  25632668.679 5 134700592.12305 104961493.21104  25632668.870 4  25632668.027 4
        34.250          29.000
  24206662.094 6 127206873.89206  99122254.41604  24206663.296 4  24206661.893 4
        41.500          26.500
  22637712.818 7 118962054.77407  92697743.40706  22637714.650 6  22637712.340 6
        45.250          37.000
  25412375.046 5 133542928.26205 104059414.07101  25412373.211 1  25412373.951 1
        34.250          10.250
  20600294.176 8 108255348.95608  84354833.28808  20600294.425 8  20600294.047 8
        52.500          49.750
  24172154.139 7 127025580.87907  98980968.67106  24172151.249 6  24172153.679 6
        42.250          38.000
  21746811.051 7 114280330.84707  89049608.93808  21746810.937 8  21746810.166 8
        47.250          51.000
  20206923.164 8 106188174.13208  82744051.13508  20206920.238 8  20206922.820 8
        50.750          50.250
 20  9  1  1 40 30.0000000  0 11G03G10G22G29G01G26G21G32G12G25G31
  23927756.981 7 125741224.76807  97980180.34904  23927757.589 4  23927756.829 4
        42.500          29.500
  23263212.647 7 122249034.32107  95258999.85406  23263213.625 6  23263212.393 6
        45.500          36.250
  22757881.898 8 119593489.20108  93189721.26506  22757877.141 6  22757880.561 6
        48.000          40.000
  25618513.595 5 134626200.31405 104903525.57904  25618512.406 4  25618512.952 4
        34.750          29.250
  24215970.524 6 127255790.71906  99160371.46904  24215971.752 4  24215970.341 4
        40.500          27.250
  22617681.832 7 118856788.96207  92615718.15106  22617683.212 6  22617681.367 6
        44.250          36.250
  25425598.408 4 133612415.96704 104113560.35001  25425596.147 1  25425597.152 1
        29.000           6.250
  20604764.818 8 108278841.22408  84373138.95008  20604764.827 8  20604764.689 8
        52.500          49.500
  24189713.949 6 127117859.07706  99052873.78206  24189711.401 6  24189713.462 6
        41.000          37.500
  21756137.264 7 114329340.78407  89087798.50008  21756137.418 8  21756136.379 8
        46.750          50.750
  20205329.931 8 106179801.64808  82737527.12408  20205327.053 8  20205329.578 8
        51.000          50.250
 20  9  1  1 41  0.0000000  0 11G03G10G22G29G01G26G21G32G12G25G31
  23909873.549 6 125647247.38406  97906951.27504  23909874.206 4  23909873.380 4
        41.000          27.500
  23283979.382 7 122358166.01807  95344037.51005  23283980.520 5  23283979.150 5
        44.250          35.250
  22746518.398 8 119533774.38708  93143190.25106  22746513.867 6  22746517.057 6
        48.000          40.250
  25604374.046 5 134551894.90305 104845625.28504  25604371.924 4  25604373.371 4
        34.000          28.000
  24225357.493 6 127305118.68006  99198808.83604  24225358.122 4  24225357.274 4
        40.750          26.750
  22597693.514 7 118751749.09207  92533868.94306  22597694.290 6  22597693.049 6
        45.500          36.500
  25438795.894 4 133681770.41104 104167602.87501  25438793.784 1  25438794.625 1
        29.750           7.750
  20609294.525 8 108302645.14108  84391687.45508  20609294.402 8  20609294.396 8
        52.250          49.500
  24207340.502 6 127210486.03706  99125050.65706  24207337.848 6  24207339.993 6
        40.500          37.000
  21765573.073 7 114378927.74007  89126437.69508  21765573.570 8  21765572.179 8
        47.250          51.000
  20203816.245 8 106171845.81308  82731327.77108  20203813.140 8  20203815.897 8
        50.500          50.250
 20  9  1  1 41 30.0000000  0 11G03G10G22G29G01G26G21G32G12G25G31
  23892043.112 6 125553545.62706  97833936.94404  23892043.692 4  23892042.974 4
        41.750          29.500
  23304784.705 7 122467497.71707  95429231.01206  23304785.728 6  23304784.482 6
        44.500          36.000
  22735236.528 7 119474487.76907  93096992.89706  22735231.753 6  22735235.187 6
        47.750          39.750
  25590250.896 6 134477679.21906 104787794.79504  25590249.350 4  25590250.221 4
        36.250          28.250
  24234822.336 6 127354855.22506  99237564.58104  24234823.876 4  24234822.104 4
        40.000          27.250
  22577748.319 7 118646937.99607  92452198.00906  22577749.731 6  22577747.859 6
        45.250          37.000
  25451966.971 5 133750990.01105 104221540.22101  25451965.753 1  25451965.572 1
        30.500           6.750
  20613883.631 8 108326761.16108  84410479.16208  20613883.445 8  20613883.511 8
        52.250          49.500
  24225032.458 6 127303458.77006  99197496.96006  24225030.225 6  24225031.931 6
        40.000          36.500
  21775119.102 7 114429089.82307  89165525.03208  21775119.268 8  21775118.195 8
        46.500          51.000
  20202381.141 8 106164305.72308  82725452.37608  20202378.206 8  20202380.788 8
        50.750          50.500
 20  9  1  1 42  0.0000000  0 11G03G10G22G29G01G26G21G32G12G25G31
  23874264.960 6 125460122.10706  97761139.43104  23874265.902 4  23874264.831 4
        40.750          27.750
  23325627.859 7 122577026.80507  95514578.33105  23325628.385 5  23325627.618 5
        45.000          35.250
  22724036.516 7 119415631.22907  93051130.66806  22724031.640 6  22724035.153 6
        47.750          40.250
  25576145.923 5 134403556.07405 104730036.46104  25576144.713 4  25576145.257 4
        35.000          28.250
  24244363.433 6 127404997.80906  99276636.74404  24244365.196 4  24244363.165 4
        39.250          27.250
  22557847.452 7 118542358.39307  92370707.44906  22557848.645 6  22557846.965 6
        45.250          36.750
  25465112.333 3 133820071.46903 104275369.97801  25465111.192 1  25465110.871 1
        22.750           3.000
  20618532.374 8 108351189.84008  84429514.49308  20618532.005 8  20618532.254 8
        52.000          49.500
  24242789.505 6 127396773.91406  99270210.07006  24242787.562 6  24242789.000 6
        39.000          36.500
  21784773.598 7 114479825.11707  89205059.03208  21784774.016 8  21784772.686 8
        47.000          51.000
  20201025.291 8 106157180.38908  82719900.16808  20201022.276 8  20201024.947 8
        51.000          50.500
 20  9  1  1 42 30.0000000  0 11G03G10G22G29G01G26G21G32G12G25G31
  23856540.214 6 125366979.52606  97688560.83804  23856541.133 4  23856540.098 4
        41.000          28.250
  23346507.317 7 122686750.73307  95600077.48405  23346507.961 5  23346507.058 5
        44.750          35.000
  22712918.475 8 119357206.79908  93005605.15606  22712914.417 6  22712917.130 6
        48.500          40.500
  25562059.209 6 134329528.47806 104672352.60804  25562058.028 4  25562058.499 4
        36.000          29.250
  24253982.826 6 127455543.79506  99316023.21404  24253984.256 4  24253982.540 4
        39.000          26.250
  22537991.454 7 118438013.09607  92289399.45406  22537992.378 6  22537990.976 6
        45.500          37.000
  25478231.621 4 133889013.00704 104329090.68301  25478230.226 1  25478229.954 1
        25.750           2.750
  20623240.325 8 108375931.62008  84448793.80208  20623240.190 8  20623240.209 8
        52.000          49.500
  24260611.537 6 127490428.96806  99343188.04106  24260609.540 6  24260610.974 6
        39.000          36.000
  21794536.525 7 114531131.62707  89245038.13608  21794537.433 8  21794535.618 8
        46.750          51.000
  20199748.216 8 106150469.08608  82714670.58608  20199745.064 8  20199747.877 8
        51.000          50.750
 20  9  1  1 43  0.0000000  0 11G03G10G22G29G01G26G21G32G12G25G31
  23838869.800 6 125274120.56306  97616203.25004  23838869.786 4  23838869.644 4
        41.250          27.000
  23367423.609 7 122796666.92307  95685726.44705  23367424.006 5  23367423.359 5
        44.500          34.000
  22701883.722 7 119299216.10507  92960417.61506  22701878.663 6  22701882.399 6
        47.250          40.000
  25547991.181 6 134255599.46706 104614745.55805  25547989.351 5  25547990.502 5
        36.750          30.500
  24263677.638 6 127506490.55406  99355721.99804  24263678.680 4  24263677.357 4
        39.250          25.750
  22518180.428 7 118333904.90907  92208276.23006  22518181.758 6  22518179.955 6
        45.750          38.500
  25491324.242 4
        24.000
  20628008.190 8 108400987.01808  84468317.48808  20628008.147 8  20628008.074 8
        52.000          49.500
  24278497.868 6 127584420.86906  99416428.49806  24278495.547 6  24278497.310 6
        39.250          36.750
  21804408.435 7 114583007.40707  89285460.83308  21804408.946 8  21804407.546 8
        46.750          51.250
  20198549.974 8 106144170.81708  82709762.83508  20198546.544 8  20198549.644 8
        50.750          50.750
 20  9  1  1 43 30.0000000  0 11G03G10G22G29G01G26G21G32G12G25G31
  23821254.191 7 125181547.93507  97544068.73804  23821253.449 4  23821254.022 4
        42.500          28.750
  23388376.341 7 122906772.72507  95771523.17205  23388376.384 5  23388376.082 5
        44.250          34.000
  22690930.806 8 119241661.38608  92915569.79106  22690926.367 6  22690929.474 6
        48.750          40.250
  25533940.738 5 134181772.16805 104557217.78905  25533940.081 5  25533940.019 5
        35.250          31.000
  24273447.684 6 127557835.47406  99395731.02204  24273449.341 4  24273447.403 4
        40.250          26.500
  22498414.363 7 118230036.60907  92127339.93006  22498416.274 6  22498413.898 6
        45.500          37.500
  25504389.813 4
        24.750
  20632836.023 8 108426356.56208  84488085.95808  20632835.970 8  20632835.907 8
        52.500          49.500
  24296446.925 6 127678746.56406  99489929.06006  24296444.716 6  24296446.384 6
        39.750          36.500
  21814388.189 7 114635450.49807  89326325.58008  21814388.481 8  21814387.300 8
        46.250          50.500
  20197429.644 8 106138284.50208  82705176.09808  20197426.519 8  20197429.314 8
        51.250          50.500
 20  9  1  1 44  0.0000000  0 11G03G10G22G29G01G26G21G32G12G25G31
  23803692.839 6 125089264.28706  97472159.46305  23803693.937 5  23803692.696 5
        40.750          30.000
  23409363.924 7 123017065.57407  95857465.62105  23409364.991 5  23409363.647 5
        45.000          35.250
  22680062.033 8 119184544.36208  92871063.03506  22680057.364 6  22680060.701 6
        48.000          40.500
  25519913.335 6 134108049.97206 104499771.96505  25519911.926 5  25519912.678 5
        38.250          34.250
  24283294.003 6 127609575.95306  99436048.29204  24283295.196 4  24283293.731 4
        40.500          27.000
  22478695.099 7 118126410.96107  92046592.70906  22478696.217 6  22478694.639 6
        45.250          37.500
  25517425.397 3
        20.000
  20637723.411 8 108452040.72508  84508099.58608  20637723.570 8  20637723.300 8
        52.750          50.000
  24314459.588 6 127773403.32406  99563687.59406  24314457.069 6  24314459.047 6
        39.000          36.500
  21824475.323 7 114688458.86807  89367630.81108  21824475.398 8  21824474.456 8
        46.250          50.750
  20196387.537 8 106132809.01508  82700909.48608  20196384.631 8  20196387.207 8
        51.250          51.000
 20  9  1  1 44 30.0000000  0 10G03G10G22G29G01G26G32G12G25G31
  23786187.227 7 124997272.26307  97400477.40804  23786187.897 4  23786187.116 4
        42.000          28.250
  23430387.271 7 123127542.83507  95943551.78305  23430387.895 5  23430386.994 5
        44.500          34.500
  22669276.831 7 119127866.99507  92826898.87606  22669272.553 6  22669275.486 6
        47.750          40.750
  25505904.847 6 134034435.58906 104442410.12405  25505903.473 5  25505904.195 5
        37.750          33.750
  24293214.135 6 127661709.28106  99476671.65404  24293216.005 4  24293213.872 4
        40.750          26.500
  22459022.790 7 118023030.71907  91966036.73406  22459024.132 6  22459022.334 6
        45.250          37.500
  20642670.841 8 108478039.96208  84528358.72708  20642671.063 8  20642670.721 8
        52.250          49.750
  24332534.962 6 127868388.58606  99637702.10506  24332532.732 6  24332534.395 6
        39.250          36.250
  21834669.560 7 114742030.47607  89409374.92308  21834669.704 8  21834668.684 8
        46.500          50.500
  20195423.598 8 106127743.66908  82696962.46708  20195420.728 8  20195423.268 8
        50.750          50.750
 20  9  1  1 45  0.0000000  0 10G03G10G22G29G01G26G32G12G25G31
  23768737.701 6 124905574.62106  97329024.70504  23768737.797 4  23768737.625 4
        41.750          28.000
  23451444.774 7 123238201.96507  96029779.65805  23451445.710 5  23451444.502 5
        44.250          33.750
  22658575.508 8 119071631.12708  92783078.73806  22658571.043 6  22658574.189 6
        48.500          40.500
  25491917.332 6 133960931.65106 104385134.27204  25491915.196 4  25491916.693 4
        37.500          29.000
  24303208.816 6 127714232.74706  99517599.03304  24303210.346 4  24303208.571 4
        37.750          25.250
  22439397.214 7 117919898.65207  91885674.12406  22439398.503 6  22439396.745 6
        46.250          38.000
  20647678.466 8 108504354.76808  84548863.76708  20647678.658 8  20647678.341 8
        52.250          49.500
  24350671.499 6 127963699.12106  99711970.06406  24350669.785 6  24350670.887 6
        40.750          37.250
  21844970.764 7 114796163.28407  89451556.34208  21844970.901 8  21844969.897 8
        46.500          50.500
  20194538.001 8 106123087.53708  82693334.31508  20194534.609 8  20194537.693 8
        50.500          50.250
 20  9  1  1 45 30.0000000  0 10G03G10G22G29G01G26G32G12G25G31
  23751344.983 7 124814173.96307  97257803.45805  23751346.056 5  23751344.890 5
        42.250          30.250
  23472536.993 7 123349040.28607  96116147.15205  23472537.629 5  23472536.698 5
        44.250          34.250
  22647958.332 7 119015838.61007  92739604.05406  22647953.386 6  22647957.022 6
        47.750          40.250
  25477950.722 5 133887542.00305 104327947.41404  25477947.005 4  25477950.083 4
        35.750          26.250
  24313277.799 6 127767143.77206  99558828.38004  24313279.984 4  24313277.527 4
        39.500          27.500
  22419819.670 7 117817017.53907  91805507.05606  22419820.867 6  22419819.201 6
        45.500          38.750
  20652746.330 8 108530985.60508  84569615.06308  20652746.299 8  20652746.210 8
        52.250          49.750
  24368870.421 6 128059332.00206  99786489.21006  24368867.330 6  24368869.809 6
        39.500          37.250
  21855378.363 7 114850855.21007  89494173.43308  21855378.504 8  21855377.487 8
        46.000          50.500
  20193729.634 8 106118839.44908  82690024.11708  20193726.189 8  20193729.326 8
        50.250          50.500
 20  9  1  1 46  0.0000000  0 10G03G10G22G29G01G26G32G12G25G31
  23734008.402 6 124723073.03306  97186815.73704  23734009.061 4  23734008.309 4
        41.750          28.500
  23493662.691 7 123460055.24207  96202652.31705  23493662.535 5  23493662.401 5
        45.000          34.250
  22637426.160 8 118960491.46008  92696476.42406  22637421.105 6  22637424.837 6
        48.500          40.750
  25464008.732 6 133814269.49106 104270852.00404  25464006.301 4  25464008.142 4
        36.000          28.750
  24323419.992 6 127820439.66306  99600357.63804  24323421.467 4  24323419.724 4
        39.500          25.750
  22400290.109 7 117714390.08807  91725537.66106  22400291.704 6  22400289.644 6
        46.000          38.250
  20657874.150 8 108557932.94608  84590612.98708  20657874.052 8  20657874.025 8
        52.500          49.500
  24387128.982 6 128155284.08806  99861257.09706  24387126.132 6  24387128.352 6
        40.000          37.000
  21865891.885 7 114906104.16707  89537224.57908  21865891.817 8  21865891.027 8
        46.250          50.500
  20192998.597 8 106114998.56808  82687031.23408  20192995.293 8  20192998.293 8
        51.000          50.250
 20  9  1  1 46 30.0000000  0 10G03G10G22G29G01G26G32G12G25G31
  23716730.678 6 124632274.42506  97116063.61004  23716730.993 4  23716730.576 4
        41.750          29.750
  23514820.901 7 123571244.24407  96289293.09305  23514821.743 5  23514820.615 5
        44.500          35.000
  22626979.352 7 118905591.37507  92653697.14706  22626974.103 6  22626978.029 6
        47.750          40.500
  25450088.725 6 133741117.31506 104213850.29605  25450086.100 5  25450088.122 5
        39.750          33.750
  24333634.229 6 127874117.59206  99642184.57804  24333636.021 4  24333633.934 4
        40.750          27.000
  22380809.303 7 117612019.10607  91645768.09306  22380810.893 6  22380808.838 6
        45.750          38.000
  20663062.384 8 108585197.27608  84611857.92108  20663062.180 8  20663062.255 8
        52.250          49.500
  24405449.028 6 128251553.28606  99936272.07606  24405446.070 6  24405448.416 6
        39.000          37.750
  21876511.209 7 114961908.07007  89580708.14308  21876511.343 8  21876510.342 8
        46.250          50.250
  20192344.808 8 106111563.87908  82684354.86108  20192341.681 8  20192344.500 8
        50.750          50.500
 20  9  1  1 47  0.0000000  0 10G03G10G22G29G01G26G32G12G25G31
  23699510.290 6 124541780.93406  97045549.25304  23699510.981 4  23699510.201 4
        41.750          29.000
  23536012.399 7 123682604.66307  96376067.42605  23536013.523 5  23536012.104 5
        43.500          34.500
  22616617.531 8 118851140.11508  92611267.61106  22616612.584 6  22616616.203 6
        48.000          40.750
  25436191.702 6 133668088.55206 104156944.75905  25436189.710 5  25436191.130 5
        39.500          35.500
  24343921.373 6 127928174.98806  99684307.18904  24343922.842 4  24343921.101 4
        40.000          26.750
  22361378.185 7 117509907.36107  91566200.53606  22361379.515 6  22361377.716 6
        46.250          38.500
  20668311.107 8 108612779.07208  84633350.23008  20668310.904 8  20668310.978 8
        53.000          49.750
  24423827.667 6 128348136.09206 100011531.44106  24423825.025 6  24423827.046 6
        40.000          37.500
  21887235.247 7 115018264.79707  89624622.48708  21887235.676 8  21887234.376 8
        46.000          50.500
  20191768.514 8 106108534.29908  82681994.15308  20191765.258 8  20191768.206 8
        50.750          50.750
 20  9  1  1 47 30.0000000  0 10G03G10G22G29G01G26G32G12G25G31
  23682348.842 7 124451595.20507  96975274.63604  23682347.480 4  23682348.758 4
        43.000          29.000
  23557235.293 7 123794133.90707  96462973.31105  23557236.201 5  23557234.976 5
        42.750          32.250
  22606341.419 8 118797139.68708  92569189.37006  22606336.626 6  22606340.091 6
        48.250          40.750
  25422318.067 6 133595185.83106 104100137.45306  25422317.159 6  25422317.482 6
        40.000          36.250
  24354279.466 6 127982609.04206  99726723.31704  24354281.190 4  24354279.203 4
        39.250          25.500
  22341997.013 7 117408057.56307  91486837.09706  22341998.479 6  22341996.562 6
        46.250          38.750
  20673620.153 8 108640678.73708  84655090.23008  20673620.124 8  20673620.024 8
        52.250          49.500
  24442265.852 6 128445030.01906 100087033.22406  24442263.067 6  24442265.204 6
        40.500          37.250
  21898064.213 7 115075172.17507  89668965.89708  21898065.065 8  21898063.324 8
        46.750          50.500
  20191268.619 8 106105908.61408  82679948.16508  20191265.688 8  20191268.315 8
        50.750          50.250
 20  9  1  1 48  0.0000000  0 10G03G10G22G29G01G26G32G12G25G31
  23665246.266 7 124361719.80907  96905241.88705  23665246.422 5  23665246.182 5
        43.500          31.000
  23578490.245 7 123905829.28507  96550008.66005  23578491.120 5  23578489.932 5
        44.000          32.500
  22596151.795 8 118743591.81708  92527463.76906  22596146.692 6  22596150.467 6
        48.500          40.500
  25408470.438 6 133522412.61006 104043431.01904  25408468.154 4  25408469.866 4
        38.750          29.500
  24364709.897 6 128037417.13606  99769430.93104  24364710.744 4  24364709.607 4
        38.000          24.750
  22322665.905 7 117306472.47407  91407679.91606  22322667.104 6  22322665.449 6
        46.000          38.000
  20678989.740 8 108668896.78908  84677078.31908  20678989.774 8  20678989.615 8
        52.500          49.000
  24460762.698 6 128542231.82006 100162774.90706  24460760.185 6  24460762.064 6
        39.250          36.750
  21908998.084 7 115132628.08107  89713736.73608  21908998.085 8  21908997.181 8
        46.000          49.500
  20190845.749 8 106103686.08808  82678216.33108  20190842.668 8  20190845.432 8
        50.500          50.000
 20  9  1  1 48 30.0000000  0 10G03G10G22G29G01G26G32G12G25G31
  23648202.628 6 124272157.47506  96835453.06104  23648202.738 4  23648202.508 4
        41.250          28.750
  23599776.718 7 124017688.25407  96637171.50505  23599776.661 5  23599776.423 5
        44.500          33.250
  22586048.184 8 118690498.24408  92486092.16606  22586043.571 6  22586046.852 6
        48.500          41.250
  25394646.633 6 133449772.10806 103986827.98204  25394644.160 4  25394646.030 4
        37.750          27.000
  24375209.747 6 128092596.39106  99812427.76804  24375211.093 4  24375209.452 4
        38.750          25.250
  22303385.744 7 117205154.86007  91328731.16906  22303387.073 6  22303385.284 6
        45.500          38.250
  20684420.259 8 108697433.60708  84699314.79808  20684420.081 8  20684420.130 8
        52.250          49.500
  24479317.463 6 128639738.51506 100238754.17106  24479315.013 6  24479316.878 6
        39.000          37.000
  21920035.132 7 115190630.34007  89758933.30208  21920035.377 8  21920034.229 8
        46.000          50.000
  20190499.455 8 106101865.65508  82676797.81108  20190496.198 8  20190499.134 8
        50.500          50.250
 20  9  1  1 49  0.0000000  0 10G03G10G22G29G01G26G32G12G25G31
  23631219.673 6 124182910.85906  96765910.27004  23631219.587 4  23631219.566 4
        40.750          29.250
  23621092.991 7 124129708.11807  96724459.69505  23621093.740 5  23621092.683 5
        43.750          33.000
  22576031.834 8 118637860.69208  92445075.89706  22576026.546 6  22576030.489 6
        48.250          41.000
  25380850.710 6 133377266.94206 103930330.42605  25380847.273 5  25380850.071 5
        41.250          35.750
  24385779.810 6 128148144.04006  99855711.61704  24385780.623 4  24385779.529 4
        38.750          25.500
  22284157.194 7 117104107.43707  91249992.95706  22284158.126 6  22284156.752 6
        45.750          38.750
  20689911.283 8 108726289.70008  84721800.06208  20689911.189 8  20689911.154 8
        52.250          49.500
  24497930.384 6 128737547.62406 100314969.07306  24497927.533 6  24497929.817 6
        39.500          37.250
  21931176.486 7 115249176.73307  89804553.87408  21931176.398 8  21931175.565 8
        46.000          50.250
  20190229.218 8 106100446.51708  82675691.99608  20190226.085 8  20190228.892 8
        50.500          50.500
 20  9  1  1 49 30.0000000  0 10G03G10G22G29G01G26G32G12G25G31
  23614297.138 7 124093982.70707  96696615.63605  23614297.756 5  23614297.031 5
        42.750          30.000
  23642439.859 7 124241886.35207  96811871.29505  23642440.702 5  23642439.538 5
        44.000          32.500
  22566101.906 8 118585681.07508  92404416.45806  22566097.121 6  22566100.556 6
        49.000          41.250
  25367079.179 6 133304900.58206 103873941.04406  25367077.873 6  25367078.549 6
        41.500          38.000
  24396420.257 6 128204057.37406  99899280.46204  24396421.037 4  24396419.953 4
        38.250          24.000
  22264980.316 7 117003332.94307  91171467.41206  22264981.506 6  22264979.874 6
        46.250          39.000
  20695463.403 8 108755465.43008  84744534.39708  20695463.155 8  20695463.274 8
        52.250          49.250
  24516600.129 6 128835655.87806 100391417.09006  24516596.821 6  24516599.584 6
        40.000          37.000
  21942420.299 7 115308265.07807  89850596.74008  21942420.775 8  21942419.360 8
        45.250          49.750
  20190035.321 8 106099427.23208  82674897.75008  20190032.142 8  20190034.995 8
        51.000          50.500
 20  9  1  1 50  0.0000000  0 10G03G10G22G29G01G26G32G12G25G31
  23597435.621 7 124005375.64007  96627571.16604  23597435.334 4  23597435.496 4
        42.250          29.750
  23663816.601 7 124354220.26307  96899404.19305  23663817.196 5  23663816.257 5
        44.250          32.500
  22556259.725 8 118533961.14508  92364115.22306  22556255.137 6  22556258.375 6
        49.250          41.250
  25353335.784 6 133232676.04006 103817662.19306  25353334.283 6  25353335.167 6
        40.250          36.000
  24407128.854 6 128260333.55806  99943132.01104  24407130.045 4  24407128.546 4
        39.750          25.500
  22245855.824 7 116902834.08407  91093156.65006  22245857.682 6  22245855.377 6
        46.750          39.500
  20701076.223 8 108784961.29108  84767518.18608  20701075.985 8  20701076.094 8
        52.500          49.250
  24535324.915 6 128934060.47906 100468096.02806  24535322.546 6  24535324.365 6
        40.750          37.250
  21953767.037 7 115367893.08307  89897060.12808  21953767.750 8  21953766.103 8
        46.250          50.250
  20189917.188 8 106098806.68208  82674414.20908  20189914.105 8  20189916.858 8
        50.750          50.500
 20  9  1  1 50 30.0000000  0 10G03G10G22G29G01G26G32G12G25G31
  23580636.185 7 123917092.28007  96558778.94205  23580635.994 5  23580636.038 5
        42.750          31.250
  23685221.847 7 124466707.25607  96987056.38605  23685222.513 5  23685221.476 5
        43.750          32.750
  22546505.791 8 118482702.60908  92324173.51106  22546501.281 6  22546504.419 6
        48.250          41.250
  25339617.993 5 133160596.52005 103761496.38205  25339618.296 5  25339617.394 5
        35.000          32.750
  24417906.907 6 128316969.87506  99987264.17404  24417907.170 4  24417906.603 4
        38.750          25.250
  22226784.671 7 116802613.58507  91015062.80206  22226786.475 6  22226784.211 6
        46.250          39.500
  20706749.942 8 108814777.68908  84790751.74208  20706749.745 8  20706749.808 8
        52.500          49.500
  24554107.649 6 129032758.42306 100545003.54406  24554104.063 6  24554107.158 6
        41.000          37.250
  21965215.869 7 115428058.52507  89943942.28508  21965217.228 8  21965214.948 8
        46.000          50.250
  20189874.884 8 106098584.04208  82674240.72708  20189871.727 8  20189874.549 8
        50.750          50.500
 20  9  1  1 51  0.0000000  0 10G03G10G22G29G01G26G32G12G25G31
  23563897.831 7 123829135.31407  96490241.06805  23563898.970 5  23563897.684 5
        42.500          30.500
  23706656.063 7 124579344.72207  97074825.83905  23706656.252 5  23706655.701 5
        43.750          31.750
  22536840.112 8 118431907.45208  92284592.88106  22536835.467 6  22536838.753 6
        49.000          41.250
  25325929.850 6 133088664.77906 103705445.72504  25325929.000 4  25325929.242 4
        37.250          28.750
  24428751.885 6 128373963.49606 100031674.79004  24428753.108 4  24428751.581 4
        40.000          25.250
  22207766.989 7 116702674.20407  90937187.99106  22207767.819 6  22207766.524 6
        46.500          38.750
  20712484.866 8 108844915.04908  84814235.40708  20712484.610 8  20712484.732 8
        53.000          49.250
  24572943.171 6 129131746.88106 100622137.43806  24572940.961 6  24572942.613 6
        40.750          37.250
  21976767.099 7 115488759.17407  89991241.50408  21976767.626 8  21976766.178 8
        45.750          49.500
  20189908.250 8 106098758.18408  82674376.42708  20189904.790 8  20189907.911 8
        51.250          50.250
 20  9  1  1 51 30.0000000  0 10G03G10G22G29G01G26G32G12G25G31
  23547223.179 7 123741507.45707  96421959.63405  23547223.078 5  23547223.027 5
        43.750          31.250
  23728118.441 7 124692130.01707  97162710.46205  23728119.249 5  23728118.066 5
        43.000          32.750
  22527263.045 8 118381576.78008  92245374.17906  22527257.788 6  22527261.682 6
        48.000          41.250
  25312271.313 6 133016884.23606 103649512.78105  25312267.151 5  25312270.687 5
        40.000          31.250
  24439664.717 6 128431311.58906 100076361.59304  24439666.577 4  24439664.413 4
        40.000          26.500
  22188802.915 7 116603018.59407  90859534.29706  22188803.977 6  22188802.446 6
        46.500          39.500
  20718280.988 8 108875373.76608  84837969.47708  20718280.745 8  20718280.859 8
        52.500          49.500
  24591835.012 6 129231023.08806 100699495.55306  24591832.725 6  24591834.449 6
        40.750          37.250
  21988419.441 7 115549992.74707  90038955.97708  21988420.263 8  21988418.520 8
        46.500          50.500
  20190016.403 8 106099328.05908  82674820.48908  20190013.285 8  20190016.064 8
        50.750          50.500
 20  9  1  1 52  0.0000000  0 10G03G10G22G29G01G26G32G12G25G31
  23530611.022 7 123654211.32807  96353936.70505  23530611.675 5  23530610.857 5
        43.250          31.750
  23749608.368 7 124805060.55507  97250708.24905  23749609.464 5  23749607.971 5
        43.250          31.750
  22517773.570 8 118331712.94608  92206519.25206  22517769.152 6  22517772.207 6
        48.500          41.500
  25298641.602 6 132945257.83306 103593699.93605  25298638.916 5  25298640.972 5
        39.750          33.000
  24450644.987 6 128489011.36206 100121322.43904  24450646.562 4  24450644.701 4
        39.000          26.000
  22169893.588 7 116503649.53807  90782103.88806  22169894.509 6  22169893.128 6
        46.000          39.000
  20724138.384 8 108906154.29008  84861954.30608  20724138.115 8  20724138.250 8
        52.750          49.000
  24610781.080 7 129330583.80407 100777075.36206  24610778.489 6  24610780.504 6
        42.000          37.000
  22000172.874 7 115611756.96207  90087083.93708  22000173.261 8  22000171.913 8
        45.250          49.000
  20190200.220 8 106100292.58308  82675572.07208  20190196.761 8  20190199.885 8
        50.750          50.250
 20  9  1  1 52 30.0000000  0 10G03G10G22G29G01G26G32G12G25G31
  23514063.282 7 123567249.56207  96286174.29905  23514063.640 5  23514063.162 5
        43.250          32.250
  23771125.454 7 124918133.68907  97338817.19305  23771126.094 5  23771125.079 5
        42.000          31.500
  22508373.456 8 118282317.27508  92168029.13006  22508368.983 6  22508372.070 6
        48.500          41.250
  25285040.818 6 132873788.66006 103538009.68505  25285039.692 5  25285040.184 5
        37.000          33.500
  24461690.524 6 128547060.04306 100166555.20604  24461692.851 4  24461690.279 4
        38.750          24.500
  22151039.331 7 116404569.69207  90704898.84606  22151040.798 6  22151038.871 6
        46.750          39.750
  20730056.892 8 108937257.00608  84886190.18808  20730056.924 8  20730056.758 8
        52.750          49.250
  24629780.827 6 129430426.49606 100854874.91006  24629777.582 6  24629780.228 6
        41.250          37.000
  22012026.945 7 115674049.45707  90135623.55908  22012026.849 8  22012025.989 8
        45.750          49.750
  20190458.467 8 106101650.77008  82676630.40508  20190455.185 8  20190458.128 8
        51.000          50.500
 20  9  1  1 53  0.0000000  0 10G03G10G22G29G01G26G32G12G25G31
  23497578.831 6 123480624.76006  96218674.47005  23497578.883 5  23497578.764 5
        41.500          30.500
  23792669.787 7 125031346.82407  97427035.18305  23792670.447 5  23792669.425 5
        42.250          32.250
  22499063.646 8 118233391.33108  92129905.00806  22499058.408 6  22499062.287 6
        48.500          41.500
  25271470.891 5 132802480.02105 103482444.59305  25271470.464 5  25271470.324 5
        34.750          32.000
  24472803.452 6 128605454.71406 100212057.52804  24472804.498 4  24472803.211 4
        39.000          25.000
  22132240.957 7 116305781.76807  90627921.27206  22132241.685 6  22132240.506 6
        47.000          40.000
  20736036.975 8 108968682.27708  84910677.41208  20736037.058 8  20736036.837 8
        52.500          49.500
  24648833.152 6 129530547.93506 100932891.65206  24648829.976 6  24648832.571 6
        41.500          36.750
  22023981.199 7 115736867.95507  90184573.03808  22023981.200 8  22023980.256 8
        45.500          49.750
  20190791.640 8 106103401.45408  82677994.57908  20190788.289 8  20190791.301 8
        50.500          50.500
 20  9  1  1 53 30.0000000  0 10G03G10G22G29G01G26G32G12G25G31
  23481159.071 7 123394339.67207  96151439.35205  23481158.991 5  23481158.982 5
        43.250          30.500
  23814239.370 7 125144697.29707  97515360.21305  23814239.730 5  23814239.008 5
        43.000          30.750
  22489842.956 8 118184936.97308  92092148.37706  22489838.370 6  22489841.606 6
        49.000          41.750
  25257933.944 6 132731334.66906 103427006.72405  25257931.858 5  25257933.377 5
        37.750          33.250
  24483980.389 6 128664192.48506 100257827.21103  24483981.600 3  24483980.157 3
        39.250          23.000
  22113497.809 7 116207288.46207  90551173.27106  22113499.286 6  22113497.358 6
        46.750          40.250
  20742078.338 8 109000430.55808  84935416.33408  20742078.587 8  20742078.204 8
        52.250          49.000
  24667938.233 6 129630945.51506 101011123.56806  24667935.373 6  24667937.657 6
        40.250          36.000
  22036034.471 7 115800210.08407  90233930.55108  22036034.646 8  22036033.546 8
        45.250          49.250
  20191199.129 8 106105543.35408  82679663.59608  20191195.887 8  20191198.794 8
        51.000          50.250
 20  9  1  1 54  0.0000000  0 10G03G10G22G29G01G26G32G12G25G31
  23464804.517 7 123308396.92507  96084470.95005  23464803.862 5  23464804.464 5
        43.500          31.000
  23835834.568 6 125258182.49006  97603790.23805  23835834.872 5  23835834.188 5
        41.750          30.250
  22480712.370 8 118136956.10908  92054760.70207  22480707.759 7  22480711.033 7
        49.000          42.000
  25244426.438 6 132660355.85106 103371698.56205  25244425.331 5  25244425.866 5
        40.250          34.500
  24495223.247 6 128723270.53306 100303862.04704  24495224.131 4  24495222.975 4
        38.500          24.750
  22094811.632 7 116109092.45707  90474656.93806  22094813.055 6  22094811.194 6
        46.000          39.750
  20748181.752 8 109032502.21108  84960407.23108  20748181.565 8  20748181.618 8
        52.250          49.250
  24687095.276 6 129731616.25906 101089568.33805  24687092.358 5  24687094.709 5
        39.250          35.000
  22048187.077 7 115864073.44507  90283694.21108  22048187.202 8  22048186.161 8
        46.250          49.500
  20191681.045 8 106108075.61708  82681636.79508  20191677.789 8  20191680.710 8
        50.500          50.500
 20  9  1  1 54 30.0000000  0 10G03G10G22G29G01G26G32G12G25G31
  23448516.092 7 123222799.13907  96017771.41105  23448516.781 5  23448516.043 5
        42.750          31.750
  23857455.520 7 125371799.83107  97692323.20705  23857456.205 5  23857455.145 5
        42.750          31.250
  22471672.298 8 118089450.12808  92017743.06006  22471667.158 6  22471670.970 6
        49.250          41.750
  25230951.995 6 132589546.79506 103316522.61005  25230948.728 5  25230951.410 5
        38.500          30.500
  24506529.375 6 128782685.92106 100350159.69404  24506530.960 4  24506529.071 4
        39.250          25.000
  22076182.862 7 116011196.43907  90398374.36206  22076184.128 6  22076182.402 6
        46.750          40.000
  20754346.123 8 109064897.61208  84985650.40008  20754346.081 8  20754345.989 8
        52.000          49.000
  24706303.517 6 129832556.83006 101168223.36505  24706300.535 5  24706302.883 5
        39.250          34.250
  22060438.900 7 115928455.74607  90333862.23808  22060438.728 8  22060438.002 8
        45.750          49.500
  20192236.866 8 106110997.10508  82683913.28708  20192233.701 8  20192236.531 8
        50.750          50.250
 20  9  1  1 55  0.0000000  0 10G03G10G22G29G01G26G32G12G25G31
  23432294.036 7 123137548.90507  95951342.68705  23432293.972 5  23432294.010 5
        43.000          31.000
  23879100.772 7 125485546.57407  97780957.02805  23879101.407 5  23879100.424 5
        42.500          30.500
  22462722.937 8 118042420.27108  91981096.42406  22462718.019 6  22462721.618 6
        48.750          41.500
  25217509.583 6 132518910.59506 103261481.40905  25217506.865 5  25217509.038 5
        36.000          30.000
  24517899.662 6 128842435.99806 100396718.19804  24517900.955 4  24517899.376 4
        38.500          24.500
  22057611.296 7 115913603.08607  90322327.61906  22057612.742 6  22057610.831 6
        46.750          40.250
  20760572.655 8 109097617.16808  85011146.15508  20760572.377 8  20760572.526 8
        51.500          48.500
  24725562.414 6 129933764.94406 101247086.85805  24725559.755 5  24725561.757 5
        38.250          33.250
  22072788.374 7 115993354.53407  90384432.72708  22072788.522 8  22072787.498 8
        45.750          48.750
  20192866.696 8 106114306.47208  82686492.02408  20192863.507 8  20192866.366 8
        50.500          50.250
 20  9  1  1 55 30.0000000  0 10G03G10G22G29G01G26G32G12G25G31
  23416137.586 7 123052648.91607  95885186.85005  23416137.315 5  23416137.599 5
        43.000          31.500
  23900770.320 7 125599420.22107  97869689.75205  23900770.465 5  23900769.972 5
        42.500          31.250
  22453864.203 8 117995868.56808  91944822.38507  22453859.520 7  22453862.884 7
        49.000          42.000
  25204101.400 5 132448450.01605 103206577.09705  25204099.756 5  25204100.873 5
        35.750          31.250
  24529332.834 6 128902517.64606 100443535.05103  24529334.424 3  24529332.535 3
        38.250          23.250
  22039098.147 7 115816315.08707  90246518.82406  22039099.308 6  22039097.691 6
        47.000          40.500
  20766860.710 8 109130661.22608  85036894.77208  20766860.440 8  20766860.581 8
        52.000          48.750
  24744871.942 6 130035237.72506 101326156.57505  24744869.809 5  24744871.299 5
        38.250          34.000
  22085236.213 7 116058767.45807  90435403.84408  22085236.209 8  22085235.324 8
        46.000          49.250
  20193570.150 8 106118002.46208  82689372.02208  20193566.866 8  20193569.820 8
        51.000          50.750
 20  9  1  1 56  0.0000000  0 10G03G10G22G29G01G26G32G12G25G31
  23400049.460 7 122968101.82007  95819306.01405  23400049.526 5  23400049.473 5
        43.750          33.000
  23922463.143 7 125713418.08607  97958519.23505  23922463.974 5  23922462.790 5
        42.000          31.250
  22445097.255 8 117949796.60708  91908922.16407  22445092.229 7  22445095.936 7
        49.000          42.000
  25190727.959 6 132378168.41206 103151812.23305  25190726.653 5  25190727.463 5
        38.750          34.750
  24540827.670 6 128962928.13706 100490608.15203  24540829.106 3  24540827.353 3
        37.250          22.000
  22020643.096 7 115719335.08107  90170950.03206  22020644.573 6  22020642.649 6
        47.250          41.000
  20773210.658 8 109164030.15608  85062896.53608  20773210.377 8  20773210.529 8
        52.000          49.000
  24764231.402 6 130136971.81806 101405429.91305  24764228.442 5  24764230.781 5
        38.500          33.750
  22097781.143 7 116124692.12607  90486773.71708  22097781.185 8  22097780.254 8
        45.250          49.250
  20194346.883 8 106122084.31908  82692552.69908  20194343.525 8  20194346.553 8
        50.750          50.750
 20  9  1  1 56 30.0000000  0 10G03G10G22G29G01G26G32G12G25G31
  23384027.898 7 122883910.18007  95753702.15605  23384028.392 5  23384027.915 5
        43.250          32.500
  23944179.502 7 125827537.52807  98047443.47105  23944179.703 5  23944179.122 5
        43.250          30.500
  22436421.471 8 117904205.91808  91873396.95006  22436416.575 6  22436420.152 6
        49.000          41.750
  25177387.915 6 132308068.62306 103097189.07205  25177387.114 5  25177387.370 5
        37.250          35.000
  24552386.512 6 129023664.47606 100537935.15404  24552386.877 4  24552386.186 4
        39.750          24.500
  22002247.730 7 115622665.70207  90095623.26406  22002248.483 6  22002247.270 6
        47.250          40.000
  20779622.350 8 109197724.33008  85089151.73908  20779622.294 8  20779622.221 8
        51.750          48.500
  24783640.051 6 130238964.45706 101484904.71805  24783636.527 5  24783639.390 5
        38.250          31.500
  22110423.152 7 116191126.02007  90538540.39408  22110423.334 8  22110422.267 8
        46.000          49.000
  20195196.798 8 106126550.87508  82696033.14308  20195193.419 8  20195196.472 8
        51.000          50.500
 20  9  1  1 57  0.0000000  0 10G03G10G22G29G01G26G32G12G25G31
  23368075.340 7 122800076.67407  95688377.36005  23368074.952 5  23368075.371 5
        43.750          31.500
  23965918.345 7 125941775.95707  98136460.44205  23965918.473 5  23965917.974 5
        42.750          30.250
  22427837.854 8 117859097.76208  91838247.74107  22427833.224 7  22427836.540 7
        49.000          42.000
  25164084.168 6 132238153.84106 103042710.03405  25164083.067 5  25164083.668 5
        37.500          34.500
  24564005.222 6 129084723.80706 100585513.81004  24564007.095 4  24564004.905 4
        39.250          26.500
  21983911.881 7 115526309.62707  90020540.63306  21983912.796 6  21983911.425 6
        46.500          40.250
  20786096.146 8 109231744.10008  85115660.65208  20786096.099 8  20786096.021 8
        52.000          48.750
  24803096.882 6 130341212.85806 101564578.82305  24803094.435 5  24803096.163 5
        36.750          32.000
  22123161.471 7 116258066.75207  90590702.00408  22123161.892 8  22123160.604 8
        45.750          49.250
  20196119.562 8 106131400.82908  82699812.33608  20196116.237 8  20196119.245 8
        51.000          50.750
 20  9  1  1 57 30.0000000  0 10G03G10G22G29G01G26G32G12G25G31
  23352190.586 7 122716603.94407  95623333.68205  23352190.654 5  23352190.594 5
        43.750          33.500
  23987679.163 7 126056130.73607  98225568.05505  23987679.978 5  23987678.774 5
        42.250          30.500
  22419346.239 8 117814474.15308  91803476.10507  22419341.439 7  22419344.934 7
        48.750          42.250
  25150815.189 6 132168427.55606 102988377.87305  25150813.889 5  25150814.702 5
        36.750          32.500
  24575685.844 6 129146103.17006 100633341.91004  24575686.562 4  24575685.536 4
        36.750          24.500
  21965636.247 7 115430269.53207  89945704.22306  21965636.747 6  21965635.800 6
        47.250          41.250
  20792631.687 8 109266089.79208  85142423.52908  20792631.850 8  20792631.567 8
        52.000          49.000
  24822602.306 6 130443713.91106 101644449.80105  24822600.002 5  24822601.555 5
        37.000          31.750
  22135995.699 7 116325511.82507  90643256.60508  22135996.446 8  22135994.832 8
        45.250          49.250
  20197115.302 8 106136632.87708  82703889.26608  20197111.857 8  20197115.003 8
        50.750          50.750
 20  9  1  1 58  0.0000000  0 10G03G10G22G29G01G26G32G12G25G31
  23336375.538 7 122633494.56407  95558573.17705  23336376.363 5  23336375.551 5
        44.250          33.750
  24009461.812 7 126170599.24007  98314764.29205  24009463.044 5  24009461.410 5
        42.000          30.250
  22410946.975 8 117770336.56908  91769083.18807  22410942.305 7  22410945.665 7
        48.750          42.000
  25137582.011 6 132098892.41206 102934194.63305  25137580.516 5  25137581.524 5
        37.250          32.500
  24587425.775 6 129207799.71206 100681417.12704  24587427.044 4  24587425.458 4
        39.250          25.750
  21947420.433 8 115334548.03608  89871116.07307  21947422.147 7  21947419.991 7
        48.000          42.250
  20799229.553 8 109300761.80708  85169440.68508  20799229.836 8  20799229.437 8
        52.000          49.000
  24842155.701 6 130546464.73606 101724515.41005  24842152.310 5  24842154.946 5
        38.000          31.250
  22148925.988 7 116393458.79007  90696202.30108  22148926.129 8  22148925.134 8
        46.000          49.500
  20198183.455 8 106142246.22308  82708263.30708  20198180.092 8  20198183.169 8
        51.250          51.000
 20  9  1  1 58 30.0000000  0 11G03G10G22G29G16G01G26G32G12G25G31
  23320629.827 7 122550751.10307  95494097.76905  23320630.241 5  23320629.853 5
        43.250          33.000
  24031265.084 6 126285178.85806  98404047.10004  24031266.788 4  24031264.624 4
        41.000          29.500
  22402640.646 8 117726685.91908  91735069.71407  22402635.815 7  22402639.341 7
        48.750          42.250
  25124388.093 6 132029551.64106 102880162.89605  25124385.281 5  25124387.642 5
        37.750          33.250
  25471812.296 5 133855275.25915
        32.750
  24599226.957 6 129269810.53806 100729737.25604  24599226.842 4  24599226.640 4
        40.000          25.000
  21929266.162 7 115239147.77607  89796778.24606  21929267.932 6  21929265.720 6
        46.750          41.250
  20805889.543 8 109335760.40908  85196712.32308  20805889.822 8  20805889.409 8
        51.500          48.750
  24861754.580 6 130649462.43006 101804773.39605  24861751.602 5  24861753.820 5
        36.250          30.000
  22161950.762 7 116461905.17607  90749537.14308  22161951.308 8  22161949.913 8
        44.750          48.750
  20199323.682 8 106148239.66308  82712933.52608  20199320.598 8  20199323.401 8
        51.000          50.750
 20  9  1  1 59  0.0000000  0 11G03G10G22G29G16G01G26G32G12G25G31
  23304954.064 7 122468376.20407  95429909.56005  23304954.910 5  23304954.108 5
        43.500          33.000
  24053089.514 6 126399866.99306  98493414.45904  24053090.631 4  24053089.018 4
        41.250          29.250
  22394427.183 8 117683524.21208  91701437.22607  22394422.446 7  22394425.882 7
        48.250          42.250
  25111230.684 6 131960408.53106 102826285.17506  25111229.204 6  25111230.219 6
        39.250          36.750
  25448506.726 5 133732805.89505 104207374.41711  25448504.488 1  25448507.128 1
        33.500           7.750
  24611085.717 6 129332132.56606 100778299.85604  24611086.457 4  24611085.422 4
        38.750          24.250
  21911174.046 7 115144071.38607  89722692.77606  21911175.354 6  21911173.613 6
        47.000          41.500
  20812611.936 8 109371085.98008  85224238.74008  20812611.891 8  20812611.793 8
        51.500          48.750
  24881401.091 5 130752704.10705 101885221.48404  24881397.886 4  24881400.345 4
        35.500          29.750
  22175070.428 7 116530848.44007  90803259.17808  22175070.078 8  22175069.615 8
        45.250          48.750
  20200536.282 8 106154611.55608  82717898.64408  20200533.141 8  20200536.014 8
        50.750          50.750
 20  9  1  1 59 30.0000000  0 11G03G10G22G29G16G01G26G32G12G25G31
  23289349.613 7 122386372.40707  95366010.50505  23289349.847 5  23289349.644 5
        42.750          32.750
  24074934.417 6 126514660.93606  98582864.28505  24074935.268 5  24074933.917 5
        41.750          30.500
  22386307.251 8 117640852.88508  91668186.85307  22386302.601 7  22386305.941 7
        48.250          42.250
  25098111.662 6 131891465.94806 102772563.71806  25098110.277 6  25098111.166 6
        40.500          38.750
  25425189.413 5 133610272.79305 104111894.12401  25425189.130 1  25425189.288 1
        33.500           9.000
  24623003.857 6 129394762.90006 100827102.72504  24623005.410 4  24623003.567 4
        39.250          26.500
  21893143.927 7 115049321.44007  89648861.67806  21893144.725 6  21893143.494 6
        47.000          41.500
  20819396.408 8 109406738.85408  85252020.20008  20819396.237 8  20819396.274 8
        51.750          48.750
  24901093.642 5 130856187.03505 101965857.56804  24901090.361 4  24901092.958 4
        34.500          29.000
  22188283.429 7 116600286.12007  90857366.46208  22188284.246 8  22188282.593 8
        44.750          49.250
  20201820.691 8 106161361.20208  82723158.11608  20201817.574 8  20201820.423 8
        50.750          50.750
 20  9  1  2  0  0.0000000  0 11G03G10G22G29G16G01G26G32G12G25G31
  23273815.503 7 122304742.35507  95302402.68505  23273816.436 5  23273815.499 5
        43.750          33.250
  24096799.132 6 126629558.10206  98672394.55604  24096799.230 4  24096798.663 4
        41.750          29.000
  22378281.073 8 117598673.36008  91635319.70107  22378276.034 7  22378279.763 7
        48.500          42.250
  25085030.014 6 131822726.85006 102719000.82106  25085029.574 6  25085029.518 6
        40.250          37.000
  25401860.247 5 133487678.78005 104016366.28202  25401859.759 2  25401859.890 2
        34.500          13.000
  24634980.693 6 129457698.53606 100876143.45404  24634982.146 4  24634980.403 4
        38.500          26.000
  21875176.054 7 114954900.51707  89575286.93206  21875176.659 6  21875175.625 6
        47.500          41.250
  20826243.268 8 109442719.30008  85280056.91308  20826243.042 8  20826243.134 8
        52.250          48.750
  24920830.517 5 130959908.43405 102046679.45604  24920827.670 4  24920829.874 4
        35.500          29.000
  22201590.867 7 116670215.62107  90911856.98308  22201591.339 8  22201590.045 8
        45.750          49.000
  20203176.986 8 106168487.26508  82728710.90208  20203173.598 8  20203176.718 8
        51.250          50.750
 20  9  1  2  0 30.0000000  0 11G03G10G22G29G16G01G26G32G12G25G31
  23258354.058 7 122223488.64407  95239088.11805  23258353.641 5  23258354.045 5
        44.000          32.500
  24118682.207 7 126744555.93107  98762003.28005  24118682.050 5  24118681.778 5
        42.000          35.000
  22370348.419 7 117556987.18807  91602836.98407  22370343.416 7  22370347.091 7
        47.750          42.000
  25071989.149 6 131754194.47406 102665598.98805  25071987.939 5  25071988.640 5
        36.750          34.000
  25378519.757 5 133365026.07605 103920792.79102  25378519.409 2  25378519.391 2
        34.500          13.750
  24647013.880 6 129520936.63106 100925419.90004  24647015.801 4  24647013.563 4
        37.750          24.500
  21857271.498 7 114860811.30707  89501970.68306  21857272.421 6  21857271.078 6
        47.750          41.500
  20833152.655 8 109479027.68008  85308349.15508  20833152.357 8  20833152.521 8
        52.000          48.500
  24940612.786 6 131063865.07206 102127684.67304  24940609.868 4  24940612.098 4
        36.000          28.250
  22214990.982 7 116740634.49207  90966728.84808  22214991.245 8  22214990.151 8
        45.000          48.500
  20204604.565 8 106175988.76608  82734556.23208  20204601.061 8  20204604.302 8
        50.750          50.500
